,职位编码,职位名称,所在城市,发布日期,薪资待遇(k),公司编码,公司名称,公司全称,公司规模,所在区域,最低学历,融资状态,公司类型,经度,纬度,全职/实习,工作经验,吸引条件
0,2664788,ASP程序开发,重庆,2018-04-25 15:03:43,8.4,162527,零刻度科技,重庆市零刻度科技有限公司,少于15人,万州区,不限,未融资,"移动互联网,电子商务",108.38863,30.801478,全职,不限,[]
1,2029488,C#/ASP/.net系统开发工程师,佛山,2018-04-11 11:43:58,7.0,110898,新宝电器,广东新宝电器股份有限公司,2000人以上,,大专,上市公司,其他,,,全职,1-3年,"['年底双薪', '专项奖金', '带薪年假', '提供住宿']"
2,4130590,asp/.net开发工程师,长春,2018-04-03 08:37:55,7.6,318169,亿网互联,吉林省亿网互联科技有限公司,150-500人,高新开发区,大专,A轮,移动互联网 电子商务,125.239007,43.801652,全职,3-5年,[]
3,1583816,ASP / .net 程序员,深圳,2018-04-24 15:08:00,7.0,36976,中国基金报,《中国基金报》社有限公司,50-150人,福田区,大专,未融资,文化娱乐,,,全职,应届毕业生,"['技能培训', '年底双薪', '节日礼物', '绩效奖金']"
4,4282595,Asp.net 开发人员,北京,2018-05-02 13:53:47,10.8,337164,清大东方消防学校,清大东方教育科技集团有限公司,500-2000人,朝阳区,大专,不需要融资,教育,116.50215,39.893703,全职,3-5年,"['带薪年假', '午餐补助', '交通补助', '节日礼物']"
5,3255572,ASP.NET开发攻城狮,北京,2018-05-02 18:02:26,10.8,71684,资质管家,资质管家（北京）信息技术有限公司,50-150人,海淀区,本科,不需要融资,电子商务,116.307466,39.984319,全职,1-3年,"['技能培训', '绩效奖金', '年度旅游', '管理规范']"
6,3866919,asp.net高级开发工程师,广州,2018-05-02 13:53:05,14.4,285012,广州健联,广州健联科技有限公司,50-150人,白云区,大专,A轮,"移动互联网,电子商务",113.254971,23.186808,全职,5-10年,"['帅哥多', '年度旅游', '弹性工作', '美女多']"
7,3219785,ASP.NET 软件工程师,重庆,2018-04-30 09:04:47,6.2,211235,艾姆诗,深圳市艾姆诗数码科技有限公司重庆分公司,500-2000人,九龙坡区,大专,未融资,"移动互联网,电子商务",106.4874,29.533566,全职,3-5年,"['年度旅游', '节日礼物', '美女多', '技能培训']"
8,4029396,Asp.Net软件工程师,广州,2018-05-03 09:22:06,8.4,158991,广州市云润大数据,广州市云润大数据服务有限公司,150-500人,天河区,大专,A轮,"数据服务,移动互联网",113.388807,23.125946,全职,1-3年,[]
9,3729438,高级.Net开发（Asp.net）,上海,2018-05-03 09:25:03,14.4,22862,上海中软华腾软件系统有限公司,上海中软华腾软件系统有限公司,2000人以上,浦东新区,本科,上市公司,"企业服务,金融",121.635159,31.222879,全职,3-5年,"['年底双薪', '绩效奖金', '带薪年假', '定期体检']"
10,4339964,asp.net开发工程师（B/S）,成都,2018-04-27 16:05:35,12.0,247420,唐源电气,成都唐源电气股份有限公司,150-500人,武侯区,本科,不需要融资,其他,103.972951,30.628924,全职,3-5年,"['带薪年假', '专项奖金', '年度旅游', '节日礼物']"
11,2827162,ASP.Net开发工程师,广州,2018-05-02 09:13:47,12.6,171993,数夫软件,广州数夫软件科技有限公司,150-500人,天河区,大专,未融资,移动互联网,113.372471,23.126201,全职,1-3年,[]
12,4037559,ASP.NET 高级工程师,成都,2018-05-02 10:05:06,9.6,267146,绘意,成都绘意动画制作有限公司,50-150人,高新区,大专,不需要融资,"游戏,移动互联网",104.061686,30.576766,全职,3-5年,"['年底双薪', '午餐补助', '节日礼物', '五险一金']"
13,4284011,ASP.NET 软件工程师,苏州,2018-05-02 21:45:09,7.0,92257,云力体育,苏州云力体育科技有限公司,少于15人,工业园区,大专,未融资,"移动互联网,社交网络",120.729976,31.257142,全职,1-3年,"['股票期权', '扁平管理', '五险一金', '弹性工作']"
14,4505694,ASP.NET Core 开发实习生（招聘产品方向,杭州,2018-05-02 13:19:23,3.8,71294,博客园,上海有程信息技术有限公司,少于15人,西湖区,大专,未融资,其他,120.080966,30.129497,实习,应届毕业生,"['五险一金', '弹性工作', '苹果开发机', '技术驱动']"
15,2664854,ASP开发助理,重庆,2018-04-25 15:03:43,2.4,162527,零刻度科技,重庆市零刻度科技有限公司,少于15人,万州区,不限,未融资,"移动互联网,电子商务",108.38863,30.801478,全职,不限,[]
16,3866848,asp.net初级开发工程师,广州,2018-05-02 13:53:05,6.8,285012,广州健联,广州健联科技有限公司,50-150人,白云区,大专,A轮,"移动互联网,电子商务",113.254971,23.186808,全职,1-3年,"['帅哥多', '年度旅游', '弹性工作', '美女多']"
17,4484867,asp.net 软件工程师,长沙,2018-04-26 10:22:32,7.6,373686,天杰软件科技,长沙天杰软件科技有限公司,15-50人,岳麓区,大专,未融资,"信息安全,数据服务",112.914375,28.211458,全职,3-5年,"['""""']"
18,4404570,ASP.NET 开发工程师,上海,2018-05-02 09:55:54,10.8,122425,兽耳科技,上海兽耳网络科技有限公司,15-50人,浦东新区,大专,天使轮,"移动互联网,文化娱乐",0.0,0.0,全职,1-3年,"['年度旅游', 'ACG', '二刺源', '冻鳗']"
19,3345644,asp.net技术员,广州,2018-04-28 09:43:40,14.0,97873,昂鼎信息,广州昂鼎信息科技有限公司,15-50人,越秀区,不限,不需要融资,移动互联网,113.309639,23.118185,全职,5-10年,"['专项奖金', '带薪年假', '绩效奖金', '岗位晋升']"
20,3826572,ASP.NET(C#)开发工程师,深圳,2018-05-02 17:59:30,10.8,282973,杰源网络,深圳市杰源网络信息有限公司,50-150人,南山区,大专,未融资,移动互联网 信息安全,113.940874,22.545705,全职,3-5年,"['绩效奖金', '带薪年假', '通讯津贴', '年度旅游']"
21,4272945,asp.net实习生,天津,2018-04-10 11:51:37,2.8,338918,北京展望未来科技有限公司,北京展望未来科技有限公司,15-50人,西青区,大专,未融资,"移动互联网,硬件",,,全职,不限,"['""""']"
22,4509540,C#/asp.net/net 软件工程师,东莞,2018-05-02 20:12:47,9.8,276183,当下云厨,深圳市当下云厨网络科技有限公司,50-150人,东莞市市辖区,大专,A轮,移动互联网,0.0,0.0,全职,1-3年,"['""""']"
23,4396547,asp.net工程师,成都,2018-05-02 14:37:51,8.8,267147,游技网络,成都游技网络科技有限公司,50-150人,双流区,大专,不需要融资,"移动互联网,企业服务",104.069204,30.546203,全职,3-5年,[]
24,3417802,ASP.NET,上海,2018-05-02 13:07:04,19.0,49527,路路由,上海路路由信息技术有限公司,150-500人,浦东新区,大专,A轮,"移动互联网,O2O",121.552154,31.210786,全职,3-5年,"['节日礼物', '专项奖金', '带薪年假', '绩效奖金']"
25,4029839,asp.net,福州,2018-04-29 18:54:07,8.4,302395,畅游世界,福州市畅游世界网络科技有限公司,少于15人,台江区,本科,不需要融资,"移动互联网,游戏",119.279336,26.060703,全职,不限,"['带薪年假', '绩效奖金', '定期体检', '专项奖金']"
26,4504686,Asp.Net棋牌后台网站工程师（广州分公司）,广州,2018-05-02 11:00:19,8.4,375786,蓝波万,深圳蓝波万网络科技有限公司,50-150人,番禺区,大专,未融资,游戏 文化娱乐,113.363925,22.977373,全职,1-3年,"['""""']"
27,4014022,asp.net实习生,南昌,2018-04-27 10:22:26,1.4,310113,维悟科技,南昌市维悟科技有限公司,少于15人,青山湖区,不限,未融资,"移动互联网,企业服务",115.842078,28.741182,全职,应届毕业生,[]
28,3405018,急聘ASP.NET（C#）开发,北京,2018-05-02 18:02:27,11.2,71684,资质管家,资质管家（北京）信息技术有限公司,50-150人,海淀区,本科,不需要融资,电子商务,116.307466,39.984319,全职,1-3年,"['技能培训', '绩效奖金', '年度旅游', '管理规范']"
29,4420210,asp.net开发工程师,上海,2018-05-02 18:02:16,8.8,70575,机锋科技,上海机锋信息科技有限公司,50-150人,虹口区,不限,B轮,"移动互联网,电子商务",,,全职,3-5年,"['节日礼物', '技能培训', '年度旅游', '岗位晋升']"
30,3866884,asp.net中级开发工程师,广州,2018-05-02 13:53:05,9.2,285012,广州健联,广州健联科技有限公司,50-150人,白云区,大专,A轮,"移动互联网,电子商务",113.254971,23.186808,全职,3-5年,"['帅哥多', '年度旅游', '弹性工作', '美女多']"
31,4284063,ASP.NET软件工程师(实习),苏州,2018-05-02 21:45:09,2.8,92257,云力体育,苏州云力体育科技有限公司,少于15人,工业园区,本科,未融资,"移动互联网,社交网络",120.729976,31.257142,全职,不限,"['股票期权', '扁平管理', '五险一金', '弹性工作']"
32,4207962,asp.net开发工程师,厦门,2018-05-01 14:36:04,14.0,58426,点触科技,厦门点触科技股份有限公司,150-500人,思明区,本科,上市公司,"移动互联网,游戏",118.197113,24.485666,全职,3-5年,"['技能培训', '节日礼物', '带薪年假', '绩效奖金']"
33,4506552,asp.net工程师,成都,2018-05-02 14:56:32,7.0,86055,四川鱼鳞图,四川鱼鳞图信息技术股份有限公司,500-2000人,金牛区,本科,上市公司,"移动互联网,数据服务",104.056631,30.695956,全职,1-3年,"['节日礼物', '年底双薪', '带薪年假', '绩效奖金']"
34,4401862,ASP.NET程序员,武汉,2018-05-02 11:06:22,7.6,135836,尼森科技,尼森科技（湖北）有限公司,50-150人,东湖新技术开发区,大专,未融资,"移动互联网,企业服务",114.406756,30.453945,全职,3-5年,[]
35,4509039,C#/ASP.NET研发工程师,厦门,2018-05-02 18:25:04,7.6,248662,走启科技,厦门走启互联网科技有限公司,少于15人,集美区,大专,未融资,"电子商务,移动互联网",118.053344,24.606519,全职,1-3年,"['绩效奖金', '领导好', '扁平管理', '岗位晋升']"
36,4439001,ASP.NET Team Leader,北京,2018-05-02 08:42:27,13.2,346438,雷杰展达,北京雷杰展达律师事务所,50-150人,东城区,本科,不需要融资,"企业服务,其他",116.436087,39.936592,全职,3-5年,"['""""']"
37,3723269,ASP.NET高级开发工程师,广州,2018-04-03 16:10:48,7.6,22069,骆驼服饰,广东骆驼服饰有限公司,500-2000人,白云区,大专,未融资,电子商务,113.242946,23.192017,全职,3-5年,"['绩效奖金', '带薪年假', '节日礼物', '年度旅游']"
38,3443723,ASP.NET高级开发工程师,广州,2018-05-02 14:03:13,11.2,130007,佳禾科技,广州佳禾科技有限公司,50-150人,天河区,本科,不需要融资,"移动互联网,企业服务",113.339888,23.138294,全职,3-5年,[]
39,4472916,asp.net工程师,郑州,2018-05-02 11:28:31,7.2,141924,歌匣子APP,郑州再厉网络科技有限公司,15-50人,金水区,不限,天使轮,"移动互联网,社交网络",113.994087,34.993239,全职,1-3年,[]
40,2516170,ASP.NET Core开发实习生,杭州,2018-04-23 10:13:45,3.8,71294,博客园,上海有程信息技术有限公司,少于15人,西湖区,本科,未融资,其他,120.080966,30.129497,实习,不限,"['五险一金', '弹性工作', '苹果开发机', '技术驱动']"
41,4247433,ASP.NET 软件工程师,苏州,2018-04-11 11:15:41,7.0,340206,久道软件,苏州久道信息科技有限公司,少于15人,工业园区,本科,未融资,"移动互联网,医疗健康",120.729912,31.256665,全职,1-3年,"['股票期权', '绩效奖金', '年终分红', '午餐补助']"
42,4450397,ASP.NET开发工程师,广州,2018-05-02 16:13:10,10.0,225738,广州洲聚,广州洲聚信息科技有限公司,50-150人,天河区,大专,未融资,移动互联网,0.0,0.0,全职,1-3年,"['年底双薪', '带薪年假', '弹性工作', '扁平管理']"
43,4163436,Asp.net高级软件工程师,上海,2018-05-02 08:50:27,20.8,53808,Beta财富,上海贝耳塔信息技术有限公司,50-150人,浦东新区,本科,B轮,金融,121.56314,31.20503,全职,5-10年,"['技能培训', '专项奖金', '股票期权', '带薪年假']"
44,4377570,ASP.NET程序开发员,东莞,2018-05-02 19:50:30,9.8,276183,当下云厨,深圳市当下云厨网络科技有限公司,50-150人,东莞市市辖区,大专,A轮,移动互联网,113.842223,22.899965,全职,1-3年,"['""""']"
45,4409499,ASP.NET开发工程师,深圳,2018-05-02 15:23:11,10.8,89497,得润车联网,深圳市得润电子股份有限公司,2000人以上,光明新区,本科,上市公司,"移动互联网,硬件",0.0,0.0,全职,3-5年,"['年底双薪', '股票期权', '带薪年假', '年度旅游']"
46,4497178,JTZNYX-高级ASP.NET研发工程师,北京,2018-05-02 09:46:07,19.0,39952,易车公司,北京易车互联信息技术有限公司,2000人以上,海淀区,本科,上市公司,"移动互联网,电子商务",116.32732,39.93812,全职,3-5年,"['技能培训', '节日礼物', '绩效奖金', '岗位晋升']"
47,4503660,ASP.net程序员,杭州,2018-05-02 08:59:23,9.4,273731,格鲁伯,杭州格鲁伯商务网络技术有限公司,15-50人,拱墅区,大专,不需要融资,移动互联网,120.146173,30.287286,全职,1-3年,[]
48,3502520,asp.net高级软件工程师,长沙,2018-04-27 10:53:39,11.2,29579,辰运软件,长沙辰运软件有限公司,150-500人,岳麓区,大专,不需要融资,移动互联网,112.882957,28.230098,全职,3-5年,"['年底双薪', '技能培训', '绩效奖金', '年度旅游']"
49,4195369,.NET C# 开发工程师(ASP.NET),上海,2018-04-28 10:16:02,12.0,62838,SUGARMONKEY,糖猴子网络科技（上海）有限公司,15-50人,长宁区,不限,未融资,"移动互联网,广告营销",121.432107,31.219442,全职,3-5年,"['节日礼物', '绩效奖金', '年度旅游', '岗位晋升']"
50,3991496,C#及asp.net-初级开发工程师,武汉,2018-04-04 09:08:23,7.0,307701,中冠,武汉中冠相合文化发展有限公司,15-50人,东湖新技术开发区,大专,不需要融资,"移动互联网,电子商务",114.430295,30.504874,全职,1-3年,[]
51,4183092,asp.net软件工程师,合肥,2018-05-02 15:28:43,7.6,329279,菲霖科技,安徽菲霖信息科技有限公司,少于15人,蜀山区,大专,天使轮,"移动互联网,企业服务",117.211304,31.841004,全职,1-3年,"['年底双薪', '带薪年假', '弹性工作', '节日礼物']"
52,4449296,asp.net软件开发工程师,广州,2018-04-19 13:54:33,5.6,311772,深圳隽思,深圳隽思信息科技有限公司,50-150人,天河区,本科,未融资,"移动互联网,电子商务",113.322692,23.14984,全职,1-3年,"['""""']"
53,4243570,asp.net开发工程师,天津,2018-05-02 09:20:04,6.2,338918,北京展望未来科技有限公司,北京展望未来科技有限公司,15-50人,西青区,大专,未融资,"移动互联网,硬件",,,全职,不限,"['""""']"
54,3795860,ASP.NET高级开发工程师,南京,2018-05-01 16:56:13,12.6,128986,结婚乐,南京婚尚信息技术有限公司,50-150人,秦淮区,大专,天使轮,"O2O,生活服务",0.0,0.0,全职,3-5年,"['带薪年假', '午餐补助', '交通补助', '年度旅游']"
55,4488494,ASP.NET,武汉,2018-04-26 16:03:41,12.0,22960,北京金贵创新,北京金贵创新科技开发有限公司,50-150人,洪山区,大专,不需要融资,"移动互联网,O2O",114.415977,30.493094,全职,3-5年,"['年终分红', '年底双薪', '五险一金', '交通补助']"
56,4374724,asp.net 技术总监,长沙,2018-04-14 17:14:44,17.0,224456,湖南南澳,湖南南澳网络科技有限公司,50-150人,岳麓区,大专,不需要融资,移动互联网,112.891976,28.213617,全职,5-10年,[]
57,3646209,asp.net开发工程师,厦门,2018-05-02 08:54:20,5.6,242238,普瑞特,厦门普瑞特科技有限公司,500-2000人,湖里区,大专,不需要融资,硬件,118.145072,24.537617,全职,1-3年,[]
58,2711267,Asp.net软件开发工程师,成都,2018-05-02 19:47:39,4.2,42203,裁软,南昌天纳信息技术有限公司,15-50人,郫都区,大专,不需要融资,移动互联网,103.97813,30.733085,全职,1-3年,"['技能培训', '专项奖金', '绩效奖金', '岗位晋升']"
59,4156112,ASP.NET(C#)开发工程师,上海,2018-05-02 14:10:54,11.2,78608,科享,上海科享信息科技有限公司,50-150人,徐汇区,大专,A轮,移动互联网,121.392776,31.172145,全职,3-5年,"['年底双薪', '带薪年假', '绩效奖金', '岗位晋升']"
60,2141400,asp.net软件开发工程师,上海,2018-04-23 16:20:03,17.0,123622,上海繁易科技,上海繁易信息科技股份有限公司,150-500人,杨浦区,本科,C轮,"移动互联网,硬件",121.99341,30.994275,全职,3-5年,"['年底双薪', '股票期权', '绩效奖金', '带薪年假']"
61,4148043,Asp.net开发工程师/BI数据,上海,2018-05-02 13:44:51,19.0,112839,精锐教育,上海精学锐信息科技有限公司,2000人以上,普陀区,本科,上市公司,"移动互联网,教育",121.432711,31.245585,全职,3-5年,"['绩效奖金', '带薪年假', '专项奖金', '弹性工作']"
62,2244158,ASP.NET研发工程师,厦门,2018-05-02 11:23:52,7.6,144166,致一科技,厦门致一科技有限公司,15-50人,思明区,大专,天使轮,"移动互联网,社交网络",118.194573,24.490475,全职,1-3年,[]
63,1403060,ASP.NET程序员,深圳,2018-05-02 09:32:37,11.4,112194,深交投,深圳市交投科技有限公司,15-50人,福田区,本科,不需要融资,"移动互联网,其他",114.077386,22.547285,全职,3-5年,"['专项奖金', '绩效奖金', '带薪年假', '年底双薪']"
64,1441688,Asp.net工程师,深圳,2018-04-19 09:36:24,10.8,83025,环球易购,深圳市环球易购电子商务有限公司,2000人以上,南山区,大专,上市公司,电子商务,113.92282,22.515947,全职,1-3年,"['节日礼物', '股票期权', '带薪年假', '绩效奖金']"
65,4276740,asp.net c#开发工程师,广州,2018-05-02 14:05:04,7.6,125267,广州天汇,广州市天汇计算机科技有限公司,15-50人,天河区,大专,未融资,"移动互联网,数据服务",113.34377,23.139045,全职,1-3年,[]
66,4403111,asp.net开发工程师,上海,2018-04-26 10:48:17,14.0,63702,犇众信息,上海犇众信息技术有限公司,15-50人,闵行区,本科,天使轮,移动互联网,121.37782,31.11196,全职,1-3年,"['节日礼物', '股票期权', '带薪年假', '年度旅游']"
67,4249804,asp.net软件开发工程师,深圳,2018-04-17 09:53:32,6.6,311772,深圳隽思,深圳隽思信息科技有限公司,50-150人,南山区,本科,未融资,"移动互联网,电子商务",113.940008,22.540521,全职,1-3年,"['""""']"
68,4382695,ASP.NET MVC 软件工程师,广州,2018-04-08 15:46:39,8.4,69552,广东电信工程,广东省电信工程有限公司,2000人以上,越秀区,大专,不需要融资,"移动互联网,企业服务",112.993461,22.994261,全职,1-3年,"['技能培训', '年底双薪', '带薪年假', '绩效奖金']"
69,1659145,IT软件（ASP.net）,珠海,2018-04-26 09:05:35,9.4,53357,珠海优特科技,珠海优特电力科技股份有限公司,500-2000人,,本科,不需要融资,其他,113.5582175,22.2807635,全职,3-5年,"['技能培训', '年底双薪', '专项奖金', '带薪年假']"
70,4320463,asp.net开发工程师,无锡,2018-04-25 11:09:09,8.4,100409,泛亚,泛亚信息技术江苏有限公司,500-2000人,北塘区,不限,不需要融资,"移动互联网,电子商务",120.297364,31.61256,全职,1-3年,"['节日礼物', '免费班车', '带薪年假', '年度旅游']"
71,4506177,网站后台Asp.Net开发工程师,广州,2018-05-02 14:20:54,8.4,204484,棋游网络,广州棋游网络科技有限公司,50-150人,番禺区,本科,未融资,移动互联网,113.371148,22.951706,全职,1-3年,"['股票期权', '年终分红', '专项奖金', '通讯津贴']"
72,2844649,asp.net软件工程师,上海,2018-05-02 09:30:26,10.8,84387,运去哪,上海汇航捷讯网络科技有限公司,150-500人,黄浦区,大专,B轮,"电子商务,企业服务",121.486518,31.230466,全职,1-3年,"['节日礼物', '年底双薪', '带薪年假', '绩效奖金']"
73,4493933,asp.net 开发工程师,上海,2018-05-02 09:49:00,7.6,132579,圣剑网络,上海圣剑网络科技股份有限公司,50-150人,浦东新区,本科,D轮及以上,"移动互联网,游戏",121.628864,31.206464,全职,1-3年,"['带薪年假', '午餐补助', '定期体检', '年度旅游']"
74,4305455,ASP.NET MVC技术经理,北京,2018-05-02 08:42:35,17.0,346438,雷杰展达,北京雷杰展达律师事务所,50-150人,东城区,本科,不需要融资,"企业服务,其他",116.436087,39.936592,全职,3-5年,"['""""']"
75,4034307,Asp.net高级软件开发工程师,深圳,2018-04-17 09:58:33,12.0,311772,深圳隽思,深圳隽思信息科技有限公司,50-150人,南山区,大专,未融资,"移动互联网,电子商务",113.940008,22.540521,全职,3-5年,"['""""']"
76,3991443,C#及asp.net-中级开发工程师,武汉,2018-04-04 09:08:22,14.0,307701,中冠,武汉中冠相合文化发展有限公司,15-50人,东湖新技术开发区,大专,不需要融资,"移动互联网,电子商务",114.430295,30.504874,全职,1-3年,[]
77,4383278,ASP.NET软件工程师（工作地点：武汉）,武汉,2018-05-02 16:32:09,6.6,360763,维思安,深圳市维思安科技发展有限公司,15-50人,江汉区,大专,未融资,"医疗健康,数据服务",114.268695,30.610074,全职,1-3年,"['""""']"
78,4410656,ASP.NET开发工程师,上海,2018-05-02 09:42:41,14.0,33464,周末酒店,上海尚旅网络科技有限公司,50-150人,普陀区,大专,天使轮,旅游,121.391394,31.233114,全职,3-5年,"['绩效奖励', '股票期权', '高效工作氛围', '工作环境好']"
79,3843496,ASP.net软件开发工程师,长沙,2018-04-24 16:52:09,8.0,165295,华市技术,华市技术(北京)有限公司,15-50人,开福区,本科,未融资,硬件、移动互联网,112.995299,28.250366,全职,3-5年,[]
80,4302628,ASP.NET程序员,日照,2018-04-21 09:26:53,4.2,71280,创泽信息,山东创泽信息技术股份有限公司,50-150人,东港区,大专,上市公司,"移动互联网,电子商务",119.511364,35.387546,全职,1-3年,"['技能培训', '绩效奖金', '岗位晋升', '管理规范']"
81,4365535,asp.net,厦门,2018-04-03 11:45:33,12.0,341575,厦门招商宝互联网服务,厦门招商宝互联网服务有限公司,50-150人,翔安区,大专,未融资,其他,118.241146,24.576911,全职,3-5年,"['""""']"
82,3020462,ASP.NET高级工程师,北京,2018-05-02 11:08:35,17.0,40835,壁虎车险,北京易天正诚信息技术有限公司,50-150人,海淀区,本科,B轮,"移动互联网,电子商务",116.312708,40.034988,全职,3-5年,"['全员持股', '五险一金', '弹性上下班', '定期体检']"
83,4465266,ASP.NET开发工程师,佛山,2018-04-28 09:37:35,7.6,89394,天润软件,佛山市天润软件管理有限公司,15-50人,顺德区,本科,未融资,"移动互联网,O2O",113.245556,22.841099,全职,1-3年,"['节日礼物', '绩效奖金', '岗位晋升', '领导好']"
84,4488383,asp.net软件工程师,合肥,2018-04-26 15:55:41,8.4,224829,五线科技,合肥五线信息科技有限公司,15-50人,蜀山区,大专,不需要融资,"医疗健康,信息安全",117.211304,31.841004,全职,1-3年,[]
85,4273637,asp.net软件工程师,南宁,2018-04-19 16:51:55,5.8,336901,恒易达网络,南宁市恒易达网络科技有限公司,15-50人,西乡塘区,不限,不需要融资,移动互联网,108.27053,22.848388,全职,1-3年,"['""""']"
86,4146359,ASP.NET开发工程师,泉州,2018-04-08 09:47:40,11.2,243897,益华电脑城,福建益华（集团）有限公司,50-150人,鲤城区,大专,不需要融资,"移动互联网,企业服务",118.595026,24.905058,全职,3-5年,"['年底双薪', '带薪年假', '午餐补助', '定期体检']"
87,2944405,asp.net软件工程师,上海,2018-05-02 09:30:25,15.6,84387,运去哪,上海汇航捷讯网络科技有限公司,150-500人,浦东新区,大专,B轮,"电子商务,企业服务",121.541144,31.236968,全职,3-5年,"['节日礼物', '年底双薪', '带薪年假', '绩效奖金']"
88,3334206,ASP.NET开发工程师,上海,2018-04-28 18:05:21,14.0,63586,华测导航,上海华测导航技术股份有限公司,500-2000人,青浦区,本科,上市公司,硬件,121.294561,31.164719,全职,1-3年,"['节日礼物', '绩效奖金', '年度旅游', '岗位晋升']"
89,4323996,asp.net 软件开发工程师,厦门,2018-04-23 10:46:43,9.6,118570,厦门仁聚,厦门仁聚网络技术有限公司,15-50人,思明区,大专,未融资,"移动互联网,电子商务",0.0,0.0,全职,1-3年,[]
90,2651708,ASP.NET开发工程师,北京,2018-05-02 11:08:34,12.8,40835,壁虎车险,北京易天正诚信息技术有限公司,50-150人,海淀区,本科,B轮,"移动互联网,电子商务",116.31270839,40.0349879,全职,1-3年,"['全员持股', '五险一金', '弹性上下班', '定期体检']"
91,4250139,asp.net高级软件开发工程师,深圳,2018-04-17 09:53:12,12.6,311772,深圳隽思,深圳隽思信息科技有限公司,50-150人,南山区,本科,未融资,"移动互联网,电子商务",113.940008,22.540521,全职,3-5年,"['""""']"
92,3505671,Asp.net开发工程师,合肥,2018-04-28 14:22:29,10.0,14535,中华企业网,上海派维网络科技有限公司,50-150人,瑶海区,大专,未融资,"移动互联网,电子商务",117.309414,31.883552,全职,不限,"['专项奖金', '年底双薪', '年终分红', '五险一金']"
93,3587452,Asp.net 程序员,合肥,2018-04-28 09:17:16,7.6,83476,睿海科技,安徽睿海信息科技有限公司,15-50人,高新区,不限,未融资,"移动互联网,招聘",117.193654,31.802746,全职,3-5年,"['绩效奖金', '岗位晋升', '领导好', '美女多']"
94,3407355,asp.net,北京,2018-04-27 09:03:15,10.8,23727,知网,同方知网（北京）技术有限公司,2000人以上,海淀区,本科,上市公司,"移动互联网,电子商务",116.35652001,40.04463006,全职,1-3年,"['美女多多', '带薪年假', '绩效奖金', '岗位晋升']"
95,4332841,ASP.Net开发工程师,珠海,2018-04-25 09:27:31,11.2,352954,珠海万晟达,珠海市万晟达科技发展有限公司,50-150人,香洲区,大专,不需要融资,"移动互联网,数据服务",113.576811,22.284364,全职,1-3年,"['带薪年假', '通讯津贴', '定期体检', '年度旅游']"
96,4166232,asp.net开发工程师,长沙,2018-04-08 14:22:38,8.8,70123,强华信息,长沙强华信息科技有限公司,50-150人,开福区,不限,不需要融资,"电子商务,O2O",113.00413,28.230476,全职,不限,"['技能培训', '年底双薪', '带薪年假', '绩效奖金']"
97,2252294,Asp.NET,广州,2018-04-28 13:56:54,8.2,20455,华螺网公司,广州华螺网信息技术有限公司,50-150人,萝岗区,大专,C轮,移动互联网,113.45630046,23.13621979,全职,3-5年,"['年底双薪', '带薪年假', '定期体检', '年度旅游']"
98,4005006,C#/asp.net软件工程师,长沙,2018-04-25 18:25:58,8.4,309572,云数信息,湖南云数信息科技有限公司,15-50人,岳麓区,大专,未融资,"移动互联网,数据服务",112.889972,28.209836,全职,1-3年,"['股票期权', '年终奖金', '年度旅游', '领导好']"
99,4490244,ASP.NET开发工程师（微软）,北京,2018-05-03 09:07:13,12.0,189022,微创,上海微创软件股份有限公司北京分公司,2000人以上,海淀区,本科,上市公司,"移动互联网,电子商务",116.31028,39.979366,全职,3-5年,"['年底双薪', '绩效奖金', '免费班车', '节日礼物']"
100,4409901,ASP.NET开发工程师,广州,2018-05-02 10:15:24,10.8,231188,开太平,深圳开太平信息服务有限责任公司,150-500人,越秀区,大专,A轮,"移动互联网,数据服务",113.284889,23.142176,全职,1-3年,"['专项奖金', '领导好', '扁平管理', '独角兽']"
101,4488725,ASP.NET 开发工程师,上海,2018-04-26 16:20:33,9.6,255758,麦迪睿集团,上海麦迪睿医疗科技集团有限公司,150-500人,闵行区,大专,不需要融资,"移动互联网,企业服务",121.266649,31.191917,全职,3-5年,"['交通补助', '午餐补助', '通讯津贴', '带薪年假']"
102,4211100,ASP.Net开发工程师,南昌,2018-04-10 13:39:15,9.6,66208,双胞胎集团,双胞胎（集团）股份有限公司,2000人以上,青山湖区,本科,未融资,其他,0.0,0.0,全职,1年以下,"['技能培训', '年底双薪', '带薪年假', '岗位晋升']"
103,4499538,ASP.NET高级开发工程师,深圳,2018-04-28 15:01:15,15.2,125758,互联先锋,深圳互联先锋科技有限公司,50-150人,福田区,本科,未融资,"企业服务,数据服务",114.09394,22.541369,全职,3-5年,[]
104,3408511,C#/ASP.NET开发,廊坊,2018-04-28 11:24:41,3.8,236117,亿能网络,廊坊市亿能网络技术有限公司,少于15人,广阳区,大专,未融资,"移动互联网,数据服务",116.702249,39.548862,全职,不限,[]
105,4217927,ASP.NET Core 开发实习生（博客产品）,杭州,2018-04-23 10:13:45,3.8,71294,博客园,上海有程信息技术有限公司,少于15人,西湖区,本科,未融资,其他,120.080966,30.129497,实习,应届毕业生,"['五险一金', '弹性工作', '苹果开发机', '技术驱动']"
106,4395700,ASP.NET高级开发工程师,上海,2018-05-02 13:14:27,12.0,108438,上海行睿,行睿信息技术（上海）有限公司,50-150人,闸北区,本科,天使轮,"移动互联网,电子商务",121.448015,31.28469,全职,1-3年,"['帅哥多', '美女多', '领导好']"
107,4374745,ASP.NET开发工程师,长沙,2018-04-04 17:05:14,12.0,224456,湖南南澳,湖南南澳网络科技有限公司,50-150人,岳麓区,大专,不需要融资,移动互联网,112.891976,28.213617,全职,5-10年,[]
108,4410717,Asp.Net研发工程师（10k-18K）,上海,2018-05-02 10:40:03,13.2,114279,梵讯,上海梵讯网络技术有限公司,150-500人,静安区,本科,未融资,"移动互联网,企业服务",121.45797,31.298579,全职,1-3年,"['股票期权', '年终分红', '带薪年假', '午餐补助']"
109,543320,C# asp.net开发工程师,广州,2018-04-28 13:56:54,10.0,20455,华螺网公司,广州华螺网信息技术有限公司,50-150人,萝岗区,大专,C轮,移动互联网,113.45630046,23.13621979,全职,3-5年,"['年底双薪', '带薪年假', '定期体检', '年度旅游']"
110,4216322,Asp.net开发工程师(高级）,广州,2018-04-27 11:35:42,9.6,333655,猫态科技,广州市猫态信息科技有限责任公司,50-150人,越秀区,大专,未融资,移动互联网,113.277267,23.122245,全职,3-5年,"['""""']"
111,2853365,ASP.Net研发工程师,合肥,2018-04-25 09:49:56,12.6,134155,恒生皖美,安徽恒生皖美网络科技有限公司,15-50人,瑶海区,不限,未融资,"移动互联网,O2O",117.30312,31.866418,全职,1-3年,[]
112,4273821,asp.net程序员,上海,2018-04-27 09:07:59,10.8,29454,上海求创科技,上海求创科技有限公司,15-50人,长宁区,大专,A轮,移动互联网,121.359596,31.218272,全职,3-5年,"['技能培训', '节日礼物', '领导好', '五险一金']"
113,3876960,ASP.NET(C#)开发工程师,郑州,2018-04-24 13:40:11,7.0,147630,中兴时代,郑州中兴时代软件科技有限公司,15-50人,金水区,大专,未融资,"移动互联网,企业服务",113.66648,34.7902,全职,1-3年,[]
114,3846302,ASP.net C#开发工程师,广州,2018-04-23 18:05:13,9.0,289055,中海达定位,广州中海达定位技术有限公司,500-2000人,番禺区,本科,上市公司,"信息安全,数据服务",113.370059,22.968126,全职,1-3年,"['专项奖金', '带薪年假', '年终分红', '专线接送']"
115,1417274,ASP.net软件工程师,深圳,2018-05-02 10:32:31,7.6,57076,中民控股,深圳中民电商控股有限公司,150-500人,南山区,本科,不需要融资,移动互联网,,,全职,不限,[]
116,4459677,asp.net 软件工程师,上海,2018-04-29 12:08:14,10.8,297205,嘉扑科技,上海嘉扑信息科技有限公司,15-50人,嘉定区,不限,未融资,移动互联网 教育,121.32273,31.238593,全职,1-3年,"['""""']"
117,4163635,ASP.NET开发工程师,上海,2018-04-19 14:10:31,9.0,189055,应萌信息,上海应萌信息技术有限公司,15-50人,松江区,大专,不需要融资,"企业服务,移动互联网",121.275289,31.120561,全职,1-3年,"['年底双薪', '绩效奖金', '带薪年假', '股票期权']"
118,4110062,ASP.NET高级软件开发工程师,上海,2018-04-16 15:27:50,12.0,318890,畅捷,上海畅捷信息技术有限公司,50-150人,浦东新区,大专,不需要融资,"移动互联网,企业服务",121.601761,31.252853,全职,3-5年,"['""""']"
119,2682692,.Net C# Asp.net 软件开发工程师,天津,2018-04-27 09:30:18,9.6,163713,科瑞泰医疗,科瑞泰医疗信息技术（天津）有限公司,15-50人,南开区,大专,未融资,移动互联网,117.176778,39.122414,全职,3-5年,[]
120,3840487,ASP.NET中高级开发工程师,信阳,2018-04-08 11:32:50,6.2,195185,海豚多多,信阳市海豚多多电子商务有限公司,15-50人,浉河区,本科,天使轮,"电子商务,移动互联网",114.085951,32.145718,全职,3-5年,"['绩效奖金', '专项奖金', '股票期权', '年底双薪']"
121,4424567,c#/asp.net开发工程师,广州,2018-05-02 11:36:42,10.8,116412,深圳优苗健康科技,深圳市优苗健康科技有限公司,15-50人,天河区,大专,天使轮,"移动互联网,医疗健康",113.37403,23.127604,全职,3-5年,"['股票期权', '专项奖金', '带薪年假', '交通补助']"
122,4435156,ASP.NET工程师,深圳,2018-05-02 11:01:35,13.2,367793,深圳中力知识科技有限公司,深圳中力知识科技有限公司,50-150人,罗湖区,大专,不需要融资,企业服务,114.106852,22.555212,全职,3-5年,"['股票期权', '定期体检', '年终分红', '专项奖金']"
123,2279263,asp.NET开发工程师,南京,2018-04-25 08:39:57,14.0,120779,基蛋生物,基蛋生物科技股份有限公司,500-2000人,,本科,不需要融资,医疗健康,,,全职,1-3年,[]
124,3966932,ASP.NET(C#)开发工程师,西安,2018-04-24 13:40:11,7.0,147630,中兴时代,郑州中兴时代软件科技有限公司,15-50人,高新技术产业开发区,大专,未融资,"移动互联网,企业服务",108.890974,34.193388,全职,1-3年,[]
125,4195000,asp.net开发工程师,长沙,2018-04-03 14:21:30,8.2,183134,高新网络科技,深圳高新网络科技有限公司,50-150人,岳麓区,本科,未融资,游戏,112.880502,28.210016,全职,1-3年,[]
126,4368886,c#/asp.net高级软件工程师,广州,2018-04-29 09:57:13,13.2,358244,广东万平药业,广东万平药业有限公司,50-150人,海珠区,本科,未融资,"电子商务,医疗健康",113.276398,23.089458,全职,5-10年,"['""""']"
127,4030620,Asp.Net开发高级工程师,上海,2018-04-17 13:29:25,14.4,31037,开澜软件,上海开澜软件有限公司,50-150人,宝山区,本科,未融资,"电子商务,企业服务",121.437383,31.339981,全职,3-5年,"['节日礼物', '带薪年假', '绩效奖金', '年度旅游']"
128,3798542,ASP.NET软件开发工程师,深圳,2018-05-02 11:29:33,11.2,92951,艾姆诗,深圳艾姆诗数码科技有限公司,500-2000人,福田区,大专,不需要融资,"移动互联网,电子商务",114.095103,22.542934,全职,3-5年,"['员工活动丰富', '节日礼物', '带薪年假', '工龄奖']"
129,4403386,高级ASP.NET(C#)开发工程师,深圳,2018-05-02 10:13:38,15.8,23071,深圳市麦谷科技有限公司,深圳市麦谷科技有限公司,50-150人,南山区,本科,A轮,"移动互联网,数据服务",113.93084,22.541784,全职,3-5年,"['绩效奖金', '年底双薪', '带薪年假', '年度旅游']"
130,4442849,ASP.NET 开发工程师,成都,2018-04-26 15:19:52,7.2,130504,深圳市普赞科技有限公司,深圳市普赞科技有限公司,15-50人,成华区,大专,不需要融资,"广告营销,移动互联网",104.10589,30.669987,全职,1-3年,"['年底双薪', '年终分红', '专项奖金', '股票期权']"
131,4376423,ASP.NET工程师,杭州,2018-04-05 15:17:18,7.0,358444,易福德,深圳市易福德实业发展有限公司,50-150人,西湖区,大专,不需要融资,其他,120.063755,30.306892,全职,1-3年,"['股票期权', '帅哥多', '美女多', '领导好']"
132,4368229,ASP.NET高级开发工程师,杭州,2018-04-25 11:27:56,14.0,33573,wifisong,杭州微飞胜科技有限公司,15-50人,西湖区,本科,天使轮,"数据服务,分类信息",120.114392,30.285168,全职,3-5年,"['岗位晋升', '领导好', '午餐补助', '氛围好']"
133,3397882,网站程序开发（php/asp.net）年底双薪,合肥,2018-04-30 14:59:25,4.2,152994,合肥鹏派棋牌游戏开发,合肥鹏派网络技术有限责任公司,15-50人,政务文化新区,大专,不需要融资,"游戏,移动互联网",117.229232,31.824037,全职,不限,"['年底双薪', '绩效奖金', '年终分红', '专项奖金']"
134,4361663,asp.net开发工程师,成都,2018-04-28 10:22:35,10.8,19825,任我行软件,成都任我行软件股份有限公司,500-2000人,高新区,本科,不需要融资,"移动互联网,企业服务",104.074136,30.539948,全职,3-5年,"['绩效奖金', '年底双薪', '专项奖金', '节日礼物']"
135,4488746,ASP.NET Web软件开发工程师,武汉,2018-04-26 16:21:54,8.4,255758,麦迪睿集团,上海麦迪睿医疗科技集团有限公司,150-500人,江汉区,大专,不需要融资,"移动互联网,企业服务",0.0,0.0,全职,3-5年,"['交通补助', '午餐补助', '通讯津贴', '带薪年假']"
136,4408008,ASP.NET开发工程师,北京,2018-05-02 09:37:11,24.0,201193,北京指尖卓越科技有限公司,北京指尖卓越科技有限公司,15-50人,海淀区,大专,不需要融资,移动互联网,116.372244,40.036528,全职,5-10年,"['绩效奖金', '带薪年假', '专项奖金', '年底双薪']"
137,4272286,C#高级网站开发工程师（ASP.NET方向）,青岛,2018-04-24 14:40:52,8.4,23569,软媒,青岛软媒网络科技有限公司,15-50人,市南区,本科,未融资,"移动互联网,文化娱乐",120.41561,36.088019,全职,1-3年,"['绩效奖金', '年底双薪', '专项奖金', '五险一金']"
138,4223184,ASP.NET开发工程师,广州,2018-04-20 10:47:13,12.0,182503,联兆,广州市联兆基因科技有限公司,50-150人,海珠区,大专,未融资,"其他,医疗健康",113.384064,23.102148,全职,1-3年,"['年底双薪', '带薪年假', '绩效奖金', '午餐补助']"
139,4380884,Asp.net开发工程师,长沙,2018-04-08 12:17:37,7.0,231147,讯通软件,长沙校讯通网络科技有限公司,,岳麓区,不限,,,112.891595,28.192569,全职,3-5年,[]
140,4368819,c#/asp.net软件工程师,广州,2018-04-29 09:57:13,11.2,358244,广东万平药业,广东万平药业有限公司,50-150人,海珠区,本科,未融资,"电子商务,医疗健康",113.276398,23.089458,全职,3-5年,"['""""']"
141,4247449,ASP.NET软件工程师(实习),苏州,2018-04-11 11:15:41,2.8,340206,久道软件,苏州久道信息科技有限公司,少于15人,工业园区,大专,未融资,"移动互联网,医疗健康",120.729912,31.256665,全职,不限,"['股票期权', '绩效奖金', '年终分红', '午餐补助']"
142,1045359,ASP.NET高级软件开发工程师,上海,2018-04-09 17:19:54,11.4,91319,双齐国际,双齐国际贸易（上海）有限公司,50-150人,徐汇区,不限,未融资,"电子商务,企业服务",121.43906927,31.19208012,全职,3-5年,"['节日礼物', '年底双薪', '带薪年假', '绩效奖金']"
143,3501384,ASP.NET 高级开发工程师,上海,2018-04-19 10:57:07,19.0,1026,东软熙康,东软熙康健康科技有限公司,500-2000人,浦东新区,大专,上市公司,"移动互联网,医疗健康",121.99341,30.994275,全职,3-5年,"['绩效奖金', '年底双薪', '五险一金', '通讯津贴']"
144,3376062,asp.net,深圳,2018-05-02 09:37:49,28.0,231514,鑫溢网络科技,深圳市鑫溢网络科技有限公司,150-500人,龙华新区,大专,不需要融资,移动互联网,114.015684,22.653986,全职,3-5年,[]
145,2207401,ASP.NET开发工程师,深圳,2018-04-21 10:08:09,8.4,94212,助宝科技,深圳市助宝科技服务有限公司,15-50人,罗湖区,本科,天使轮,"电子商务,企业服务",113.993578,22.99368,全职,1-3年,"['股票期权', '扁平管理', '五险一金', '弹性工作']"
146,631484,Asp.net后台开发,北京,2018-04-30 21:29:47,5.6,54013,比特恒旺,北京比特恒旺信息技术有限公司,少于15人,昌平区,大专,未融资,"数据服务,硬件",116.24165998,40.20409008,全职,1-3年,"['技能培训', '节日礼物', '带薪年假', '绩效奖金']"
147,347471,asp.net工程师,上海,2018-04-11 12:02:16,10.0,29527,M2G,上海迈志信息科技有限公司,50-150人,黄浦区,本科,未融资,"移动互联网,企业服务",121.478415,31.239324,全职,3-5年,"['技能培训', '专项奖金', '带薪年假', '岗位晋升']"
148,3024146,asp.net高级程序员,北京,2018-04-23 10:17:59,10.8,144008,矩阵科技,北京矩阵志诚科技有限公司,15-50人,海淀区,本科,天使轮,"移动互联网,企业服务",116.317908,39.963747,全职,3-5年,"['专项奖金', '年终分红', '绩效奖金', '通讯津贴']"
149,4148817,ASP.NET/C#软件工程师,上海,2018-04-28 14:53:08,12.0,52757,knowyou,诺优信息技术（上海）有限公司,50-150人,徐汇区,本科,未融资,"移动互联网,硬件",121.40781,31.17278,全职,1-3年,"['技能培训', '带薪年假', '绩效奖金', '岗位晋升']"
150,4265237,ASP.net开发工程师,深圳,2018-04-26 10:58:24,14.0,5972,4PX,深圳市递四方信息科技有限公司,500-2000人,宝安区,大专,D轮及以上,"移动互联网,电子商务",113.86767399,22.567199,全职,3-5年,"['五险一金', '带薪年假', '节日礼物', '定期体检']"
151,3145257,ASP.NET开发工程师,北京,2018-05-02 09:37:07,24.0,201193,北京指尖卓越科技有限公司,北京指尖卓越科技有限公司,15-50人,海淀区,大专,不需要融资,移动互联网,116.372244,40.036528,全职,5-10年,"['绩效奖金', '带薪年假', '专项奖金', '年底双薪']"
152,2821784,Asp.net软件工程师,深圳,2018-05-01 20:33:07,7.0,172797,浩方软件HFDL,深圳市浩方动力科技有限公司,15-50人,龙华新区,大专,不需要融资,"移动互联网,企业服务",114.067037,22.638727,全职,不限,"['绩效奖金', '年底双薪', '年终分红', '带薪年假']"
153,1734566,ASP.NET 工程师,广州,2018-04-19 09:29:53,3.4,62304,天海网络,广州天海网络科技有限公司,50-150人,天河区,不限,未融资,游戏,113.389052,23.12707,全职,不限,"['节日礼物', '年底双薪', '带薪年假', '绩效奖金']"
154,4180940,ASP.NET驻地开发维护工程师,成都,2018-04-17 10:43:46,7.6,95513,博宇科技,成都博宇科技有限公司,50-150人,高新区,大专,不需要融资,移动互联网,104.06025,30.54927,全职,1-3年,"['带薪年假', '绩效奖金', '扁平管理', '管理规范']"
155,3807179,asp.net（全栈）开发工程师,上海,2018-04-26 20:44:52,19.0,6636,携程,携程计算机技术（上海）有限公司,2000人以上,长宁区,本科,上市公司,"移动互联网,旅游",121.35631021,31.22061947,全职,3-5年,"['绩效奖金', '股票期权', '五险一金', '交通补助']"
156,3021787,asp.net,北京,2018-04-27 17:18:35,10.8,189405,中国知网,同方知网（北京）技术有限公司,2000人以上,海淀区,本科,不需要融资,"信息安全,数据服务",0.0,0.0,全职,1-3年,[]
157,2932591,asp.net C# 开发工程师,厦门,2018-04-09 18:45:12,10.8,169819,雨果网,厦门从众互动文化传播有限公司,50-150人,思明区,本科,天使轮,"移动互联网,广告营销",118.197029,24.485971,全职,3-5年,['绩效奖金']
158,3608036,".Net,C#,ASP.net工程师",深圳,2018-05-02 21:30:18,7.6,65843,赛尔姆信息科技,深圳赛尔姆信息科技有限公司,少于15人,福田区,大专,未融资,"移动互联网,企业服务",114.067239,22.547158,全职,1-3年,"['技能培训', '节日礼物', '年底双薪', '带薪年假']"
159,1045211,ASP.NET软件开发工程师,上海,2018-04-09 17:19:45,9.0,91319,双齐国际,双齐国际贸易（上海）有限公司,50-150人,徐汇区,不限,未融资,"电子商务,企业服务",121.43906927,31.19208012,全职,1-3年,"['节日礼物', '年底双薪', '带薪年假', '绩效奖金']"
160,3711530,c#/asp.net高级工程师,上海,2018-04-27 09:57:51,12.0,82307,瀚医,上海瀚医智能科技有限公司,15-50人,闸北区,大专,未融资,"电子商务,医疗健康",121.448027,31.294832,全职,1-3年,"['节日礼物', '年底双薪', '带薪年假', '绩效奖金']"
161,3879987,ASP.NET开发工程师,武汉,2018-04-27 15:20:01,8.2,187991,百胜软件,武汉百胜睿迪软件有限公司,500-2000人,东湖新技术开发区,大专,未融资,"移动互联网,O2O",114.429723,30.454654,全职,1-3年,"['绩效奖金', '带薪年假', '定期体检', '五险一金']"
162,4280018,ASP.NET高级开发工程师,成都,2018-04-17 14:58:51,8.8,150245,成都市移移彩,成都市移移彩网络科技有限责任公司,少于15人,高新区,大专,不需要融资,"生活服务,金融",104.063362,30.540809,全职,1-3年,"['年底双薪', '带薪年假', '定期体检', '节日礼物']"
163,2738126,ASP.NET开发工程师,杭州,2018-04-26 13:32:28,10.8,24322,开启网络,杭州开启网络科技有限公司,150-500人,西湖区,本科,未融资,移动互联网,120.11398,30.2865,全职,1-3年,"['年底双薪', '五险一金', '带薪年假', '管理规范']"
164,3222709,.net/c#/asp.net开发工程师,深圳,2018-05-02 11:36:44,10.8,116412,深圳优苗健康科技,深圳市优苗健康科技有限公司,15-50人,南山区,大专,天使轮,"移动互联网,医疗健康",113.942581,22.535628,全职,3-5年,"['股票期权', '专项奖金', '带薪年假', '交通补助']"
165,4366110,ASP.NET开发程序员,深圳,2018-05-02 13:53:17,6.8,217020,凯利讯,深圳市凯利讯科技有限公司,15-50人,福田区,本科,未融资,电子商务,114.082005,22.542374,全职,1-3年,[]
166,2582259,ASP.NET网站开发工程师,北京,2018-05-02 10:58:38,9.8,157654,图拓扑,北京图拓扑科技有限公司,15-50人,海淀区,大专,未融资,"教育,移动互联网",116.312406,39.940764,全职,1-3年,[]
167,4488443,ASP.NET,北京,2018-04-26 15:59:16,12.0,22960,北京金贵创新,北京金贵创新科技开发有限公司,50-150人,海淀区,大专,不需要融资,"移动互联网,O2O",0.0,0.0,全职,3-5年,"['年终分红', '年底双薪', '五险一金', '交通补助']"
168,3662359,ASP.NET软件开发,北京,2018-04-25 11:06:17,12.4,41168,影客票务,影客（北京）影视文化传媒有限公司,150-500人,朝阳区,本科,不需要融资,"移动互联网,文化娱乐",116.40387,39.96234,全职,3-5年,"['节日礼物', '技能培训', '绩效奖金', '年度旅游']"
169,4222135,asp.net程序员(c#),北京,2018-04-23 14:20:07,8.2,101865,万法通,万法通（北京）法律咨询有限公司,15-50人,朝阳区,大专,不需要融资,"企业服务,教育",116.441321,39.91011,全职,1-3年,"['技能培训', '专项奖金', '带薪年假', '绩效奖金']"
170,4298226,ASP.NET 后端程序员,杭州,2018-04-16 18:04:48,5.8,328332,印目时光机,杭州橡质网络科技有限公司,少于15人,拱墅区,大专,天使轮,"移动互联网,其他",120.136707,30.325794,全职,1-3年,"['""""']"
171,3056313,asp.net(c#)高级程序员,广州,2018-05-02 13:34:10,14.0,38598,致和科技,广州致和网络科技有限公司,150-500人,越秀区,本科,未融资,电子商务,113.308599,23.119352,全职,1-3年,"['技能培训', '节日礼物', '绩效奖金', '岗位晋升']"
172,3231633,Asp.net开发,上海,2018-04-25 09:01:45,21.0,3174,上海万得信息技术股份有限公司,上海万得信息技术股份有限公司,2000人以上,浦东新区,本科,不需要融资,"移动互联网,金融",121.51404,31.217426,全职,5-10年,"['技能培训', '带薪年假', '绩效奖金', '岗位晋升']"
173,3052963,asp.net软件工程师,深圳,2018-04-28 09:36:34,6.8,120495,红酒世界网,深圳红酒世界网新媒体有限公司,150-500人,南山区,本科,上市公司,"电子商务,移动互联网",113.944668,22.546167,全职,1年以下,[]
174,2159158,ASP.NET开发,上海,2018-04-28 15:45:14,11.2,127500,上海外教社信息技术公司,上海外教社信息技术公司,15-50人,,本科,不需要融资,"移动互联网,教育",,,全职,不限,"['年底双薪', '带薪年假', '交通补助', '午餐补助']"
175,2646681,ASP.NET开发工程师,北京,2018-04-23 17:57:19,7.0,55749,世纪杰晨,北京世纪杰晨网络技术有限公司,15-50人,海淀区,不限,未融资,"移动互联网,电子商务",116.30577,40.045869,全职,1-3年,"['五险一金', '午餐补助', '弹性工作', '绩效奖金']"
176,2798134,ASP.NET,北京,2018-05-02 09:18:09,16.8,63045,同方知网数字出版技术股份有限公司,同方知网数字出版技术股份有限公司,2000人以上,海淀区,本科,不需要融资,教育,115.99339,39.99426,全职,1-3年,"['节日礼物', '免费班车', '绩效奖金', '扁平管理']"
177,3764308,资深ASP.NET开发工程师,上海,2018-04-28 14:22:31,17.0,14535,中华企业网,上海派维网络科技有限公司,50-150人,虹口区,本科,未融资,"移动互联网,电子商务",121.48398,31.2929,全职,3-5年,"['专项奖金', '年底双薪', '年终分红', '五险一金']"
178,3571175,ASP.NET Web软件开发工程师,上海,2018-05-01 11:02:12,17.0,206761,锐房网,上海锐房网络科技有限公司,150-500人,闸北区,大专,不需要融资,"O2O,其他",121.461962,31.258482,全职,3-5年,"['带薪年假', '绩效奖金', '午餐补助', '节日礼物']"
179,4479222,ASP.NET软件开发工程师,深圳,2018-04-25 12:01:24,12.0,279691,互联工场,深圳市互联工场科技有限公司,50-150人,南山区,本科,不需要融资,移动互联网,113.953996,22.540406,全职,3-5年,"['年底双薪', '绩效奖金', '五险一金', '岗位晋升']"
180,3989790,ASP.NET开发工程师,北京,2018-04-24 11:44:38,12.0,250400,鼎佑教育,鼎佑教育科技（北京）有限公司,500-2000人,朝阳区,大专,不需要融资,"教育,移动互联网",116.463432,39.95692,全职,1-3年,[]
181,4437931,高级ASP.NET工程师,深圳,2018-04-25 10:19:05,17.0,367613,物链科技,深圳市物链科技有限公司,15-50人,福田区,本科,未融资,"移动互联网,O2O",114.041466,22.526956,全职,3-5年,"['""""']"
182,3540650,ASP.NET工程师,深圳,2018-04-27 17:22:08,8.4,120718,联华网络,深圳市联华网络技术开发有限公司,15-50人,龙华新区,不限,未融资,"移动互联网,企业服务",114.04048,22.61347,全职,1-3年,"['绩效奖金', '弹性工作', '领导好', '五险一金']"
183,1627123,ASP.NET开发工程师,深圳,2018-04-26 14:29:18,6.8,120625,CLOUD BEAUTY,深圳市云聚美业有限公司,15-50人,南山区,本科,未融资,"移动互联网,教育",113.92812221,22.56884305,全职,1-3年,"['股票期权', '专项奖金', '年终分红', '绩效奖金']"
184,4223153,asp.net软件工程师,广州,2018-04-20 10:47:14,12.0,182503,联兆,广州市联兆基因科技有限公司,50-150人,海珠区,大专,未融资,"其他,医疗健康",113.384064,23.102148,全职,1-3年,"['年底双薪', '带薪年假', '绩效奖金', '午餐补助']"
185,3118288,中级.net开发工程师/asp.net工程师,深圳,2018-04-08 09:16:36,11.2,173725,智游途,深圳市智游途信息技术有限公司,15-50人,南山区,大专,不需要融资,"移动互联网,企业服务",113.944821,22.52758,全职,3-5年,[]
186,4202458,c# asp.net 软件开发工程师,厦门,2018-04-23 10:46:43,9.6,118570,厦门仁聚,厦门仁聚网络技术有限公司,15-50人,思明区,不限,未融资,"移动互联网,电子商务",0.0,0.0,全职,1-3年,[]
187,4407148,ASP.NET开发工程师,北京,2018-04-11 19:50:44,24.4,189022,微创,上海微创软件股份有限公司北京分公司,2000人以上,朝阳区,本科,上市公司,"移动互联网,电子商务",116.458331,39.956469,全职,5-10年,"['年底双薪', '绩效奖金', '免费班车', '节日礼物']"
188,4088685,asp.net高级开发工程师,上海,2018-04-16 15:27:50,10.8,318890,畅捷,上海畅捷信息技术有限公司,50-150人,浦东新区,大专,不需要融资,"移动互联网,企业服务",121.601761,31.252853,全职,1-3年,"['""""']"
189,4213960,ASP.NET软件工程师,深圳,2018-04-13 12:22:50,9.6,126884,富森供应链,深圳市富森供应链管理有限公司,150-500人,福田区,大专,不需要融资,其他,114.061519,22.534024,全职,1-3年,"['年底双薪', '绩效奖金', '带薪年假', '定期体检']"
