,职位编码,职位名称,所在城市,发布日期,薪资待遇(k),公司编码,公司名称,公司全称,公司规模,所在区域,最低学历,融资状态,公司类型,经度,纬度,全职/实习,工作经验,吸引条件
0,3115888,.net(c#)开发工程师,北京,2018-05-02 19:30:19,10.8,71684,资质管家,资质管家（北京）信息技术有限公司,50-150人,海淀区,大专,不需要融资,电子商务,116.307466,39.984319,全职,1-3年,"['技能培训', '绩效奖金', '年度旅游', '管理规范']"
1,4295014,C#工程师,长沙,2018-05-02 09:04:01,8.8,103897,新航动力,湖南新航动力信息科技有限公司,150-500人,长沙县,大专,未融资,移动互联网、企业服务,113.084957,28.2302,全职,3-5年,"['五险一金', '绩效奖金', '技能培训', '岗位晋升']"
2,3848667,C#开发,上海,2018-05-02 13:37:42,14.0,48223,岱嘉医学,上海岱嘉医学信息系统有限公司,150-500人,长宁区,本科,未融资,医疗健康,121.35433,31.22026,全职,3-5年,"['节日礼物', '年底双薪', '带薪年假', '岗位晋升']"
3,4470051,c#/.net开发工程师（2-3年）,上海,2018-05-02 10:41:24,12.0,67817,威士顿,上海威士顿信息技术股份有限公司,150-500人,虹口区,大专,不需要融资,"移动互联网,企业服务",121.498489,31.272455,全职,1-3年,"['股票期权', '专项奖金', '岗位晋升', '弹性工作']"
4,1425812,C#开发工程师,广州,2018-05-03 08:48:33,10.4,11527,蓝鸽集团,蓝鸽集团有限公司,500-2000人,白云区,本科,不需要融资,"移动互联网,企业服务",113.3341,23.30057001,全职,不限,"['专项奖金', '加班费', '两房一厅公寓', '博士后工作站']"
5,4504492,.net/c#开发工程师,杭州,2018-05-02 10:48:11,12.0,200489,美窝家装,杭州美窝科技有限公司,150-500人,拱墅区,大专,A轮,"电子商务,移动互联网",120.121858,30.308615,全职,3-5年,[]
6,4135113,C#开发工程师,西安,2018-05-02 10:39:42,8.4,167047,Huatek,西安华讯科技有限责任公司,150-500人,高新技术产业开发区,本科,未融资,"电子商务,移动互联网",108.868327,34.194173,全职,3-5年,[]
7,3834626,C#开发工程师,广州,2018-05-02 09:20:04,10.8,68910,健康猫,广州大象健康科技有限公司,500-2000人,天河区,本科,A轮,移动互联网,113.417401,23.173731,全职,1-3年,"['带薪年假', '绩效奖金', '岗位晋升', '美女多']"
8,4504677,C#开发工程师,北京,2018-05-02 10:59:36,28.0,175342,好扑,北京好扑信息科技有限公司,15-50人,朝阳区,本科,A轮,"数据服务,信息安全",116.471713,39.911275,全职,3-5年,"['股票期权', '弹性工作', '扁平管理', '五险一金']"
9,3725388,C#开发工程师,北京,2018-05-02 11:20:59,12.6,104465,绘云天,北京绘云天科技有限公司,15-50人,海淀区,大专,未融资,移动互联网,116.325488,39.944789,全职,1-3年,"['年底双薪', '专项奖金', '带薪年假', '绩效奖金']"
10,2964166,C#开发工程师,北京,2018-05-02 11:24:10,19.0,188161,领先未来,领先未来科技集团有限公司,150-500人,西城区,本科,未融资,"电子商务,O2O",116.346422,39.897467,全职,1-3年,[]
11,3874142,C#开发工程师,广州,2018-05-02 11:34:29,8.8,50241,Symbio-Freeborders,信必优(深圳)信息技术有限公司,2000人以上,海珠区,本科,未融资,"移动互联网,电子商务",113.3724,23.102768,全职,1-3年,"['节日礼物', '年底双薪', '带薪年假', '年度旅游']"
12,3463861,C#软件工程师,广州,2018-05-02 16:25:34,10.6,236558,广州光汇软件,广州光汇软件科技有限公司,50-150人,海珠区,大专,不需要融资,"电子商务,企业服务",113.314471,23.073568,全职,3-5年,"['午餐补助', '定期体检', '年度旅游', '扁平管理']"
13,3888908,C#工程师,上海,2018-05-02 10:47:18,12.6,128998,江苏亿科达,上海海万信息科技股份有限公司,500-2000人,黄浦区,本科,不需要融资,"移动互联网,金融",121.486837,31.238187,全职,5-10年,[]
14,3129233,.NET/C#软件开发工程师,杭州,2018-05-02 08:59:37,8.8,98316,江南布衣,江南布衣服饰有限公司,2000人以上,西湖区,大专,上市公司,"电子商务,O2O",120.11371,30.27968,全职,1-3年,"['午餐补助', '带薪年假', '定期体检', '年度旅游']"
15,3246390,.Net开发工程师/C#研发工程师,北京,2018-05-02 18:23:50,10.0,71684,资质管家,资质管家（北京）信息技术有限公司,50-150人,海淀区,本科,不需要融资,电子商务,116.307466,39.984319,全职,1年以下,"['技能培训', '绩效奖金', '年度旅游', '管理规范']"
16,4251411,C#/.Net开发,长沙,2018-05-02 09:20:05,10.8,103897,新航动力,湖南新航动力信息科技有限公司,150-500人,岳麓区,大专,未融资,移动互联网、企业服务,112.882369,28.230937,全职,1-3年,"['五险一金', '绩效奖金', '技能培训', '岗位晋升']"
17,4309654,C#开发工程师,嘉兴,2018-05-03 08:48:32,11.4,11527,蓝鸽集团,蓝鸽集团有限公司,500-2000人,南湖区,硕士,不需要融资,"移动互联网,企业服务",0.0,0.0,全职,1-3年,"['专项奖金', '加班费', '两房一厅公寓', '博士后工作站']"
18,4471566,c#工程师,上海,2018-05-03 09:18:43,9.2,69152,博奥特科技,深圳市博奥特科技有限公司,150-500人,徐汇区,本科,未融资,"移动互联网,金融",121.405181,31.165478,全职,1-3年,"['绩效奖金', '领导好', '帅哥多', '美女多']"
19,4451237,C#开发工程师,广州,2018-05-02 16:13:08,10.0,225738,广州洲聚,广州洲聚信息科技有限公司,50-150人,天河区,大专,未融资,移动互联网,0.0,0.0,全职,1-3年,"['年底双薪', '带薪年假', '弹性工作', '扁平管理']"
20,4063439,.NET/C#中级开发工程师,广州,2018-05-02 13:53:05,9.6,285012,广州健联,广州健联科技有限公司,50-150人,白云区,大专,A轮,"移动互联网,电子商务",113.255562,23.186563,全职,3-5年,"['帅哥多', '年度旅游', '弹性工作', '美女多']"
21,4367192,C#应用开发工程师,杭州,2018-05-02 08:51:03,14.0,124100,星巢网络,杭州星巢网络科技有限公司,50-150人,西湖区,本科,A轮,"游戏,电子商务",0.0,0.0,全职,1-3年,"['年底双薪', '股票期权', '包豪华住宿', '带薪年假']"
22,3823234,C#开发工程师,广州,2018-05-02 15:15:21,10.8,143692,稻禾科技,广州稻禾信息科技有限公司,15-50人,番禺区,大专,不需要融资,"企业服务,移动互联网",113.321076,23.016253,全职,1-3年,"['弹性工作', '领导好', '技能培训', '五险一金']"
23,4157815,C#开发,成都,2018-05-02 09:40:33,9.6,40328,成都市米彩科技有限公司,成都市米彩科技有限公司,150-500人,武侯区,本科,不需要融资,"移动互联网,生活服务",104.053708,30.581518,全职,1-3年,"['带薪年假', '节日礼物', '五险一金', '包三餐']"
24,1656606,C#开发工程师,广州,2018-05-02 09:18:47,6.8,116939,油菜花科技,广州油菜花信息科技有限公司,50-150人,番禺区,大专,未融资,"移动互联网,文化娱乐",113.37547,22.96988,全职,1-3年,"['年底二至七薪', '专项奖金', '合伙人机制', '带薪年假']"
25,3002735,软件开发工程师_C#,广州,2018-05-02 09:13:48,10.8,171993,数夫软件,广州数夫软件科技有限公司,150-500人,天河区,本科,未融资,移动互联网,113.372371,23.126223,全职,1-3年,[]
26,162878,.net / c# 开发工程师,杭州,2018-05-02 09:10:38,9.6,4938,杭州溜达,杭州溜达网络科技有限公司,15-50人,西湖区,不限,天使轮,移动互联网,120.09539,30.30972001,全职,3-5年,"['年终分红', '股票期权', '专项奖金', '绩效奖金']"
27,3705810,急聘！C#开发工程师,广州,2018-05-02 15:49:48,14.0,212954,米美科技,广州米美科技有限公司,15-50人,天河区,本科,未融资,"数据服务,企业服务",113.327758,23.132598,全职,1-3年,"['岗位晋升', '扁平管理', '专项奖金', '带薪年假']"
28,4105348,C#开发工程师（基本公卫）,北京,2018-04-26 14:09:21,21.0,956,金山云,北京金山云网络技术有限公司,500-2000人,海淀区,不限,C轮,"移动互联网,数据服务",116.32274,40.03674,全职,5-10年,"['技能培训', '节日礼物', '瑜伽房', '免费班车']"
29,2686086,C#/.net 研发工程师,深圳,2018-05-02 09:56:44,21.6,115637,万汇互联,万汇互联（深圳）科技有限公司,150-500人,南山区,不限,天使轮,"社交网络,金融",113.947271,22.546596,全职,不限,"['年终分红', '绩效奖金', '股票期权', '带薪年假']"
30,4506143,中级C#开发,上海,2018-05-03 09:18:45,11.8,69152,博奥特科技,深圳市博奥特科技有限公司,150-500人,徐汇区,本科,未融资,"移动互联网,金融",121.405181,31.165478,全职,3-5年,"['绩效奖金', '领导好', '帅哥多', '美女多']"
31,3150752,C# 软件开发工程师,杭州,2018-05-02 09:10:39,12.0,4938,杭州溜达,杭州溜达网络科技有限公司,15-50人,西湖区,本科,天使轮,移动互联网,120.09539,30.30972,全职,不限,"['年终分红', '股票期权', '专项奖金', '绩效奖金']"
32,4505751,C#软件开发工程师,上海,2018-05-02 13:32:11,9.6,235719,迅时通信,上海迅时通信设备有限公司,50-150人,徐汇区,本科,不需要融资,其他,121.44904,31.137471,全职,1-3年,[]
33,3559783,软件开发工程师C#,东莞,2018-05-03 08:30:25,11.2,171993,数夫软件,广州数夫软件科技有限公司,150-500人,东莞市市辖区,大专,未融资,移动互联网,113.726237,22.986539,全职,不限,[]
34,3826572,ASP.NET(C#)开发工程师,深圳,2018-05-02 17:59:30,10.8,282973,杰源网络,深圳市杰源网络信息有限公司,50-150人,南山区,大专,未融资,移动互联网 信息安全,113.940874,22.545705,全职,3-5年,"['绩效奖金', '带薪年假', '通讯津贴', '年度旅游']"
35,3863899,C#初级开发工程师,广州,2018-05-02 13:53:05,6.8,285012,广州健联,广州健联科技有限公司,50-150人,白云区,大专,A轮,"移动互联网,电子商务",113.254971,23.186808,全职,1-3年,"['帅哥多', '年度旅游', '弹性工作', '美女多']"
36,4504457,C#开发工程师,杭州,2018-05-02 10:45:26,12.0,26116,联众智慧,浙江联众智慧科技股份有限公司,500-2000人,余杭区,本科,不需要融资,医疗健康,120.018036,30.285659,全职,3-5年,"['绩效奖金', '年底双薪', '五险一金', '通讯津贴']"
37,4428413,C#开发工程师,成都,2018-05-02 10:42:05,9.6,144889,超影科技,四川超影科技有限公司,50-150人,高新区,本科,天使轮,移动互联网,0.0,0.0,全职,3-5年,"['带薪年假', '年终分红', '六险一金', '下午茶']"
38,4486651,中高级C#/.Net,长沙,2018-05-02 09:20:04,10.8,103897,新航动力,湖南新航动力信息科技有限公司,150-500人,长沙县,大专,未融资,移动互联网、企业服务,113.139607,28.189851,全职,3-5年,"['五险一金', '绩效奖金', '技能培训', '岗位晋升']"
39,3505133,.net/C# 开发工程师,北京,2018-04-27 14:23:23,10.8,71684,资质管家,资质管家（北京）信息技术有限公司,50-150人,海淀区,本科,不需要融资,电子商务,116.307466,39.984319,全职,不限,"['技能培训', '绩效奖金', '年度旅游', '管理规范']"
40,4454216,C#开发工程师,杭州,2018-04-20 10:10:35,15.0,96076,每日给力,杭州每日给力科技有限公司,50-150人,西湖区,本科,上市公司,"移动互联网,游戏",120.099439,30.261927,全职,3-5年,"['节日礼物', '专项奖金', '股票期权', '绩效奖金']"
41,4394730,C#开发工程师,上海,2018-05-02 09:50:17,11.2,1738,有鱼金融科技,上海彩亿信息技术有限公司,500-2000人,徐汇区,本科,B轮,"移动互联网,金融",121.404254,31.164469,全职,1-3年,"['股票期权', '年底双薪', '五险一金', '带薪年假']"
42,4203299,C#开发工程师,广州,2018-04-28 15:19:24,12.0,213458,广东蜂巢实验室互联技术有限公司,广东蜂巢实验室互联技术有限公司,15-50人,天河区,本科,未融资,"电子商务,企业服务",113.407289,23.150758,全职,5-10年,[]
43,3691407,C#开发工程师,上海,2018-04-28 09:21:39,16.8,29211,圆通,圆通速递有限公司,2000人以上,青浦区,大专,上市公司,"企业服务,数据服务",121.252822,31.213373,全职,3-5年,"['技能培训', '免费班车', '专项奖金', '岗位晋升']"
44,3350836,C#/.net开发工程师,合肥,2018-05-02 18:18:11,9.0,203714,来邦科技股份公司,来邦科技股份公司合肥分公司,150-500人,包河区,本科,上市公司,"企业服务,其他",117.301367,31.814618,全职,不限,[]
45,4506152,高级C#开发,上海,2018-05-03 09:18:36,12.6,69152,博奥特科技,深圳市博奥特科技有限公司,150-500人,徐汇区,本科,未融资,"移动互联网,金融",121.405181,31.165478,全职,3-5年,"['绩效奖金', '领导好', '帅哥多', '美女多']"
46,3823186,C#软件开发工程师,广州,2018-05-02 15:15:21,7.0,143692,稻禾科技,广州稻禾信息科技有限公司,15-50人,番禺区,本科,不需要融资,"企业服务,移动互联网",113.321076,23.016253,全职,1-3年,"['弹性工作', '领导好', '技能培训', '五险一金']"
47,760310,C# 软件开发工程师,广州,2018-05-02 11:08:29,6.2,72266,恒峰信息,恒峰信息技术有限公司,150-500人,萝岗区,大专,上市公司,"移动互联网,硬件",113.457904,23.17264,全职,1-3年,"['技能培训', '节日礼物', '带薪年假', '岗位晋升']"
48,4488308,C#软件研发工程师,北京,2018-04-26 15:50:13,17.0,129068,阿博茨科技,北京阿博茨科技有限公司,50-150人,海淀区,本科,A轮,移动互联网,116.351927,40.010038,全职,3-5年,"['五天工作制', '带薪假期', '健康午餐', '体育课']"
49,3863940,C#中级开发工程师,广州,2018-05-02 13:53:05,9.2,285012,广州健联,广州健联科技有限公司,50-150人,白云区,大专,A轮,"移动互联网,电子商务",113.254971,23.186808,全职,3-5年,"['帅哥多', '年度旅游', '弹性工作', '美女多']"
50,4197392,C#开发工程师,成都,2018-04-25 16:18:03,9.0,182994,TK,成都天佑智隧科技有限公司,50-150人,金牛区,本科,不需要融资,其他,104.056611,30.695955,全职,1-3年,[]
51,4140185,C#开发工程师,广州,2018-04-11 09:40:00,12.4,101882,瑞图万方,广东瑞图万方科技股份有限公司广州分公司,150-500人,天河区,本科,不需要融资,"移动互联网,O2O",113.37208,23.12342,全职,3-5年,"['年底双薪', '岗位晋升', '扁平管理', '五险一金']"
52,4510146,c#开发工程师/.net开发工程师,上海,2018-05-03 09:31:37,8.2,92550,北汇信息,上海北汇信息科技有限公司,50-150人,闵行区,大专,未融资,其他,121.382202,31.179837,全职,1-3年,"['专项奖金', '带薪年假', '绩效奖金', '定期体检']"
53,4343845,C#/.net高级开发工程师,杭州,2018-05-02 14:03:55,12.8,40823,网营科技,杭州网营科技股份有限公司,150-500人,西湖区,大专,不需要融资,电子商务,120.068592,30.29103,全职,3-5年,"['五险一金', '周末双休', '氛围超嗨', '节日礼物']"
54,4505024,C# 开发工程师,武汉,2018-05-02 11:28:28,10.8,163048,趣讯互动,武汉趣讯互动科技有限公司,15-50人,洪山区,大专,未融资,"移动互联网,文化娱乐",114.32406,30.46954,全职,1-3年,"['年底双薪', '交通补助', '定期体检', '带薪年假']"
55,4273496,C#开发工程师,北京,2018-05-01 18:09:38,8.8,290938,中国正通汽车集团,正通汽车服务有限公司,2000人以上,丰台区,本科,上市公司,其他,0.0,0.0,全职,1-3年,"['弹性工作', '帅哥多', '领导好', '岗位晋升']"
56,4506098,C#,北京,2018-05-02 14:12:58,10.8,22225,创景咨询,北京创景咨询有限公司,50-150人,海淀区,本科,不需要融资,"移动互联网,电子商务",116.334031,39.984563,全职,1-3年,"['年底双薪', '绩效奖金', '通讯津贴', '定期体检']"
57,4035604,高级.NET/c#开发工程师,广州,2018-05-02 14:03:15,12.0,64666,索菲亚家居,索菲亚家居股份有限公司,2000人以上,增城区,大专,上市公司,硬件,113.632252,23.184001,全职,3-5年,"['节日礼物', '技能培训', '绩效奖金', '年度旅游']"
58,2105102,C#开发工程师,北京,2018-05-02 09:57:19,17.8,3038,Gridsum 国双,北京国双科技有限公司,500-2000人,海淀区,本科,上市公司,"数据服务,企业服务",116.33175,39.97599007,全职,3-5年,"['年度旅游', '节日礼物', '年底双薪', '带薪年假']"
59,4355503,c#开发工程师,成都,2018-05-02 14:51:37,6.8,86055,四川鱼鳞图,四川鱼鳞图信息技术股份有限公司,500-2000人,金牛区,本科,上市公司,"移动互联网,数据服务",104.056631,30.695956,全职,1-3年,"['节日礼物', '年底双薪', '带薪年假', '绩效奖金']"
60,4063449,.NET/C#初级开发工程师,广州,2018-05-02 13:53:05,6.8,285012,广州健联,广州健联科技有限公司,50-150人,白云区,大专,A轮,"移动互联网,电子商务",113.25761,23.186756,全职,1-3年,"['帅哥多', '年度旅游', '弹性工作', '美女多']"
61,4507408,中高级 C#(.NET工程师）,上海,2018-05-02 16:00:02,12.0,69152,博奥特科技,深圳市博奥特科技有限公司,150-500人,徐汇区,大专,未融资,"移动互联网,金融",121.405181,31.165478,全职,3-5年,"['绩效奖金', '领导好', '帅哥多', '美女多']"
62,3000520,软件开发见习工程师C#,广州,2018-05-02 09:13:47,3.8,171993,数夫软件,广州数夫软件科技有限公司,150-500人,天河区,本科,未融资,移动互联网,113.372371,23.126223,全职,不限,[]
63,4473073,C#研发工程师,杭州,2018-04-27 11:52:12,21.0,57653,惠每科技,北京惠每科技有限公司,50-150人,余杭区,本科,B轮,医疗健康,120.018165,30.280071,全职,3-5年,"['技能培训', '股票期权', '岗位晋升', '五险一金']"
64,3405018,急聘ASP.NET（C#）开发,北京,2018-05-02 18:02:27,11.2,71684,资质管家,资质管家（北京）信息技术有限公司,50-150人,海淀区,本科,不需要融资,电子商务,116.307466,39.984319,全职,1-3年,"['技能培训', '绩效奖金', '年度旅游', '管理规范']"
65,4494623,C#开发,成都,2018-04-27 15:56:57,9.6,71673,索贝数码,成都索贝数码科技股份有限公司,500-2000人,高新区,本科,不需要融资,移动互联网,103.99341,30.994233,全职,3-5年,"['定期体检', '弹性工作', '六险一金', '交通补贴']"
66,1433020,C#,杭州,2018-05-02 20:34:23,13.2,72753,美国道富,道富信息科技浙江有限公司,2000人以上,西湖区,本科,上市公司,金融,120.06468298,30.31175225,全职,1-3年,"['年底双薪', '节日礼物', '岗位晋升', '管理规范']"
67,3722037,C#中高级开发工程师,广州,2018-05-02 15:49:49,14.0,212954,米美科技,广州米美科技有限公司,15-50人,天河区,本科,未融资,"数据服务,企业服务",113.327758,23.132598,全职,1-3年,"['岗位晋升', '扁平管理', '专项奖金', '带薪年假']"
68,2919139,.Net (C#) 工程师,福州,2018-05-02 11:00:19,7.0,76740,岂微,福州岂微网络科技有限公司,15-50人,鼓楼区,本科,天使轮,"移动互联网,游戏",119.27625,26.07433,全职,1-3年,"['节日礼物', '岗位晋升', '扁平管理', '自由开放']"
69,4394256,C#开发工程师,广州,2018-05-02 10:15:24,10.8,231188,开太平,深圳开太平信息服务有限责任公司,150-500人,越秀区,大专,A轮,"移动互联网,数据服务",113.284889,23.142176,全职,1-3年,"['专项奖金', '领导好', '扁平管理', '独角兽']"
70,4287252,C#软件工程师,广州,2018-05-02 09:29:18,9.6,205909,合光科技,广州合光信息科技有限公司,15-50人,天河区,大专,未融资,移动互联网,113.35653,23.135139,全职,3-5年,"['股票期权', '交通补助', '带薪年假', '五险一金']"
71,4153874,C#开发工程师,北京,2018-04-26 13:41:49,17.8,144646,毕加索,北京毕加索智能科技有限公司,50-150人,海淀区,本科,B轮,移动互联网,116.323042,39.975512,全职,3-5年,[]
72,3747505,C#软件工程师,广州,2018-04-23 11:35:21,10.8,522,广电运通,广电运通金融电子股份有限公司,2000人以上,萝岗区,本科,上市公司,"移动互联网,金融",113.446589,23.142801,全职,1-3年,"['节日礼物', '技能培训', '专项奖金', '免费班车']"
73,4509019,C#/.Net,深圳,2018-05-02 18:23:05,13.2,106509,华阳国际设计集团,华阳国际工程设计股份有限公司,2000人以上,福田区,大专,上市公司,其他,114.047159,22.508029,全职,3-5年,"['专项奖金', '绩效奖金', '带薪年假', '午餐补助']"
74,2182236,C#研发工程师,成都,2018-05-02 14:51:37,9.6,86055,四川鱼鳞图,四川鱼鳞图信息技术股份有限公司,500-2000人,金牛区,大专,上市公司,"移动互联网,数据服务",104.048548,30.695345,全职,3-5年,"['节日礼物', '年底双薪', '带薪年假', '绩效奖金']"
75,2822751,软件开发工程师_C#,广州,2018-05-02 09:13:47,12.6,171993,数夫软件,广州数夫软件科技有限公司,150-500人,天河区,本科,未融资,移动互联网,113.372371,23.126223,全职,1-3年,[]
76,4117648,c#开发工程师,广州,2018-05-02 15:51:46,7.0,166052,广州欧科,广州欧科信息技术股份有限公司,150-500人,萝岗区,大专,上市公司,"企业服务,数据服务",113.451355,23.164306,全职,1-3年,"['年底双薪', '带薪年假', '定期体检', '股票期权']"
77,4396348,c#/.net工程师,厦门,2018-05-02 14:30:21,7.6,158849,中软卓越,厦门中软卓越教育服务有限公司,2000人以上,思明区,大专,上市公司,"移动互联网,教育",118.17617,24.48867,全职,1-3年,[]
78,3765079,C#开发工程师,佛山,2018-04-19 16:57:53,14.0,149167,美云智数,深圳美云智数科技有限公司,500-2000人,顺德区,本科,不需要融资,"企业服务,数据服务",113.219574,22.934207,全职,3-5年,"['大平台新机遇', '资本热捧', '薪资奖金优厚', '扁平管理']"
79,3214235,"C# ,net工程师",深圳,2018-05-02 15:54:41,14.0,64175,捷顺科技股份,深圳市捷顺科技实业股份有限公司,500-2000人,福田区,本科,上市公司,"移动互联网,O2O",114.04295,22.571492,全职,1-3年,"['股票期权', '带薪年假', '绩效奖金', '管理规范']"
80,4101929,C#中级开发工程师,广州,2018-05-02 09:18:46,10.8,116939,油菜花科技,广州油菜花信息科技有限公司,50-150人,番禺区,大专,未融资,"移动互联网,文化娱乐",113.37547,22.96988,全职,3-5年,"['年底二至七薪', '专项奖金', '合伙人机制', '带薪年假']"
81,3880992,C#开发工程师,广州,2018-04-28 23:56:59,15.2,7520,广东三维家信息科技有限公司,广东三维家信息科技有限公司,150-500人,天河区,本科,A轮,"移动互联网,硬件",113.414,23.170774,全职,1-3年,"['技能培训', '节日礼物', '绩效奖金', '美女多']"
82,3164974,C#,深圳,2018-04-26 09:30:43,10.8,80590,易仓,深圳市易仓科技有限公司,150-500人,南山区,本科,未融资,"移动互联网,电子商务",113.9565,22.578788,全职,1-3年,"['节日礼物', '带薪年假', '年度旅游', '岗位晋升']"
83,3838975,C#程序员,肇庆,2018-04-16 16:54:49,8.4,30923,华盈,肇庆市华盈体育文化发展有限公司,150-500人,端州区,本科,A轮,文化娱乐,112.49652,23.08283,全职,3-5年,"['高提成奖金', '高成长公司', '股份期权', '团队创新高效']"
84,4509039,C#/ASP.NET研发工程师,厦门,2018-05-02 18:25:04,7.6,248662,走启科技,厦门走启互联网科技有限公司,少于15人,集美区,大专,未融资,"电子商务,移动互联网",118.053344,24.606519,全职,1-3年,"['绩效奖金', '领导好', '扁平管理', '岗位晋升']"
85,3829856,C#软件开发工程师,深圳,2018-05-02 17:59:29,14.0,282973,杰源网络,深圳市杰源网络信息有限公司,50-150人,南山区,大专,未融资,移动互联网 信息安全,113.940874,22.545705,全职,3-5年,"['绩效奖金', '带薪年假', '通讯津贴', '年度旅游']"
86,3643223,.NET/C#开发实习生,重庆,2018-05-02 11:56:34,2.8,33472,诺怀软件,重庆诺怀软件有限公司,50-150人,九龙坡区,本科,未融资,企业服务,106.48491,29.53202,实习,应届毕业生,"['年底双薪', '带薪年假', '绩效奖金', '岗位晋升']"
87,4448660,C#开发工程师,武汉,2018-05-03 08:35:10,5.6,368734,武汉亿捷通科技有限公司,武汉亿捷通科技有限公司,15-50人,江夏区,不限,未融资,"移动互联网,硬件",114.420317,30.490343,全职,3-5年,"['绩效奖金', '专项奖金', '带薪年假']"
88,3089958,C#(.NET)开发工程师,武汉,2018-05-02 09:49:47,10.8,14093,瞬联软件科技（北京）有限公司,瞬联软件科技（北京）有限公司,500-2000人,洪山区,大专,不需要融资,"移动互联网 ,企业服务",114.40676,30.477134,全职,3-5年,"['高薪', '节日礼物', '弹性工作', '带薪年假']"
89,3891941,C#软件开发工程师,重庆,2018-05-02 10:31:58,8.4,285112,蚂蚁嗨客,重庆嗨客网络科技有限公司,15-50人,南岸区,大专,未融资,"移动互联网,数据服务",106.644428,29.500297,全职,3-5年,[]
90,3670629,软件开发见习工程师C#,广州,2018-05-02 09:13:48,5.6,171993,数夫软件,广州数夫软件科技有限公司,150-500人,天河区,本科,未融资,移动互联网,113.372371,23.126223,实习,应届毕业生,[]
91,4160549,C#开发工程师,上海,2018-04-25 09:17:53,10.8,103163,高登世德金融科技,贵阳高登世德金融科技有限公司,50-150人,徐汇区,本科,A轮,"金融,数据服务",121.455946,31.18275,全职,不限,"['技能培训', '带薪年假', '岗位晋升', '扁平管理']"
92,1952244,C#开发工程师,广州,2018-04-16 14:34:26,8.4,82664,北大医信-健迅,广州健迅科技有限公司,50-150人,越秀区,大专,不需要融资,医疗健康,113.29051796,23.12467422,全职,1-3年,"['午餐补助', '定期体检', '通讯津贴', '管理规范']"
93,4135313,c#研发工程师,上海,2018-05-02 14:19:57,10.8,124961,西安鼎力,西安鼎力信息技术有限责任公司,50-150人,闵行区,本科,不需要融资,"招聘,其他",121.618103,31.202465,全职,1-3年,[]
94,3975787,C#开发工程师,上海,2018-05-02 14:18:26,14.4,131324,多赋信息,上海多赋信息科技有限公司,50-150人,青浦区,大专,不需要融资,"移动互联网,硬件",121.299416,31.188331,全职,3-5年,"['带薪年假', '定期体检', '年终分红', '股票期权']"
95,2406107,C#程序员,南昌,2018-05-01 19:14:02,6.2,25060,逐浪软件,江西逐浪软科技有限公司,50-150人,,大专,不需要融资,"企业服务,数据服务",,,全职,不限,"['节日礼物', '技能培训', '年度旅游', '岗位晋升']"
96,2888283,C#开发工程师,成都,2018-04-17 12:12:54,9.6,140103,优学天下,深圳市致远优学教育科技有限公司,500-2000人,武侯区,本科,不需要融资,移动互联网,104.070744,30.544608,全职,3-5年,[]
97,4509540,C#/asp.net/net 软件工程师,东莞,2018-05-02 20:12:47,9.8,276183,当下云厨,深圳市当下云厨网络科技有限公司,50-150人,东莞市市辖区,大专,A轮,移动互联网,0.0,0.0,全职,1-3年,"['""""']"
98,918164,C#开发工程师,上海,2018-05-02 10:33:38,8.4,66191,Boolan,温故知新（上海）教育科技有限公司,15-50人,浦东新区,本科,A轮,"教育,企业服务",121.58353028,31.19982983,全职,1-3年,"['海外工作', '年底双薪', '带薪年假', '节日礼物']"
99,3450835,C#工程师,东莞,2018-04-28 16:36:18,12.0,241955,维拓客科技（深圳）有限公司,维拓客科技（深圳）有限公司,50-150人,东莞市市辖区,本科,未融资,"移动互联网,数据服务",113.753133,22.98756,全职,1-3年,"['云服务', '大数据', '智能化']"
100,4288445,C#开发工程师（基本公卫）,北京,2018-04-26 14:09:20,21.0,956,金山云,北京金山云网络技术有限公司,500-2000人,海淀区,本科,C轮,"移动互联网,数据服务",116.32274,40.03674,全职,3-5年,"['技能培训', '节日礼物', '瑜伽房', '免费班车']"
101,4165097,C#软件工程师,武汉,2018-05-02 17:26:32,9.6,319107,盛视,盛视科技股份有限公司,500-2000人,洪山区,大专,不需要融资,"信息安全,硬件",114.410655,30.507301,全职,1-3年,"['""""']"
102,3346378,C# .NET开发工程师,杭州,2018-04-27 10:51:14,13.2,42367,大名软件,杭州大名软件有限公司,50-150人,西湖区,本科,不需要融资,"电子商务,企业服务",120.12478,30.2768,全职,3-5年,"['技能培训', '节日礼物', '带薪年假', '绩效奖金']"
103,4506131,C#,北京,2018-05-02 14:15:42,9.4,23529,美课城,上海创慧同景网络科技有限公司,50-150人,海淀区,本科,B轮,"移动互联网,教育",116.334031,39.984563,全职,1-3年,"['技能培训', '节日礼物', '绩效奖金', '年度旅游']"
104,4491941,C#程序开发工程师,深圳,2018-04-27 10:42:11,14.0,131457,交通中心,深圳市城市交通规划设计研究中心有限公司,500-2000人,南山区,本科,未融资,"数据服务,其他",113.901667,22.517417,全职,3-5年,[]
105,3560741,软件开发见习工程师C#,东莞,2018-05-03 08:30:24,4.2,171993,数夫软件,广州数夫软件科技有限公司,150-500人,东莞市市辖区,本科,未融资,移动互联网,113.726237,22.986539,全职,应届毕业生,[]
106,3293470,C#工程师,深圳,2018-05-02 11:29:02,17.0,210490,汇商通盈,深圳汇商通盈科技有限公司,15-50人,南山区,本科,A轮,移动互联网,113.952429,22.537847,全职,3-5年,"['带薪年假', '年底双薪', '定期体检', '欢乐8090']"
107,4362867,.NET C#开发工程师,广州,2018-05-02 11:01:04,12.6,309580,盟讯科技,广东盟讯科技有限公司,15-50人,番禺区,大专,不需要融资,"移动互联网,其他",113.31325,23.036501,全职,1-3年,"['年底双薪', '专项奖金', '带薪年假', '午餐补助']"
108,3517662,C#开发工程师,济南,2018-05-01 09:22:57,7.0,95131,信雅达,信雅达系统工程股份有限公司,2000人以上,历下区,本科,上市公司,移动互联网,117.005627,36.66165,全职,1-3年,[]
109,3564125,C# 软件开发工程师,广州,2018-05-02 17:02:37,13.2,50241,Symbio-Freeborders,信必优(深圳)信息技术有限公司,2000人以上,天河区,本科,未融资,"移动互联网,电子商务",113.332464,23.134217,全职,1-3年,"['节日礼物', '年底双薪', '带薪年假', '年度旅游']"
110,2777974,C#工程师,上海,2018-05-02 09:24:45,12.0,115668,上海琰众,上海琰众信息科技有限公司,15-50人,普陀区,本科,未融资,"电子商务,金融",121.393044,31.22662,全职,1-3年,[]
111,3799547,高级C#开发工程师,广州,2018-05-02 09:18:47,12.6,116939,油菜花科技,广州油菜花信息科技有限公司,50-150人,番禺区,大专,未融资,"移动互联网,文化娱乐",113.37547,22.96988,全职,3-5年,"['年底二至七薪', '专项奖金', '合伙人机制', '带薪年假']"
112,3139704,.net/c#开发工程师,太原,2018-04-11 18:34:16,5.6,144592,山西天帷,山西天帷智能城市规划设计有限公司,50-150人,小店区,大专,未融资,"移动互联网,教育",112.571011,37.747247,全职,1-3年,"['绩效奖金', '带薪年假', '节日礼物', '扁平管理']"
113,4297276,C#/.Net 开发工程师,北京,2018-05-02 09:39:09,8.8,61185,心神信息技术有限公司,心神信息技术有限公司,150-500人,海淀区,本科,A轮,移动互联网,116.313161,39.984635,全职,1-3年,"['岗位晋升', '帅哥多', '领导好', '年终分红']"
114,3619171,高级c#开发工程师,杭州,2018-05-02 09:07:02,15.4,21658,信领达,信领达（杭州）软件有限公司,50-150人,西湖区,本科,D轮及以上,移动互联网,119.993591,29.993662,全职,5-10年,"['绩效奖金', '股票期权', '专项奖金', '五险一金']"
115,3239070,C#,大连,2018-05-02 18:40:10,11.2,38879,广州碧软,广州碧软信息科技有限公司,500-2000人,甘井子区,大专,不需要融资,"企业服务,金融",121.535835,38.884914,全职,3-5年,"['技能培训', '节日礼物', '专项奖金', '带薪年假']"
116,4251600,C#,成都,2018-04-27 15:12:36,10.8,6820,华律网,成都华律网络服务有限公司,150-500人,郫县,本科,不需要融资,电子商务,103.977114,30.744371,全职,3-5年,"['绩效奖金', '五险一金', '节日礼物', '年度旅游']"
117,4459133,C#软件工程师,上海,2018-05-02 10:21:28,8.2,114439,博协软件,上海博协软件有限公司,50-150人,普陀区,不限,不需要融资,移动互联网,121.397707,31.267486,全职,不限,[]
118,3928213,C#开发工程师,北京,2018-05-02 10:10:56,19.0,25642,优识云创,优识云创（北京）科技有限公司,50-150人,海淀区,本科,B轮,移动互联网,116.31028,39.97937,全职,3-5年,"['绩效奖金', '股票期权', '五险一金', '带薪年假']"
119,4457071,C#工程师,北京,2018-05-02 09:09:44,8.8,24972,竞业达,北京竞业达数码科技有限公司,500-2000人,海淀区,本科,上市公司,"移动互联网,硬件",0.0,0.0,全职,1-3年,"['节日礼物', '技能培训', '免费班车', '带薪年假']"
120,2017501,C#开发工程师,杭州,2018-04-27 14:34:33,11.2,21658,信领达,信领达（杭州）软件有限公司,50-150人,西湖区,本科,D轮及以上,移动互联网,120.125286,30.291462,全职,不限,"['绩效奖金', '股票期权', '专项奖金', '五险一金']"
121,3315666,C#开发工程师,青岛,2018-04-11 16:38:26,12.0,112945,青岛鼎信,青岛鼎信通讯股份有限公司,2000人以上,市南区,本科,上市公司,其他,120.415547,36.076209,全职,1-3年,"['年底双薪', '午餐补助', '通讯津贴', '定期体检']"
122,1137800,C#开发工程师（.net）,厦门,2018-05-02 08:45:21,9.0,96050,蓝斯股份,厦门蓝斯通信股份有限公司,150-500人,集美区,本科,上市公司,"移动互联网,数据服务",0.0,0.0,全职,不限,"['免费班车', '带薪年假', '年度旅游', '管理规范']"
123,4473046,C#/.Net中级开发工程师,长沙,2018-04-27 14:11:01,8.8,103897,新航动力,湖南新航动力信息科技有限公司,150-500人,长沙县,大专,未融资,移动互联网、企业服务,113.139565,28.189629,全职,3-5年,"['五险一金', '绩效奖金', '技能培训', '岗位晋升']"
124,4499191,C#开发工程师,大连,2018-05-03 08:36:01,9.6,175909,打造安全签约互联网平台,北京京本源高新技术有限公司,50-150人,高新园区,本科,未融资,"电子商务,信息安全",121.529323,38.858565,全职,3-5年,[]
125,2784649,C#工程师,杭州,2018-05-02 16:32:15,12.0,49855,尚洛科技,杭州市尚洛网络技术有限公司,50-150人,西湖区,不限,不需要融资,电子商务,120.096837,30.293475,全职,不限,"['技能培训', '专项奖金', '岗位晋升', '扁平管理']"
126,4488412,C#研发工程师,合肥,2018-04-26 15:57:38,8.4,224829,五线科技,合肥五线信息科技有限公司,15-50人,蜀山区,大专,不需要融资,"医疗健康,信息安全",117.211304,31.841004,全职,1-3年,[]
127,3028569,c#/.net工程师,广州,2018-04-17 19:26:35,8.8,50215,美亚商旅,广州美亚尚途国际旅行社有限公司,150-500人,天河区,大专,不需要融资,电子商务,113.317246,23.119425,全职,1-3年,"['节日礼物', '技能培训', '绩效奖金', '年度旅游']"
128,4497157,C#工程师,湖州,2018-05-02 10:45:46,11.4,321816,中科院湖州中心,湖州中科院应用技术研究与产业化中心,15-50人,吴兴区,本科,不需要融资,医疗健康 其他,120.071417,30.857872,全职,不限,"['""""']"
129,4365540,C#开发工程师,天津,2018-04-08 09:32:52,10.8,227215,江河瑞通,江河瑞通(北京）软件有限公司,150-500人,河东区,本科,不需要融资,"数据服务,硬件",117.226554,39.123139,全职,1-3年,"['带薪年假', '定期体检', '午餐补助', '绩效奖金']"
130,4327865,C#开发工程师,南昌,2018-05-02 10:20:38,6.8,202337,纬昊科技,上海纬昊谱挚航空科技有限公司,15-50人,青云谱区,本科,未融资,"移动互联网,硬件",115.917393,28.62974,全职,不限,[]
131,3345683,C#开发工程师,广州,2018-04-28 09:43:40,14.0,97873,昂鼎信息,广州昂鼎信息科技有限公司,15-50人,越秀区,不限,不需要融资,移动互联网,113.309639,23.118185,全职,5-10年,"['专项奖金', '带薪年假', '绩效奖金', '岗位晋升']"
132,4263719,C#开发工程师（新项目开发）,北京,2018-05-03 09:27:34,14.4,4560,圣特尔&middot;E店宝,北京圣特尔科技发展有限公司,150-500人,朝阳区,大专,C轮,电子商务,116.42589601,40.03326406,全职,3-5年,"['绩效奖金', '五险一金', '通讯津贴', '带薪年假']"
133,4412701,C#开发工程师（微软）,北京,2018-05-03 09:07:12,8.8,189022,微创,上海微创软件股份有限公司北京分公司,2000人以上,海淀区,本科,上市公司,"移动互联网,电子商务",116.31028,39.979366,全职,不限,"['年底双薪', '绩效奖金', '免费班车', '节日礼物']"
134,1528816,C#高级软件开发工程师,广州,2018-05-02 09:18:47,12.0,116939,油菜花科技,广州油菜花信息科技有限公司,50-150人,天河区,本科,未融资,"移动互联网,文化娱乐",113.3748991,23.13195368,全职,5-10年,"['年底二至七薪', '专项奖金', '合伙人机制', '带薪年假']"
135,1676374,C#,成都,2018-05-02 09:15:26,12.0,8486,微核科技,成都微核科技有限公司,50-150人,高新区,大专,上市公司,移动互联网,104.06110649,30.58539373,全职,3-5年,"['带薪年假', '绩效奖金', '专项奖金', '年度旅游']"
136,3381282,C#高级开发工程师,长沙,2018-05-02 09:09:28,10.2,103897,新航动力,湖南新航动力信息科技有限公司,150-500人,长沙县,大专,未融资,移动互联网、企业服务,112.891182,28.213811,全职,5-10年,"['五险一金', '绩效奖金', '技能培训', '岗位晋升']"
137,4092036,C#开发工程师,青岛,2018-05-03 08:29:37,7.0,204508,青岛乘正科技,青岛乘正科技有限公司,50-150人,崂山区,不限,不需要融资,"移动互联网,企业服务",120.468956,36.107538,全职,1-3年,[]
138,4232213,C#开发工程师,杭州,2018-05-02 09:53:51,12.0,10321,通策集团,浙江通策控股集团有限公司,500-2000人,西湖区,本科,上市公司,"移动互联网,数据服务",120.099386,30.262201,全职,1-3年,"['绩效奖金', '五险一金', '带薪年假', '通讯津贴']"
139,4013120,C#开发工程师（应届）,北京,2018-04-28 13:53:03,7.0,71494,北大医信,北大医疗信息技术有限公司,500-2000人,海淀区,本科,不需要融资,医疗健康,116.31312,39.984558,全职,应届毕业生,"['技能培训', '节日礼物', '带薪年假', '绩效奖金']"
140,3759166,C#开发工程师,广州,2018-05-02 10:17:04,8.4,234484,迈奇拓,广州迈奇拓网络技术有限公司,50-150人,番禺区,大专,天使轮,"移动互联网,教育",113.384129,22.937244,全职,1-3年,[]
141,4373533,C#软件开发工程师,北京,2018-05-02 10:01:11,10.0,355547,经纬公司货运分部,北京经纬信息技术公司铁路货运软件分部,150-500人,海淀区,本科,不需要融资,"移动互联网,信息安全",116.33718,39.956308,全职,1年以下,"['""""']"
142,3972305,C# 开发工程师,北京,2018-04-28 10:42:50,26.0,279659,虎鲸科技,北京虎鲸跳跃科技有限公司,15-50人,海淀区,本科,不需要融资,"移动互联网,数据服务",116.333994,39.984636,全职,3-5年,"['领导好', '扁平管理', '五险一金', '年底双薪']"
143,4466598,c#,杭州,2018-04-23 16:15:16,8.2,153444,普江科技,杭州普江科技有限公司,15-50人,余杭区,大专,不需要融资,电子商务,120.021042,30.278433,全职,1-3年,[]
144,844358,C#开发工程师,上海,2018-05-02 15:02:21,11.6,34276,艾提科信（ITR）,北京艾提科信网络技术有限公司上海分公司,150-500人,浦东新区,大专,未融资,"电子商务 ,金融",,,全职,3-5年,"['节日礼物', '年底双薪', '技能培训', '年度旅游']"
145,3381533,c#/.net开发工程师,重庆,2018-05-02 14:11:44,7.2,232677,白狮创新,重庆白狮网络科技有限公司,少于15人,渝中区,本科,天使轮,"数据服务,信息安全",106.553077,29.553887,全职,不限,[]
146,3666436,高级C#开发工程师,广州,2018-05-02 11:17:05,13.6,28393,爱云校,北京修齐治平科技有限公司,500-2000人,天河区,本科,C轮,"教育,数据服务",113.356269,23.134926,全职,1-3年,"['技能培训', '节日礼物', '股票期权', '带薪年假']"
147,4495633,C#,上海,2018-05-02 10:36:43,19.0,314451,智远弘业,上海智远弘业机器人有限公司,15-50人,杨浦区,本科,未融资,不限,121.507784,31.308375,全职,3-5年,"['""""']"
148,1638559,C#开发工程师,北京,2018-05-02 09:57:19,12.0,3038,Gridsum 国双,北京国双科技有限公司,500-2000人,海淀区,本科,上市公司,"数据服务,企业服务",116.332441,39.976021,全职,1-3年,"['年度旅游', '节日礼物', '年底双薪', '带薪年假']"
149,4436525,C#开发工程师,武汉,2018-04-18 17:36:13,10.8,227215,江河瑞通,江河瑞通(北京）软件有限公司,150-500人,东湖新技术开发区,本科,不需要融资,"数据服务,硬件",0.0,0.0,全职,1-3年,"['带薪年假', '定期体检', '午餐补助', '绩效奖金']"
150,3187447,C#开发工程师,杭州,2018-04-24 13:33:47,8.2,153444,普江科技,杭州普江科技有限公司,15-50人,余杭区,大专,不需要融资,电子商务,120.021042,30.278433,全职,1-3年,[]
151,3764611,C#开发工程师（高级）,西安,2018-04-27 15:35:27,15.6,36760,Nova科技,西安诺瓦电子科技有限公司,500-2000人,高新技术产业开发区,本科,未融资,"硬件,数据服务",108.993463,33.994053,全职,5-10年,"['技能培训', '节日礼物', '绩效奖金', '岗位晋升']"
152,4471116,C#开发工程师,广州,2018-05-02 15:31:49,16.8,20467,海通安恒,珠海海通安恒科技有限公司,150-500人,天河区,本科,未融资,企业服务,113.326432,23.127128,全职,3-5年,"['五险一金', '通讯津贴', '带薪年假', '节日礼物']"
153,4268477,.NET开发工程师 C#,武汉,2018-05-02 09:05:24,12.0,24117,颂大教育,武汉颂大教育科技股份有限公司,150-500人,东湖新技术开发区,大专,上市公司,"教育,数据服务",114.401259,30.441381,全职,3-5年,"['年终分红', '五险一金', '带薪年假', '免费班车']"
154,4185418,高级C#开发工程师,广州,2018-05-02 11:17:05,15.2,28393,爱云校,北京修齐治平科技有限公司,500-2000人,天河区,本科,C轮,"教育,数据服务",113.36104,23.13999,全职,3-5年,"['技能培训', '节日礼物', '股票期权', '带薪年假']"
155,3412044,C#高级软件工程师,中山,2018-04-19 10:23:20,12.0,166140,鼎捷软件,鼎捷软件股份有限公司,2000人以上,,大专,上市公司,其他,113.4025,22.510162,全职,3-5年,"['带薪年假', '通讯津贴', '定期体检', '午餐补助']"
156,3543791,C#工程师,北京,2018-05-02 09:28:56,12.0,254126,北京亚芯融创科技发展有限公司,北京亚芯融创科技发展有限公司,15-50人,昌平区,本科,未融资,硬件,116.414459,40.061453,全职,1-3年,[]
157,2875109,接入工程师（C#）,苏州,2018-04-26 16:16:01,8.4,68556,伏泰科技,苏州市伏泰信息科技股份有限公司,150-500人,工业园区,本科,上市公司,"数据服务,其他",0.0,0.0,全职,不限,"['节日礼物', '年底双薪', '带薪年假', '年度旅游']"
158,4320645,C#开发工程师（云HIS）,北京,2018-04-26 14:09:21,21.0,956,金山云,北京金山云网络技术有限公司,500-2000人,海淀区,本科,C轮,"移动互联网,数据服务",116.310195,40.039018,全职,3-5年,"['技能培训', '节日礼物', '瑜伽房', '免费班车']"
159,4370921,C#开发工程师,深圳,2018-04-04 10:20:59,10.0,142626,CLPS,上海华钦信息科技股份有限公司,500-2000人,福田区,大专,未融资,"数据服务,金融",114.057445,22.502381,全职,1-3年,"['专项奖金', '带薪年假', '定期体检', '交通补助']"
160,4339501,C#/.NET开发工程师,成都,2018-05-02 10:38:32,7.6,353197,美程天下,四川省美程天下科技有限公司,少于15人,锦江区,大专,不需要融资,教育,104.127881,30.601964,全职,1-3年,"['""""']"
161,4354664,C#开发工程师,北京,2018-04-08 09:32:51,10.8,227215,江河瑞通,江河瑞通(北京）软件有限公司,150-500人,海淀区,本科,不需要融资,"数据服务,硬件",116.288577,39.960982,全职,1-3年,"['带薪年假', '定期体检', '午餐补助', '绩效奖金']"
162,4412524,C#开发工程师（微软）,北京,2018-05-03 09:07:13,12.0,189022,微创,上海微创软件股份有限公司北京分公司,2000人以上,海淀区,本科,上市公司,"移动互联网,电子商务",116.31028,39.979366,全职,1-3年,"['年底双薪', '绩效奖金', '免费班车', '节日礼物']"
163,4455338,C# .NET开发工程师,东莞,2018-05-02 17:35:28,9.2,323201,易工科技,东莞市易工信息科技有限公司,50-150人,东莞市市辖区,大专,未融资,移动互联网,113.893936,22.958421,全职,3-5年,"['""""']"
164,4156112,ASP.NET(C#)开发工程师,上海,2018-05-02 14:10:54,11.2,78608,科享,上海科享信息科技有限公司,50-150人,徐汇区,大专,A轮,移动互联网,121.392776,31.172145,全职,3-5年,"['年底双薪', '带薪年假', '绩效奖金', '岗位晋升']"
165,3588724,c#工程师,郑州,2018-05-02 10:03:22,7.2,211236,郑州秒赞,郑州秒赞网络科技有限公司,15-50人,郑东新区,大专,未融资,移动互联网,113.770678,34.755647,全职,1-3年,[]
166,4384340,C#工程师,成都,2018-05-02 09:56:11,7.0,153820,智能家庭医生,四川联影科技有限公司,50-150人,金牛区,大专,未融资,"医疗健康,移动互联网",103.988549,30.716154,全职,1-3年,"['带薪年假', '交通补助', '弹性工作', '节日礼物']"
167,3577321,C#高级工程师,广州,2018-04-27 16:31:03,14.0,30020,亿航智能无人机Ehang,广州亿航智能技术有限公司,150-500人,,本科,B轮,"移动互联网,硬件",112.993461,22.994261,全职,3-5年,"['扁平管理', '免费班车', '带薪年假', '股票期权']"
168,4184716,C#工程师,广州,2018-04-23 09:24:16,11.2,264486,医视云,阿肯医视云网络信息(北京)有限公司,50-150人,天河区,本科,不需要融资,"移动互联网,医疗健康",113.341062,23.174987,全职,3-5年,[]
169,3768978,中级C#研发工程师,上海,2018-05-02 14:58:33,13.2,15257,美味不用等,美味不用等（上海）信息科技股份有限公司,500-2000人,浦东新区,大专,C轮,"移动互联网,O2O",121.5935,31.207614,全职,1-3年,"['绩效奖金', '股票期权', '专项奖金', '年底双薪']"
170,4245393,C#研发工程师,北京,2018-05-02 14:31:27,14.0,87620,汉仪字库,北京汉仪科印信息技术有限公司,50-150人,海淀区,本科,不需要融资,"移动互联网,文化娱乐",115.99339,39.99426,全职,1-3年,"['技能培训', '节日礼物', '带薪年假', '绩效奖金']"
171,4139847,C#工程师,西安,2018-05-02 14:05:20,7.6,116592,第六镜Glasssix,陕西第六镜科技文化有限责任公司,15-50人,高新技术产业开发区,大专,不需要融资,"生活服务,硬件",108.900358,34.235666,全职,3-5年,"['节日礼物', '扁平管理', '绩效奖金', '专项奖金']"
172,4480503,C#/.NET开发工程师（佛山高明）,佛山,2018-05-02 11:34:29,13.2,50241,Symbio-Freeborders,信必优(深圳)信息技术有限公司,2000人以上,高明区,大专,未融资,"移动互联网,电子商务",0.0,0.0,全职,3-5年,"['节日礼物', '年底双薪', '带薪年假', '年度旅游']"
173,2154896,C#,上海,2018-05-02 09:39:16,9.8,81622,佰路得,佰路得信息技术（上海）有限公司,15-50人,徐汇区,本科,不需要融资,"移动互联网,文化娱乐",120.993464,30.994061,全职,不限,"['带薪年假', '年度旅游', '定期体检', '年终奖金']"
174,142155,.NET（或C#）软件工程师,南昌,2018-05-01 19:14:05,8.8,25060,逐浪软件,江西逐浪软科技有限公司,50-150人,青山湖区,大专,不需要融资,"企业服务,数据服务",115.937194,28.676633,全职,1-3年,"['节日礼物', '技能培训', '年度旅游', '岗位晋升']"
175,4168215,C#软件工程师,成都,2018-04-27 09:13:05,5.4,264307,修行客,四川修行客汽车服务有限公司,150-500人,高新区,大专,未融资,"生活服务,金融",104.061156,30.566619,全职,1-3年,[]
176,3419830,高级C#开发工程师,北京,2018-05-02 10:12:42,28.0,149208,田米科技,北京田米科技有限公司,2000人以上,海淀区,本科,D轮及以上,移动互联网,116.332861,40.040791,全职,不限,[]
177,4470085,C#开发工程师,广州,2018-04-24 10:23:54,6.6,329399,锐讯易通,深圳锐讯易通科技有限公司,15-50人,萝岗区,大专,不需要融资,移动互联网,113.434868,23.167108,全职,1-3年,"['""""']"
178,3829724,C#开发工程师,广州,2018-04-18 12:08:43,9.8,25907,迈尔汛,广州市迈尔汛科技有限公司,15-50人,萝岗区,大专,未融资,移动互联网,0.0,0.0,全职,1-3年,"['周末双休', '五险一金', '补充医疗保险', '带薪年假']"
179,3073674,C#/.net开发工程师,广州,2018-05-02 16:41:54,12.0,199252,阿斯拜尔,广东阿斯拜尔信息科技有限公司,15-50人,海珠区,本科,不需要融资,"数据服务,移动互联网",113.30055,23.06864,全职,3-5年,[]
180,4262394,C#开发工程师,广州,2018-05-02 12:39:33,10.8,160894,台喜,广州台喜信息科技有限公司,50-150人,天河区,本科,未融资,电子商务,113.411594,23.185295,全职,1-3年,[]
181,4448543,C#开发工程师,无锡,2018-04-19 11:50:28,7.8,369136,微茗智能科技,无锡微茗智能科技有限公司,50-150人,锡山区,本科,未融资,"信息安全,数据服务",120.45875,31.591546,全职,1-3年,"['""""']"
182,4507348,C# 软件工程师,青岛,2018-05-02 15:55:32,9.0,376942,青岛松鼠软件公司,青岛松鼠软件科技有限公司,少于15人,青岛经济技术开发区,大专,不需要融资,"移动互联网,其他",120.185728,35.965643,全职,1-3年,"['""""']"
183,4276740,asp.net c#开发工程师,广州,2018-05-02 14:05:04,7.6,125267,广州天汇,广州市天汇计算机科技有限公司,15-50人,天河区,大专,未融资,"移动互联网,数据服务",113.34377,23.139045,全职,1-3年,[]
184,4472867,.net(C#) 工程师,郑州,2018-05-02 11:28:31,7.2,141924,歌匣子APP,郑州再厉网络科技有限公司,15-50人,金水区,不限,天使轮,"移动互联网,社交网络",113.994087,34.993239,全职,1-3年,[]
185,2081634,C#/.NET软件工程师,嘉兴,2018-04-19 16:38:14,10.8,11527,蓝鸽集团,蓝鸽集团有限公司,500-2000人,南湖区,本科,不需要融资,"移动互联网,企业服务",120.83897041,30.74193951,全职,不限,"['专项奖金', '加班费', '两房一厅公寓', '博士后工作站']"
186,2802303,C# 开发工程师,成都,2018-04-11 11:29:17,9.6,171172,嵩格,嵩格科技（成都）有限公司,15-50人,高新区,大专,不需要融资,"移动互联网,游戏",104.069359,30.60309,全职,3-5年,"['绩效奖金', '带薪年假', '定期体检', '年度旅游']"
187,3237301,c#、.net软件工程师,成都,2018-05-03 08:54:28,5.2,137167,万基泰科技,万基泰科工集团（四川）有限公司,15-50人,成华区,大专,不需要融资,"数据服务,其他",104.11603,30.6503,全职,1-3年,[]
188,2824047,C#开发工程师,青岛,2018-05-02 08:27:03,7.2,130742,青岛新思诺软件,青岛新思诺软件有限公司,15-50人,市南区,大专,未融资,"企业服务,数据服务",120.374077,36.082946,全职,3-5年,[]
189,4195369,.NET C# 开发工程师(ASP.NET),上海,2018-04-28 10:16:02,12.0,62838,SUGARMONKEY,糖猴子网络科技（上海）有限公司,15-50人,长宁区,不限,未融资,"移动互联网,广告营销",121.432107,31.219442,全职,3-5年,"['节日礼物', '绩效奖金', '年度旅游', '岗位晋升']"
190,3709629,C#软件开发工程师,惠州,2018-04-25 16:11:31,7.0,82916,易隆软件,惠州市易隆联创信息科技有限公司,15-50人,惠城区,大专,未融资,"移动互联网,企业服务",,,全职,1-3年,"['带薪年假', '绩效奖金', '年度旅游', '扁平管理']"
191,4477757,C# .NET开发工程师,南京,2018-05-03 09:35:45,16.8,371811,阿博茨,阿博茨德（北京）科技有限公司,150-500人,雨花台区,本科,A轮,移动互联网 数据服务,118.77074,31.975941,全职,5-10年,"['年底双薪', '股票期权', '带薪年假', '午餐补助']"
192,4414837,C#开发,广州,2018-05-02 10:11:05,10.8,333986,佛山市宝诗龙精密五金有限公司,佛山市宝诗龙精密五金有限公司,500-2000人,海珠区,本科,上市公司,移动互联网,113.335257,23.102164,全职,1-3年,"['""""']"
193,1281337,C#，.net软件工程师,宁波,2018-05-02 08:54:50,9.2,75522,美康生物,宁波美康生物科技股份有限公司,500-2000人,鄞州区,本科,上市公司,"移动互联网,医疗健康",121.55625028,29.80981296,全职,1-3年,"['项目奖金', '免费班车', '带薪年假', '年度旅游']"
194,4491762,C#开发工程师,杭州,2018-04-27 10:28:36,7.6,171430,腾仁科技,杭州腾仁科技有限公司,50-150人,西湖区,本科,A轮,"企业服务,硬件",120.068271,30.306392,全职,1-3年,"['年底双薪', '交通补助', '定期体检', '通讯津贴']"
195,4439844,C#开发工程师,广州,2018-04-27 10:12:57,9.8,24659,佳和立创,广州佳和立创科技发展有限公司,50-150人,天河区,本科,不需要融资,移动互联网,113.376493,23.135385,全职,1-3年,"['年底双薪', '五险一金', '带薪年假', '年度旅游']"
196,3381955,初级/中级C#开发工程师,长沙,2018-05-02 09:09:28,7.0,103897,新航动力,湖南新航动力信息科技有限公司,150-500人,岳麓区,本科,未融资,移动互联网、企业服务,112.882147,28.226993,全职,1-3年,"['五险一金', '绩效奖金', '技能培训', '岗位晋升']"
197,4241938,C#开发工程师,上海,2018-04-23 13:17:14,8.6,325753,Sage,上海速聚信息技术有限公司,15-50人,普陀区,大专,不需要融资,"企业服务,其他",121.442877,31.255858,全职,1-3年,"['年底双薪', '弹性工作', '专项奖金', '技能培训']"
198,3730284,C#开发工程师,济南,2018-04-08 14:51:36,6.2,233405,山东布图,山东布图信息科技有限公司,15-50人,高新区,大专,未融资,"移动互联网,企业服务",117.124387,36.680409,全职,1-3年,"['扁平管理', '领导好', '美女多', '弹性工作']"
199,1638540,C#开发工程师（高级）,北京,2018-05-02 09:57:19,17.8,3038,Gridsum 国双,北京国双科技有限公司,500-2000人,海淀区,本科,上市公司,"数据服务,企业服务",116.332441,39.976021,全职,3-5年,"['年度旅游', '节日礼物', '年底双薪', '带薪年假']"
200,893982,C#（一体化）,北京,2018-04-28 13:53:03,13.2,71494,北大医信,北大医疗信息技术有限公司,500-2000人,海淀区,本科,不需要融资,医疗健康,116.306834,40.04087,全职,3-5年,"['技能培训', '节日礼物', '带薪年假', '绩效奖金']"
201,4427754,C#开发工程师,无锡,2018-04-23 08:27:02,14.0,366145,倍云软件,无锡倍云软件有限公司,少于15人,无锡新区,本科,未融资,"移动互联网,企业服务",120.41367,31.532638,全职,1-3年,"['""""']"
202,4327833,C#高级工程师,南昌,2018-05-02 10:20:38,12.0,202337,纬昊科技,上海纬昊谱挚航空科技有限公司,15-50人,青云谱区,本科,未融资,"移动互联网,硬件",115.917393,28.62974,全职,1-3年,[]
203,4484010,C#/winform开发工程师（苏州）,苏州,2018-05-02 09:36:51,10.8,164634,百得思维,安徽百得思维信息科技有限公司,500-2000人,工业园区,本科,未融资,其他,120.669376,31.281801,全职,3-5年,[]
204,4363388,C#程序员,上海,2018-05-02 00:40:18,9.8,175884,文景信息,上海文景信息科技有限公司,50-150人,浦东新区,本科,不需要融资,"移动互联网,其他",121.496135,31.156465,全职,1-3年,"['午餐补助', '带薪年假', '绩效奖金', '年底双薪']"
205,4495566,C#开发工程师,苏州,2018-04-27 17:26:41,19.0,115142,中金所技术公司,上海金融期货信息技术有限公司,150-500人,工业园区,本科,不需要融资,"金融,数据服务",120.734136,31.264788,全职,1-3年,"['带薪年假', '定期体检', '午餐补助', '五险一金']"
206,2800161,C#开发工程师,长沙,2018-04-25 16:57:14,12.0,30605,赢时胜软件,深圳市赢时胜信息技术股份有限公司,500-2000人,开福区,本科,上市公司,金融,112.970595,28.199352,全职,3-5年,"['活动多多', '氛围轻松', '自研产品', '上市公司']"
207,1541839,C#,北京,2018-04-21 10:50:31,7.2,7903,天鹏恒宇,北京天鹏恒宇科技发展有限公司,50-150人,海淀区,本科,天使轮,"金融,医疗健康",,,全职,不限,"['绩效奖金', '五险一金', '带薪年假', '午餐补助']"
208,4410816,C#开发工程师,上海,2018-04-19 18:53:15,14.0,183543,Focusmedia,上海德峰广告传播有限公司,2000人以上,长宁区,大专,上市公司,广告营销,121.431586,31.219011,全职,3-5年,[]
209,3011865,C#研发工程师,青岛,2018-04-19 15:34:58,7.6,192403,清原精准农业,青岛清原精准农业科技有限公司,15-50人,市南区,大专,不需要融资,移动互联网,120.38755,36.074615,全职,1-3年,[]
210,4294773,C#开发(含实习),广州,2018-05-03 08:47:59,9.0,209072,德惟科技,广州德惟科技有限公司,150-500人,天河区,大专,不需要融资,"金融,移动互联网",113.374048,23.123238,全职,1-3年,[]
211,3834026,C#开发工程师,北京,2018-04-10 16:52:31,12.0,22182,安正软件,广州安正软件股份有限公司,150-500人,西城区,大专,上市公司,"移动互联网,金融",116.360182,39.911954,全职,3-5年,"['技能培训', '年度旅游', '岗位晋升', '扁平管理']"
212,4499931,C#开发,南京,2018-04-28 15:39:23,7.0,375624,麦金尼斯网络科技有限公司,南京麦金尼斯网络科技有限公司,少于15人,建邺区,本科,天使轮,"移动互联网,电子商务",118.734131,31.979141,全职,1-3年,"['""""']"
213,3692331,C#开发工程师,广州,2018-04-24 09:51:43,7.0,141189,力控元海,广州力控元海信息科技有限公司,15-50人,天河区,大专,不需要融资,"移动互联网,硬件",113.34371,23.12227,全职,1-3年,"['绩效奖金', '午餐补助', '定期体检', '带薪年假']"
214,4336037,C#开发工程师(客户端),广州,2018-04-23 23:51:29,14.0,70967,移步到微,广州三尺信息科技有限公司,15-50人,天河区,大专,A轮,"移动互联网,企业服务",113.32081,23.16259,全职,1-3年,"['股票期权', '绩效奖金', '扁平管理', '弹性工作']"
215,4380829,C#工程师,北京,2018-04-08 12:07:11,7.0,360235,延博利亚国际文化发展（北京）有限公司,延博利亚国际文化发展（北京）有限公司,少于15人,朝阳区,不限,不需要融资,移动互联网,116.433016,39.959052,全职,1-3年,"['""""']"
216,4442613,中级.net(C#)研发工程师,北京,2018-05-02 09:52:40,7.6,366621,英迪致远,北京英迪致远科技有限责任公司,15-50人,朝阳区,大专,不需要融资,信息安全 数据服务,116.468598,40.00224,全职,1-3年,"['""""']"
217,2032661,C# .NET 研发工程师,成都,2018-05-02 08:37:39,9.4,66100,中新金桥,中新金桥数字科技（北京）有限公司,50-150人,青羊区,大专,未融资,"电子商务,文化娱乐",104.03993974,30.66580958,全职,1-3年,"['技能培训', '带薪年假', '绩效奖金', '定期体检']"
218,3814606,C#中级软件开发工程师,北京,2018-04-28 13:53:03,14.0,71494,北大医信,北大医疗信息技术有限公司,500-2000人,海淀区,本科,不需要融资,医疗健康,116.31312,39.984558,全职,3-5年,"['技能培训', '节日礼物', '带薪年假', '绩效奖金']"
219,4372893,C#开发工程师,中山,2018-04-28 10:17:20,8.4,46733,艾文凯迪,中山市艾文凯迪投资管理有限公司,50-150人,中山市市辖区,大专,不需要融资,"O2O,数据服务",113.18671,22.61325,全职,1-3年,"['节日礼物', '岗位晋升', '帅哥多', '弹性工作']"
220,2140316,C#,北京,2018-04-24 09:53:57,12.0,11351,北京布瑞克农业信息科技有限责任公司,北京布瑞克农业信息科技有限责任公司,50-150人,海淀区,本科,B轮,数据服务,116.33632026,39.97595973,全职,1-3年,"['技能培训', '岗位晋升', '扁平管理', '五险一金']"
221,4437940,C#/.NET高级开发工程师,广州,2018-04-17 19:25:03,11.4,50215,美亚商旅,广州美亚尚途国际旅行社有限公司,150-500人,天河区,大专,不需要融资,电子商务,113.317246,23.119425,全职,3-5年,"['节日礼物', '技能培训', '绩效奖金', '年度旅游']"
222,4367998,C#开发工程师,成都,2018-04-08 10:16:00,7.0,14093,瞬联软件科技（北京）有限公司,瞬联软件科技（北京）有限公司,500-2000人,高新区,本科,不需要融资,"移动互联网 ,企业服务",104.05558,30.53895,全职,1-3年,"['高薪', '节日礼物', '弹性工作', '带薪年假']"
223,2647382,net（C#）开发,西安,2018-05-02 13:49:39,7.0,115113,恒谦教育,西安恒谦教育科技股份有限公司,50-150人,未央区,大专,B轮,"移动互联网,教育",108.94656,34.31364,全职,1-3年,[]
224,4048217,C#软件工程师,深圳,2018-05-02 09:21:38,11.2,87743,深圳捷佳德,深圳捷佳德现金自动化处理设备有限公司,150-500人,南山区,本科,不需要融资,"金融,其他",113.95064,22.54332,全职,3-5年,"['带薪年假', '绩效奖金', '年度旅游', '定期体检']"
225,4503457,c#,南京,2018-05-01 20:29:22,9.6,357170,WeWo,南京维物软件有限公司,少于15人,江宁区,本科,天使轮,医疗健康,118.813758,31.942368,全职,1-3年,"['""""']"
226,3911937,C#软件工程师,上海,2018-04-28 09:41:53,10.8,297411,韬安,上海韬安信息技术有限公司,少于15人,宝山区,本科,不需要融资,其他,121.475818,31.322779,全职,1-3年,"['""""']"
227,4408602,C#软件工程师,苏州,2018-04-28 08:33:14,10.8,130431,苏州承泽医疗科技,苏州承泽医疗科技有限公司,15-50人,工业园区,本科,A轮,"医疗健康,移动互联网",120.765813,31.27763,全职,3-5年,"['绩效奖金', '带薪年假', '午餐补助', '定期体检']"
228,4436947,C#开发工程师,成都,2018-04-26 17:00:08,9.6,188164,四川巨棠,四川巨棠科技有限公司,15-50人,武侯区,本科,未融资,"移动互联网,数据服务",0.0,0.0,全职,3-5年,[]
229,4312298,C#开发工程师,上海,2018-05-02 18:57:16,9.8,337876,薇薇印刷,宁波薇薇珺晨广告设计有限公司,15-50人,浦东新区,本科,不需要融资,其他,,,全职,1-3年,"['""""']"
230,3381173,c# 工程师,广州,2018-05-02 17:28:11,15.2,177725,卓睿网络,广州市卓睿网络科技有限公司,50-150人,天河区,大专,不需要融资,"移动互联网,企业服务",0.0,0.0,全职,1-3年,[]
231,3638493,VS/.NET/C# Engineer ERP开发,上海,2018-05-02 15:06:23,14.0,26126,维塔士,上海维塔士电脑软件有限公司,500-2000人,长宁区,不限,B轮,游戏,121.42576,31.20969,全职,3-5年,"['技能培训', '绩效奖金', '年度旅游', '岗位晋升']"
232,4219666,中级C#工程师,广州,2018-05-03 08:47:03,12.0,49183,佳都科技,佳都新太科技股份有限公司,2000人以上,番禺区,大专,上市公司,移动互联网,113.38571,23.056087,全职,3-5年,"['人工智能', '双通道晋升', '智慧城市', '交通大脑']"
233,4217787,C#开发工程师,广州,2018-05-02 10:11:05,9.6,333986,佛山市宝诗龙精密五金有限公司,佛山市宝诗龙精密五金有限公司,500-2000人,天河区,本科,上市公司,移动互联网,113.320868,23.139189,全职,1-3年,"['""""']"
234,2660233,资深C#工程师,北京,2018-05-02 09:57:19,24.0,3038,Gridsum 国双,北京国双科技有限公司,500-2000人,海淀区,本科,上市公司,"数据服务,企业服务",116.33175,39.97599007,全职,5-10年,"['年度旅游', '节日礼物', '年底双薪', '带薪年假']"
235,4208717,c#开发工程师,青岛,2018-04-27 16:55:27,6.6,163449,方天科技,青岛方天科技股份有限公司,150-500人,市南区,本科,上市公司,"移动互联网,企业服务",117.020359,36.66853,全职,1-3年,"['带薪年假', '出勤补贴', '笔记本补贴', '工龄工资']"
236,1417606,C#/.NET软件工程师,上海,2018-04-19 16:38:14,10.8,11527,蓝鸽集团,蓝鸽集团有限公司,500-2000人,闸北区,本科,不需要融资,"移动互联网,企业服务",,,全职,不限,"['专项奖金', '加班费', '两房一厅公寓', '博士后工作站']"
237,4302357,C#开发工程师,成都,2018-04-17 11:51:55,12.0,247420,唐源电气,成都唐源电气股份有限公司,150-500人,武侯区,本科,不需要融资,其他,103.972951,30.628924,全职,5-10年,"['带薪年假', '专项奖金', '年度旅游', '节日礼物']"
238,4481662,C#开发工程师,广州,2018-04-25 16:24:34,9.6,78730,傲程软件,广州傲程软件技术有限公司,50-150人,天河区,大专,未融资,移动互联网,113.331861,23.144221,全职,1-3年,"['节日礼物', '带薪年假', '绩效奖金', '年度旅游']"
239,3592316,C#开发工程师,西安,2018-04-24 10:49:10,8.4,69404,杉石,杭州杉石科技有限公司,15-50人,高新技术产业开发区,本科,未融资,"O2O,其他",108.885948,34.193249,全职,1-3年,"['带薪年假', '五险一金', '弹性工作', '绩效奖金']"
240,4302249,C#开发工程师,日照,2018-04-21 09:26:53,4.4,71280,创泽信息,山东创泽信息技术股份有限公司,50-150人,东港区,大专,上市公司,"移动互联网,电子商务",119.511364,35.387546,全职,1-3年,"['技能培训', '绩效奖金', '岗位晋升', '管理规范']"
241,4469626,C#高级开发工程师,深圳,2018-05-02 14:39:52,14.4,14617,深圳市敏思达信息技术有限公司,深圳市敏思达技术有限公司,150-500人,南山区,大专,不需要融资,移动互联网,113.952429,22.537847,全职,3-5年,"['节日礼物', '年底双薪', '带薪年假', '年度旅游']"
242,4150143,C#开发工程师,武汉,2018-04-24 09:25:58,7.0,305540,武钢众鹏,武汉武钢众鹏信息系统有限公司,500-2000人,洪山区,本科,不需要融资,"企业服务,信息安全",114.335933,30.502247,全职,1-3年,"['""""']"
243,4406531,C#开发工程师,赣州,2018-04-23 18:04:22,9.8,363661,赣州市邮政分公司,中国邮政集团公司赣州市分公司,2000人以上,章贡区,本科,不需要融资,金融、电子商务,114.939493,25.854942,全职,3-5年,"['""""']"
244,4466689,C#/.net开发工程师,成都,2018-04-23 16:21:52,10.8,63990,小智审图,成都小智审图科技有限公司,少于15人,高新区,大专,天使轮,移动互联网,104.068095,30.537385,全职,1-3年,"['人工智能+', '股权/期权', '职业规划', '弹性工作']"
245,1417596,C#/.NET软件工程师,杭州,2018-04-19 16:38:14,10.8,11527,蓝鸽集团,蓝鸽集团有限公司,500-2000人,江干区,本科,不需要融资,"移动互联网,企业服务",,,全职,不限,"['专项奖金', '加班费', '两房一厅公寓', '博士后工作站']"
246,3458311,c#开发,宁波,2018-04-26 14:44:34,8.8,123348,匀视网,宁波匀视网络技术股份有限公司,15-50人,镇海区,大专,A轮,"电子商务,移动互联网",121.611695,29.91483,全职,1-3年,"['绩效奖金', '股票期权', '节日礼物', '五险一金']"
247,4347937,c#开发工程师,北京,2018-04-24 08:42:27,8.2,5650,北京中科恒业,北京中科恒业科技有限公司,50-150人,海淀区,大专,未融资,医疗健康,0.0,0.0,全职,1-3年,"['绩效奖金', '专项奖金', '五险一金', '通讯津贴']"
248,4401658,C#软件开发工程师,成都,2018-04-23 17:33:45,9.0,102611,酷码视觉,成都酷码视觉科技有限公司,少于15人,金牛区,大专,未融资,"移动互联网,企业服务",104.081422,30.68122,全职,3-5年,"['技能培训', '节日礼物', '专项奖金', '绩效奖金']"
249,3392936,C#,南京,2018-04-30 15:28:51,11.4,142892,轩恩软件,南京轩恩软件开发有限公司,50-150人,秦淮区,本科,未融资,教育、数据服务,118.994087,31.993229,全职,3-5年,[]
250,4060994,C# 开发工程师,长沙,2018-04-26 09:21:06,8.8,314211,致真技术,长沙致真技术有限公司,15-50人,开福区,大专,未融资,"企业服务,数据服务",112.982048,28.236077,全职,3-5年,"['定期体检', '交通补助', '带薪年假', '绩效奖金']"
251,4480146,C#开发工程师,广州,2018-04-25 14:28:08,10.8,336508,RIB,广州拓欧信息技术有限公司,150-500人,萝岗区,本科,上市公司,数据服务 企业服务,0.0,0.0,全职,1-3年,"['""""']"
252,4467721,C#开发工程师,成都,2018-04-23 17:37:35,8.8,371840,四川九阵,四川九阵科技股份有限公司,150-500人,高新区,不限,未融资,"移动互联网,医疗健康",104.056871,30.585906,全职,1-3年,"['""""']"
253,4185139,C#研发工程师,武汉,2018-04-18 11:48:39,9.8,268057,德润特,德润特数字影像科技（北京）有限公司,150-500人,东湖新技术开发区,本科,不需要融资,医疗健康,114.4835,30.429311,全职,1-3年,[]
254,3583930,C#开发工程师,西安,2018-04-09 16:24:12,9.0,149363,西安基石睿盛,西安基石睿盛信息技术有限公司,50-150人,高新技术产业开发区,本科,不需要融资,"移动互联网,数据服务",108.883415,34.197596,全职,3-5年,"['绩效奖金', '带薪年假', '交通补助', '通讯津贴']"
255,4417424,C#研发岗位,北京,2018-05-02 12:34:15,6.8,148874,北京怀亮科技有限公司,北京怀亮科技有限公司,少于15人,海淀区,本科,不需要融资,移动互联网,116.313419,40.037338,全职,1-3年,[]
256,4244065,C#研发工程师,北京,2018-04-26 16:53:56,7.0,315166,融惠信息,上海融惠信息科技有限公司,15-50人,海淀区,大专,未融资,医疗健康,116.303276,40.035542,全职,不限,"['""""']"
257,2404973,C#软件工程师,上海,2018-04-26 11:52:07,9.6,148045,皓为商务,上海皓为商务咨询有限公司,15-50人,虹口区,本科,天使轮,"移动互联网,医疗健康",121.481436,31.268495,全职,1-3年,[]
258,2755479,C#高级工程师,杭州,2018-05-02 16:36:03,10.8,129647,幂群科技,上海幂群网络科技有限公司,50-150人,西湖区,不限,不需要融资,电子商务,120.096964,30.29377,全职,1-3年,[]
259,4315992,高级C#开发工程师,成都,2018-05-02 14:51:37,10.8,86055,四川鱼鳞图,四川鱼鳞图信息技术股份有限公司,500-2000人,金牛区,大专,上市公司,"移动互联网,数据服务",104.0536,30.697572,全职,5-10年,"['节日礼物', '年底双薪', '带薪年假', '绩效奖金']"
260,3049228,C#/.net,上海,2018-05-02 10:21:30,7.8,114439,博协软件,上海博协软件有限公司,50-150人,普陀区,大专,不需要融资,移动互联网,121.397707,31.267486,全职,3-5年,[]
261,4264351,C#开发,上海,2018-04-27 23:01:17,14.0,340838,中世建设,上海中世建设咨询有限公司,150-500人,普陀区,本科,不需要融资,其他,121.4186,31.238195,全职,3-5年,"['""""']"
262,4429802,C#开发工程师,北京,2018-04-27 15:16:37,11.2,66772,博识创智,北京博识创智科技发展有限公司,15-50人,海淀区,大专,未融资,"移动互联网,其他",116.341234,39.964635,全职,3-5年,"['技能培训', '专项奖金', '带薪年假', '绩效奖金']"
263,4384605,C#/.NET开发工程师,北京,2018-05-03 09:07:12,12.0,189022,微创,上海微创软件股份有限公司北京分公司,2000人以上,海淀区,本科,上市公司,"移动互联网,电子商务",116.31028,39.979366,全职,3-5年,"['年底双薪', '绩效奖金', '免费班车', '节日礼物']"
264,2250391,.NET/c#,珠海,2018-04-28 12:38:00,8.2,126028,远大集团,长沙远大住宅工业集团股份有限公司,2000人以上,香洲区,大专,不需要融资,移动互联网,113.52729223,22.2592838,全职,1-3年,[]
265,4229667,c#桌面开发,郑州,2018-04-27 10:46:34,8.4,114008,快保家,河南快保信息科技有限公司,50-150人,高新区,本科,未融资,"金融,教育",113.574196,34.806893,全职,1-3年,[]
266,4491979,.net开发工程师（c#）,厦门,2018-04-27 10:45:23,9.8,374678,易销云医药管理系统,厦门宜销云科技有限公司,少于15人,集美区,不限,天使轮,数据服务 医疗健康,118.051039,24.60666,全职,1-3年,"['""""']"
267,2263340,C#工程师,德州,2018-04-20 15:18:15,5.6,132222,哈哈考驾照,德州天雁软件技术有限公司,50-150人,德城区,不限,不需要融资,"移动互联网,O2O",116.39363614,37.43717537,全职,不限,"['年底双薪', '绩效奖金', '年终分红', '午餐补助']"
268,4166842,C#高级工程师,深圳,2018-05-03 09:41:05,10.8,195697,华盛通,深圳市时代华盛网络科技有限公司,50-150人,南山区,本科,不需要融资,"金融,移动互联网",113.932749,22.541047,全职,3-5年,"['带薪年假', '股票期权', '定期体检', '扁平管理']"
269,4251375,C#开发工程师,重庆,2018-04-27 16:38:32,8.4,340360,中国科学院重庆绿色智能技术研究院,中国科学院重庆绿色智能技术研究院,150-500人,北碚区,本科,天使轮,信息安全、数据服务,106.541648,29.804703,全职,1-3年,"['""""']"
270,2507844,c#工程师,无锡,2018-04-16 11:20:55,7.2,153610,无边网络,无锡无边网络技术有限公司,15-50人,滨湖区,大专,未融资,"移动互联网,企业服务",120.257242,31.542535,全职,1-3年,"['年底双薪', '专项奖金', '股票期权', '绩效奖金']"
271,2985332,C#软件工程师,上海,2018-05-02 12:57:41,5.6,74673,上海埃帕无线通信科技有限公司,上海埃帕无线通信科技有限公司,150-500人,普陀区,大专,不需要融资,"移动互联网,教育",121.419258,31.237019,全职,1-3年,[]
272,4460570,C#,深圳,2018-05-02 07:40:45,19.0,297945,金牛区黄坚栋健康咨询服务部,金牛区黄坚栋健康咨询服务部,15-50人,福田区,大专,A轮,"移动互联网,其他",0.0,0.0,全职,1-3年,"['""""']"
273,4269010,C#高级开发工程师,杭州,2018-05-01 14:07:12,15.0,22805,恒生电子,恒生电子股份有限公司,2000人以上,滨江区,本科,上市公司,"移动互联网,金融",120.165668,30.185677,全职,3-5年,"['绩效奖金', '专项奖金', '五险一金', '通讯津贴']"
274,4484976,c#,上海,2018-04-26 10:29:31,8.2,373909,上海虹卓软件,上海虹卓软件科技有限公司,15-50人,,不限,天使轮,移动互联网,121.538859,31.276386,全职,1-3年,"['""""']"
275,4345693,C#开发工程师,广州,2018-04-20 14:53:40,6.2,131615,元亨计算机,广州元亨计算机科技有限公司,15-50人,天河区,大专,不需要融资,"其他,电子商务",113.33773,23.12823,全职,1年以下,"['年底双薪', '专项奖金', '绩效奖金', '带薪年假']"
276,4415238,C#开发工程师（税控）(0977),北京,2018-04-13 09:46:38,8.8,7734,航天信息,航天信息股份有限公司,2000人以上,海淀区,不限,上市公司,"移动互联网,金融",39.951495,116.264752,全职,不限,"['节日礼物', '年底双薪', '技能培训', '带薪年假']"
277,3491343,C#,深圳,2018-04-28 16:36:17,12.0,241955,维拓客科技（深圳）有限公司,维拓客科技（深圳）有限公司,50-150人,南山区,本科,未融资,"移动互联网,数据服务",113.904577,22.516624,全职,1-3年,"['云服务', '大数据', '智能化']"
278,4472750,C#程序员/C#软件工程师（急招）,南宁,2018-05-02 10:23:48,5.6,168159,中浩达科技,深圳市中浩达科技有限公司,15-50人,西乡塘区,大专,未融资,其他,108.2845,22.879904,全职,不限,[]
279,2029488,C#/ASP/.net系统开发工程师,佛山,2018-04-11 11:43:58,7.0,110898,新宝电器,广东新宝电器股份有限公司,2000人以上,,大专,上市公司,其他,,,全职,1-3年,"['年底双薪', '专项奖金', '带薪年假', '提供住宿']"
280,1906930,C#软件工程师,广州,2018-04-03 13:46:32,9.0,61133,伟昊科技,广州市伟昊科技电子有限公司,500-2000人,,本科,不需要融资,企业服务,,,全职,1-3年,"['绩效奖金', '带薪年假', '定期体检', '通讯津贴']"
281,4470297,中级C#开发工程师,成都,2018-05-02 11:27:50,8.8,333681,经纬万达,四川经纬万达科技有限公司,15-50人,高新区,本科,不需要融资,移动互联网,104.066282,30.544961,全职,1-3年,"['""""']"
282,2270410,软件工程师（.net c#）,成都,2018-05-02 09:34:52,5.6,127197,大成均图,成都大成均图科技有限公司,50-150人,武侯区,本科,未融资,数据服务,104.055434,30.640417,全职,1-3年,[]
283,4490325,C# 高级研发工程师,北京,2018-04-28 09:13:19,24.0,120978,药帮忙,武汉小药药医药科技有限公司,500-2000人,朝阳区,大专,C轮,医疗健康,116.468327,40.003457,全职,5-10年,"['年底双薪', '定期体检', '带薪年假', '弹性工作']"
284,4419523,C#开发工程师,重庆,2018-04-13 17:00:11,4.8,98509,重庆友捷科技有限公司,重庆友捷科技有限公司,15-50人,渝北区,不限,不需要融资,"信息安全,企业服务",106.52498,29.59898,全职,1-3年,[]
285,3922698,C#开发工程师,杭州,2018-05-02 10:12:18,10.8,297964,医惠软件,杭州医惠软件有限公司,150-500人,滨江区,本科,不需要融资,医疗健康,120.143956,30.179717,全职,3-5年,"['绩效奖金', '交通补助', '午餐补助', '带薪年假']"
286,1363752,C#开发工程师,天津,2018-04-26 16:20:48,10.8,110437,工大科雅,工大科雅（天津）能源科技有限公司,150-500人,红桥区,不限,上市公司,"企业服务,数据服务",115.57622618,45.34614691,全职,不限,[]
287,4392949,C#开发工程师,苏州,2018-04-16 10:30:37,6.8,51325,3Dunion-瀚易特,苏州瀚易特信息技术有限公司,50-150人,高新区,大专,不需要融资,"移动互联网,数据服务",120.539598,31.276929,全职,1-3年,"['节日礼物', '技能培训', '绩效奖金', '年度旅游']"
288,4174013,c#高级软件开发工程师,武汉,2018-05-02 18:14:45,12.0,13127,兴图新科,武汉兴图新科电子股份有限公司,500-2000人,洪山区,本科,A轮,"移动互联网,文化娱乐",114.408917,30.477669,全职,3-5年,"['节日礼物', '技能培训', '年度旅游', '周末双休']"
289,3934597,C#高级开发工程师,北京,2018-04-28 13:53:03,19.0,71494,北大医信,北大医疗信息技术有限公司,500-2000人,海淀区,本科,不需要融资,医疗健康,116.316419,39.991399,全职,5-10年,"['技能培训', '节日礼物', '带薪年假', '绩效奖金']"
290,2865144,C#软件开发工程师,天津,2018-04-26 10:36:23,7.8,67933,金信通,天津金信通软件技术有限公司,15-50人,滨海新区,本科,未融资,"移动互联网,其他",117.737098,39.124748,全职,3-5年,"['年底双薪', '技能培训', '节日礼物', '带薪年假']"
291,4476860,C#系统开发工程师,长沙,2018-04-25 09:15:47,10.4,350577,seeingdo,深圳兴导科技有限公司,15-50人,开福区,本科,A轮,"移动互联网,教育",113.037384,28.243635,全职,1-3年,"['""""']"
292,3853847,C#开发工程师,重庆,2018-04-25 09:09:31,7.0,233849,邦得鼎盛,北京邦得鼎盛科技有限公司重庆分公司,15-50人,江北区,大专,未融资,"移动互联网,信息安全",106.533829,29.572243,全职,3-5年,"['绩效奖金', '领导好', '岗位晋升', '年底双薪']"
293,4462067,c#,郑州,2018-04-23 08:34:53,12.6,353219,领牛科技,郑州领牛网络科技有限公司,15-50人,中原区,大专,未融资,金融,113.565607,34.804964,全职,3-5年,"['""""']"
294,4408856,C#开发工程师,成都,2018-04-16 08:40:48,10.8,112405,欣阳科技,四川欣阳科技有限公司,150-500人,高新区,本科,不需要融资,"医疗健康,企业服务",104.060478,30.568219,全职,3-5年,"['年底双薪', '专项奖金', '带薪年假', '通讯津贴']"
295,4376844,C#,广州,2018-04-06 10:29:39,6.8,155854,胜骅科技,广州市胜骅动漫科技有限公司,50-150人,番禺区,大专,不需要融资,"游戏,移动互联网",113.376105,22.969545,全职,不限,"['领导好', '帅哥多', '午餐补助', '扁平管理']"
296,1815785,C#,上海,2018-04-28 11:30:32,10.8,96623,栩龙网络,上海栩龙网络科技有限公司,15-50人,徐汇区,不限,天使轮,移动互联网,121.41267541,31.17085311,全职,1-3年,"['节日礼物', '股票期权', '带薪年假', '扁平管理']"
297,176224,C#,北京,2018-04-27 09:03:14,9.0,23727,知网,同方知网（北京）技术有限公司,2000人以上,海淀区,本科,上市公司,"移动互联网,电子商务",116.35521891,40.04895147,全职,1-3年,"['美女多多', '带薪年假', '绩效奖金', '岗位晋升']"
298,1074484,C#,南京,2018-04-25 14:17:15,6.2,26039,瑞虹科技,南京瑞虹信息科技有限公司,15-50人,鼓楼区,大专,未融资,"移动互联网,电子商务",,,全职,1-3年,"['交通补助', '带薪年假', '绩效奖金', '节日礼物']"
299,3915012,C#开发工程师,广州,2018-04-14 11:07:34,8.4,138468,景丰网络,广州市景丰网络科技有限公司,15-50人,天河区,大专,未融资,"移动互联网,O2O",113.342082,23.14184,全职,1-3年,"['专项奖金', '年终分红', '股票期权', '带薪年假']"
300,3768973,高级C#研发工程师,上海,2018-05-02 14:58:32,19.0,15257,美味不用等,美味不用等（上海）信息科技股份有限公司,500-2000人,浦东新区,大专,C轮,"移动互联网,O2O",121.5935,31.207614,全职,3-5年,"['绩效奖金', '股票期权', '专项奖金', '年底双薪']"
301,4100722,C#软件工程师,深圳,2018-04-25 15:21:02,8.4,320121,达昌基金,深圳达昌基金管理有限公司,50-150人,南山区,本科,不需要融资,金融,113.952901,22.540817,全职,不限,"['股票期权', '绩效奖金']"
302,4246902,C#/.net 开发工程师,广州,2018-04-24 17:57:58,8.4,260184,毅进科技,深圳市前海毅进科技有限公司,15-50人,越秀区,本科,不需要融资,"移动互联网,电子商务",113.267568,23.119923,全职,1-3年,[]
303,4423735,C#，WPF，Windows,武汉,2018-05-03 09:18:44,8.4,53901,必腾科技,武汉必腾移动科技有限责任公司,15-50人,东湖新技术开发区,大专,不需要融资,"移动互联网,企业服务",114.431977,30.505571,全职,1-3年,"['专项奖金', '绩效奖金', '通讯津贴', '弹性工作']"
304,2762225,C#高级工程师,杭州,2018-05-02 16:29:53,11.4,86489,促牛技术,杭州促牛网络技术有限公司,50-150人,西湖区,不限,不需要融资,"移动互联网,电子商务",120.096973,30.293637,全职,1-3年,"['技能培训', '带薪年假', '绩效奖金', '岗位晋升']"
305,806285,C#,天津,2018-04-27 14:59:51,8.8,77991,艾讯网络,天津市艾讯网络科技有限公司,15-50人,南开区,大专,未融资,"移动互联网,信息安全",117.155408,39.105431,全职,1-3年,"['年底双薪', '技能培训', '带薪年假', '绩效奖金']"
306,3520571,c# .net 开发工程师,烟台,2018-04-25 17:02:28,5.6,103297,摩西网络,山东摩西网络科技有限公司,15-50人,高新区,本科,未融资,"移动互联网,O2O",121.487722,37.449833,全职,不限,"['专项奖金', '领导好', '五险一金', '弹性工作']"
307,3337311,C#软件开发,北京,2018-04-24 14:48:51,6.2,227738,金泰软件,北京金泰永吉科技有限公司,15-50人,大兴区,大专,未融资,"医疗健康,移动互联网",116.356946,39.773124,全职,1年以下,[]
308,4409041,C#,成都,2018-04-12 10:51:13,7.6,99199,高德唯斯,成都高德唯斯计算机信息系统有限公司,15-50人,高新区,大专,未融资,"移动互联网,数据服务",104.065748,30.551906,全职,1-3年,"['年底双薪', '带薪年假', '绩效奖金', '年度旅游']"
309,3731689,C#工程师,广州,2018-04-08 14:50:00,8.8,211900,金蓝盟,广州金蓝盟企业管理咨询有限公司,500-2000人,天河区,大专,不需要融资,企业服务,113.341682,23.175013,全职,不限,[]
310,4074369,C#软件开发工程师,成都,2018-04-24 23:12:30,7.0,160227,华璨电子,北京华璨电子有限公司,50-150人,成华区,大专,不需要融资,分类信息、教育,,,全职,不限,[]
311,4285778,C# .net开发工程师,惠州,2018-04-24 14:30:41,5.8,192397,悦信荣,惠州悦信荣科技有限公司,15-50人,惠城区,本科,不需要融资,"移动互联网,数据服务",114.407627,23.115554,全职,不限,"['专项奖金', '技能培训', '五险一金', '岗位晋升']"
312,4084361,C#高级软件开发工程师,深圳,2018-04-23 09:04:32,19.0,47928,海能达通信,海能达通信股份有限公司,2000人以上,南山区,本科,上市公司,"数据服务,信息安全",113.946628,22.550455,全职,5-10年,"['股票期权', '年底双薪', '绩效奖金', '带薪年假']"
313,4415890,C#开发工程师,佛山,2018-04-13 10:45:17,7.0,116737,杜特软件,佛山市杜特软件科技有限公司,50-150人,禅城区,大专,未融资,移动互联网,112.993461,22.994261,全职,不限,[]
314,4263843,C#工程师,广州,2018-04-12 18:36:55,9.4,50241,Symbio-Freeborders,信必优(深圳)信息技术有限公司,2000人以上,海珠区,本科,未融资,"移动互联网,电子商务",0.0,0.0,全职,1-3年,"['节日礼物', '年底双薪', '带薪年假', '年度旅游']"
315,4477560,C#高级开发工程师,北京,2018-05-02 16:19:26,12.0,38268,畅天游,北京畅天游科技有限公司,15-50人,石景山区,大专,不需要融资,移动互联网,115.99339,39.99426,全职,3-5年,"['技能培训', '带薪年假', '绩效奖金', '岗位晋升']"
316,1639426,C#软件工程师,长沙,2018-04-24 15:40:49,10.8,120801,长沙开元仪器,长沙开元仪器股份有限公司,500-2000人,长沙县,本科,上市公司,"移动互联网,电子商务",113.08899954,28.24544018,全职,不限,[]
317,3897408,C#开发工程师,合肥,2018-04-11 17:53:14,5.6,144232,国华光电,安徽国华光电技术有限公司,50-150人,高新区,本科,未融资,其他,117.13642,31.8329,全职,1-3年,"['午餐补助', '专项奖金', '股票期权', '年底双薪']"
318,3408511,C#/ASP.NET开发,廊坊,2018-04-28 11:24:41,3.8,236117,亿能网络,廊坊市亿能网络技术有限公司,少于15人,广阳区,大专,未融资,"移动互联网,数据服务",116.702249,39.548862,全职,不限,[]
319,4493370,C# Engineer,厦门,2018-04-27 13:58:45,21.0,9237,RingCentral厦门研发中心,厦门铃盛软件有限公司,500-2000人,思明区,本科,上市公司,"移动互联网,数据服务",0.0,0.0,全职,1-3年,"['年度旅游', '节日礼物', '年底双薪', '股票期权']"
320,4005006,C#/asp.net软件工程师,长沙,2018-04-25 18:25:58,8.4,309572,云数信息,湖南云数信息科技有限公司,15-50人,岳麓区,大专,未融资,"移动互联网,数据服务",112.889972,28.209836,全职,1-3年,"['股票期权', '年终奖金', '年度旅游', '领导好']"
321,4437654,C#/.NET开发工程师,合肥,2018-04-23 16:50:15,7.2,261560,科迅软件,安徽省科迅教育装备有限公司,50-150人,高新区,大专,未融资,"移动互联网,信息安全",117.197105,31.840706,全职,1-3年,[]
322,3711319,C#,成都,2018-04-23 15:29:38,6.2,272594,万众启源,四川万众启源信息技术有限公司,15-50人,锦江区,本科,未融资,"金融,移动互联网",104.079742,30.653146,全职,1-3年,"['带薪年假', '领导好', '弹性工作', '节日礼物']"
323,3925128,C#开发工程师,成都,2018-04-23 09:27:09,4.8,143567,诚卓数码,成都诚卓数码科技有限公司,50-150人,青羊区,本科,未融资,"移动互联网,硬件",104.014272,30.661977,全职,1-3年,"['专项奖金', '绩效奖金', '带薪年假', '节日礼物']"
324,3213794,C#开发工程师,成都,2018-04-20 15:49:35,10.4,16815,四川弘和集团,四川弘和通讯有限公司,150-500人,武侯区,大专,A轮,移动互联网,103.9892,30.63479,全职,3-5年,"['绩效奖金', '五险一金', '通讯津贴', '交通补助']"
325,3779568,搜狐媒体-产品技术部-C#开发工程师,北京,2018-04-17 10:55:03,24.0,106303,搜狐集团,北京搜狐新媒体信息技术有限公司,2000人以上,海淀区,本科,上市公司,"移动互联网,广告营销",116.325403,39.983335,全职,1-3年,"['节日礼物', '项目奖金', '弹性工作时间', '15天年假']"
326,4085218,C#开发工程师,潍坊,2018-04-08 09:16:49,8.4,82977,恩源,北京恩源科技有限公司,500-2000人,奎文区,大专,不需要融资,"电子商务,企业服务",119.193115,36.705067,全职,3-5年,"['年底双薪', '带薪年假', '岗位晋升', '扁平管理']"
327,4424567,c#/asp.net开发工程师,广州,2018-05-02 11:36:42,10.8,116412,深圳优苗健康科技,深圳市优苗健康科技有限公司,15-50人,天河区,大专,天使轮,"移动互联网,医疗健康",113.37403,23.127604,全职,3-5年,"['股票期权', '专项奖金', '带薪年假', '交通补助']"
328,3956437,C#开发工程师,合肥,2018-05-02 10:10:32,4.8,239841,卓远电子,合肥卓远电子科技有限公司,15-50人,经济技术开发区,大专,未融资,其他,117.148,31.83541,全职,应届毕业生,[]
329,543320,C# asp.net开发工程师,广州,2018-04-28 13:56:54,10.0,20455,华螺网公司,广州华螺网信息技术有限公司,50-150人,萝岗区,大专,C轮,移动互联网,113.45630046,23.13621979,全职,3-5年,"['年底双薪', '带薪年假', '定期体检', '年度旅游']"
330,1414082,C# /.net,青岛,2018-04-27 10:39:36,6.6,110188,华正信息,青岛华正信息技术有限公司,50-150人,崂山区,不限,不需要融资,"移动互联网,电子商务",120.435436,36.135642,全职,1-3年,[]
331,3242169,C#软件工程师,南京,2018-04-23 09:23:16,7.6,215372,南京天朗电子科技有限公司,南京恒新天朗电子科技有限公司,150-500人,玄武区,大专,不需要融资,移动互联网,118.892542,32.091287,全职,1-3年,[]
332,4439573,C#开发工程师,杭州,2018-04-18 10:32:43,8.8,72952,品茗软件,杭州品茗信息技术有限公司,500-2000人,西湖区,大专,未融资,"信息安全,其他",120.117505,30.291025,全职,1-3年,"['年底双薪', '节日礼物', '技能培训', '绩效奖金']"
333,3347811,c#工程师,上海,2018-04-17 15:35:39,9.6,209207,鑫瑞鼎汇,武汉鑫瑞鼎汇软件技术服务有限公司,50-150人,嘉定区,不限,不需要融资,"移动互联网,企业服务",121.323141,31.296952,全职,3-5年,[]
334,2961539,C#/.NET软件工程师,东莞,2018-04-09 14:12:25,12.0,187776,东宝软件,深圳市东宝信息技术有限公司东莞分公司,150-500人,东莞市市辖区,本科,不需要融资,"移动互联网,信息安全",113.761286,23.027034,全职,1-3年,[]
335,2416127,C#工程师,西安,2018-05-03 08:58:33,6.6,115582,西部机场集团悦泰科技公司,西安悦泰科技有限责任公司,50-150人,,本科,未融资,"移动互联网,电子商务",,,全职,1-3年,"['带薪年假', '专项奖金', '节日礼物', '领导好']"
336,2382671,.NET（C#）工程师/程序员,佛山,2018-04-28 08:57:07,8.4,148235,数苑科技,佛山市数苑科技信息有限公司,50-150人,南海区,本科,不需要融资,"移动互联网,教育",113.175039,23.024609,全职,不限,"['带薪年假', '午餐补助', '帅哥多', '美女多']"
337,4054868,C#开发工程师,上海,2018-04-25 14:48:50,19.0,111481,海智在线,上海海智在线网络科技有限公司,50-150人,徐汇区,大专,A轮,"移动互联网,电子商务",121.39755,31.167293,全职,3-5年,[]
338,3545644,C#开发工程师,上海,2018-04-23 11:22:27,7.6,243497,译会科技,上海译会信息科技有限公司,50-150人,普陀区,本科,天使轮,"金融,移动互联网",121.36925,31.229707,全职,1-3年,"['午餐补助', '带薪年假', '绩效奖金', '定期体检']"
339,4365635,C#程序员,成都,2018-04-09 09:40:22,6.8,358037,鲁班建业通,成都鲁班建业科技股份有限公司,15-50人,高新区,本科,不需要融资,移动互联网,104.066381,30.54521,全职,1-3年,"['""""']"
340,3965383,C#开发工程师,深圳,2018-04-26 11:17:03,10.8,290997,智邻科技,深圳市智邻科技有限公司,50-150人,龙华新区,本科,天使轮,"移动互联网,教育",114.033909,22.615816,全职,3-5年,[]
341,4294264,c# 初级开发工程师,广州,2018-04-26 10:13:07,5.2,132946,朗睿科技,广州朗睿科技发展有限公司,50-150人,天河区,大专,不需要融资,"移动互联网,数据服务",112.994066,22.993242,全职,1-3年,"['五险一金', '周末双休', '员工旅游', '各种补贴']"
342,3846302,ASP.net C#开发工程师,广州,2018-04-23 18:05:13,9.0,289055,中海达定位,广州中海达定位技术有限公司,500-2000人,番禺区,本科,上市公司,"信息安全,数据服务",113.370059,22.968126,全职,1-3年,"['专项奖金', '带薪年假', '年终分红', '专线接送']"
343,4500321,WPF/C#开发工程师,成都,2018-05-02 10:21:42,8.4,76704,德艺软件,成都德艺软件有限公司,50-150人,高新区,大专,未融资,电子商务,104.06628,30.549663,全职,1-3年,"['技能培训', '管理规范', '领导好', '美女多']"
344,4260695,C#软件开发,北京,2018-05-02 09:53:15,9.6,181818,光启元 RAYKITE,北京光启元数字科技有限公司,50-150人,朝阳区,本科,不需要融资,"数据服务,企业服务",116.492054,39.996385,全职,1-3年,"['年底双薪', '带薪年假', '年终分红', '股票期权']"
345,4503328,C#开发工程师,北京,2018-05-01 16:46:11,9.8,66772,博识创智,北京博识创智科技发展有限公司,15-50人,海淀区,本科,未融资,"移动互联网,其他",116.341234,39.964635,全职,应届毕业生,"['技能培训', '专项奖金', '带薪年假', '绩效奖金']"
346,4467682,C#软件工程师,成都,2018-04-27 10:48:36,7.0,332350,沅成科技,成都沅成科技有限公司,15-50人,双流县,本科,未融资,移动互联网,103.908577,30.58044,全职,1-3年,"['""""']"
347,3876960,ASP.NET(C#)开发工程师,郑州,2018-04-24 13:40:11,7.0,147630,中兴时代,郑州中兴时代软件科技有限公司,15-50人,金水区,大专,未融资,"移动互联网,企业服务",113.66648,34.7902,全职,1-3年,[]
348,4468711,C#中级开发工程师,北京,2018-04-23 20:16:21,14.0,121993,De Tao GIN,德稻全球创新网络（北京）有限公司,150-500人,海淀区,本科,未融资,"移动互联网,社交网络",116.268742,39.957771,全职,3-5年,"['带薪年假', '绩效奖金', '通讯津贴', '交通补助']"
349,4216247,C#软件工程师,广州,2018-04-08 09:14:09,10.8,143321,星层科技,广东星层建筑科技股份有限公司,15-50人,天河区,本科,不需要融资,"其他,企业服务",113.320341,23.125487,全职,1-3年,[]
350,3973503,C#、winform工程师,福州,2018-04-29 09:21:44,7.6,305620,轩亚科技,轩亚（福州）信息技术有限公司,50-150人,仓山区,不限,天使轮,"移动互联网,电子商务",119.26183,26.05701,全职,1-3年,"['年底双薪', '股票期权', '绩效奖金', '带薪年假']"
351,4352545,C#工程师,广州,2018-04-28 17:21:58,10.8,342714,宏脉软件,宏脉信息技术(广州)股份有限公司,50-150人,番禺区,本科,天使轮,移动互联网,113.3345,22.994097,全职,3-5年,"['""""']"
352,4466799,C#高级研发工程师,重庆,2018-04-23 16:30:31,9.6,4090,重庆话语科技有限公司,重庆话语科技有限公司,150-500人,渝中区,大专,未融资,"移动互联网,游戏",106.515748,29.550342,全职,3-5年,"['年终分红', '专项奖金', '绩效奖金', '年底双薪']"
353,4347363,C#开发工程师,杭州,2018-05-02 10:36:26,8.4,49498,迈可行,杭州迈可行通信股份有限公司,50-150人,余杭区,本科,不需要融资,企业服务,119.997112,30.275874,全职,1-3年,"['定期体检', '午餐补助', '绩效奖金', '带薪年假']"
354,1809376,C#,杭州,2018-04-23 09:30:33,9.8,50796,北京大成元方信息科技有限公司,北京大成元方信息科技有限公司,50-150人,西湖区,大专,未融资,移动互联网,120.12728015,30.27683991,全职,1-3年,"['节日礼物', '定期体检', '五险一金', '午餐补助']"
355,4438397,c#软件开发工程师,成都,2018-04-17 22:25:57,11.0,175196,四方瑞通,成都四方瑞通软件有限公司,少于15人,锦江区,大专,不需要融资,"企业服务,移动互联网",0.0,0.0,全职,1-3年,[]
356,2994889,C#开发工程师,北京,2018-04-16 14:23:22,14.0,191162,航海星空,北京航海星空科技有限责任公司,15-50人,丰台区,本科,未融资,"移动互联网,企业服务",116.30932,39.865388,全职,3-5年,[]
357,4262981,C#工程师,西安,2018-04-09 16:24:11,2.8,149363,西安基石睿盛,西安基石睿盛信息技术有限公司,50-150人,高新技术产业开发区,本科,不需要融资,"移动互联网,数据服务",108.883415,34.197596,全职,应届毕业生,"['绩效奖金', '带薪年假', '交通补助', '通讯津贴']"
358,4122051,C#软件工程师/软件工程师,上海,2018-04-27 11:22:56,8.8,58935,复享光学,上海复享仪器设备有限公司,15-50人,杨浦区,本科,A轮,其他,121.51979,31.29904,全职,不限,"['年底双薪', '专项奖金', '带薪年假', '绩效奖金']"
359,4271121,C#开发工程师,广州,2018-04-08 10:14:06,7.6,45474,三川田集团,广州市三川田文化科技股份有限公司,150-500人,萝岗区,本科,上市公司,"移动互联网,游戏",113.435438,23.167335,全职,1-3年,"['年底双薪', '节日礼物', '绩效奖金', '岗位晋升']"
360,2609982,C#软件工程师,深圳,2018-05-02 10:11:32,7.6,157423,正业玖坤,深圳市正业玖坤信息技术有限公司,50-150人,南山区,大专,上市公司,其他,113.953445,22.537865,全职,3-5年,[]
361,3875530,c#开发,广州,2018-04-09 18:19:07,14.0,150378,微海科技,广州市微海信息科技有限公司,少于15人,黄埔区,大专,未融资,移动互联网、电子商务,113.502164,23.157436,全职,3-5年,[]
362,4411016,C#软件工程师,成都,2018-05-02 11:50:43,10.8,283334,淘淘金,深圳淘淘金互联网金融服务有限公司,500-2000人,高新区,本科,不需要融资,"移动互联网,金融",104.069228,30.546131,全职,1-3年,[]
363,4499450,c#开发工程师,广州,2018-04-28 14:51:19,10.8,336508,RIB,广州拓欧信息技术有限公司,150-500人,萝岗区,本科,上市公司,数据服务 企业服务,0.0,0.0,全职,3-5年,"['""""']"
364,3872423,.net/C#高级开发工程师,上海,2018-04-27 10:56:13,12.0,6484,梅花网,上海梅花信息有限公司,50-150人,长宁区,大专,上市公司,"移动互联网,文化娱乐",121.42055,31.19213,全职,1-3年,"['绩效奖金', '股票期权', '专项奖金', '五险一金']"
365,4484053,C#开发工程师（.net Core方向）,珠海,2018-04-26 09:19:46,12.6,53357,珠海优特科技,珠海优特电力科技股份有限公司,500-2000人,香洲区,本科,不需要融资,其他,113.55946,22.27794,全职,3-5年,"['技能培训', '年底双薪', '专项奖金', '带薪年假']"
366,3688867,C#软件开发（实习生）,中山,2018-04-19 10:23:19,2.8,166140,鼎捷软件,鼎捷软件股份有限公司,2000人以上,,本科,上市公司,其他,113.4025,22.510162,实习,应届毕业生,"['带薪年假', '通讯津贴', '定期体检', '午餐补助']"
367,1450505,C#开发工程师,武汉,2018-04-16 16:25:17,8.4,47798,英思科技,武汉英思工程科技股份有限公司,50-150人,武昌区,本科,上市公司,企业服务,114.355591,30.536033,全职,3-5年,"['技能培训', '年底双薪', '节日礼物', '绩效奖金']"
368,4391044,C#工程师,天津,2018-04-09 17:22:21,8.8,206236,天津海数,天津海数科技有限公司,15-50人,西青区,大专,未融资,"企业服务,不限",117.107289,39.066208,全职,1-3年,[]
369,2015709,C#开发工程师,佛山,2018-04-07 20:57:58,10.8,47524,Deepmind,广州多普网络科技有限公司,15-50人,南海区,本科,未融资,企业服务,0.0,0.0,全职,1-3年,"['技能培训', '专项奖金', '绩效奖金', '岗位晋升']"
370,2981923,c#/.net高级开发工程师,长沙,2018-04-28 12:00:43,8.8,181637,鹤腾信息科技,长沙鹤腾信息科技有限公司,少于15人,岳麓区,大专,未融资,"移动互联网,电子商务",112.882369,28.230937,全职,3-5年,"['带薪年假', '绩效奖金']"
371,4107992,c#开发工程师,北京,2018-04-27 11:06:34,7.6,275443,北京中置科技有限公司,北京中置科技有限公司,50-150人,朝阳区,本科,不需要融资,移动互联网,116.448982,39.958297,全职,1-3年,[]
372,4300199,C#/.net开发工程师,深圳,2018-04-23 11:19:55,14.0,114075,泰管家,深圳市泰管家健康管理有限公司,50-150人,南山区,本科,天使轮,"医疗健康,移动互联网",113.952284,22.540686,全职,5-10年,"['绩效奖金', '定期体检', '带薪年假', '年底双薪']"
373,4042405,C#开发工程师,成都,2018-04-16 08:33:36,10.8,188633,亚中医疗,四川省亚中医疗仪器有限责任公司,150-500人,武侯区,本科,未融资,医疗健康,103.977148,30.625206,全职,3-5年,"['带薪年假', '交通补助', '通讯津贴', '午餐补助']"
374,4381168,C#开发工程师,成都,2018-04-08 13:31:48,8.8,141540,鑫易时代,成都鑫易时代网络科技有限公司,50-150人,武侯区,大专,未融资,游戏,,,全职,3-5年,[]
375,4465049,C#软件工程师,成都,2018-04-27 09:13:05,4.8,264307,修行客,四川修行客汽车服务有限公司,150-500人,高新区,不限,未融资,"生活服务,金融",104.061156,30.566619,全职,1-3年,[]
376,4070778,C#开发工程师,成都,2018-04-26 11:56:43,14.4,126729,精位科技,成都精位科技有限公司,15-50人,高新区,本科,A轮,"移动互联网,硬件",104.07062,30.55119,全职,5-10年,"['股票期权', '自主研发', '国家专利']"
377,3966932,ASP.NET(C#)开发工程师,西安,2018-04-24 13:40:11,7.0,147630,中兴时代,郑州中兴时代软件科技有限公司,15-50人,高新技术产业开发区,大专,未融资,"移动互联网,企业服务",108.890974,34.193388,全职,1-3年,[]
378,3532293,C#/.NET,北京,2018-05-02 11:19:27,14.0,794,神州智联,北京神州智联科技有限公司,50-150人,海淀区,本科,B轮,"移动互联网,教育",116.308556,40.037546,全职,3-5年,"['节日礼物', '年底双薪', '股票期权', '带薪年假']"
379,3749608,C#开发,大连,2018-04-10 15:14:49,6.6,91231,铭睿,大连铭睿信息技术有限公司,15-50人,高新园区,本科,未融资,"数据服务,招聘",121.407869,38.865113,全职,1-3年,[]
380,4499248,C#工程师LY2,北京,2018-05-02 11:44:05,15.8,166774,励云科技,励云科技（北京）有限公司,50-150人,大兴区,大专,不需要融资,"移动互联网,数据服务",116.514318,39.788139,全职,3-5年,"['带薪年假', '通讯津贴', '美女多', '领导好']"
381,4002433,C#/.NET高级开发工程师,广州,2018-04-25 15:58:07,11.2,309102,一贷宗师,广州一贷宗师企业管理顾问有限公司,50-150人,番禺区,大专,不需要融资,"移动互联网,游戏",113.3274,23.035744,全职,1-3年,"['""""']"
382,3838750,c#程序员,青岛,2018-04-27 18:47:01,8.8,282658,维云易商,济南维云易商网络科技有限公司,150-500人,黄岛区,不限,不需要融资,"电子商务,企业服务",120.180945,35.95211,全职,应届毕业生,[]
383,3423086,高级C#开发工程师,上海,2018-04-25 09:01:45,21.0,3174,上海万得信息技术股份有限公司,上海万得信息技术股份有限公司,2000人以上,浦东新区,本科,不需要融资,"移动互联网,金融",121.51404,31.217426,全职,5-10年,"['技能培训', '带薪年假', '绩效奖金', '岗位晋升']"
384,3500701,.net工程师(c#),武汉,2018-04-23 11:43:29,8.4,231431,虎族游戏huzu.com,武汉炎阳在线科技有限公司,15-50人,东湖新技术开发区,大专,A轮,"电子商务,游戏",114.434532,30.499866,全职,1-3年,"['五险一金', '年终奖', '技术挑战', '年轻有激情']"
385,3748398,C#开发工程师,合肥,2018-04-10 15:36:35,8.4,43964,高维数据,合肥高维数据技术有限公司,50-150人,高新区,本科,不需要融资,"信息安全,数据服务",117.129295,31.828991,全职,3-5年,"['技能培训', '带薪年假', '绩效奖金', '岗位晋升']"
386,3655318,.NET(C#、VB.NET)软件开发工程师,北京,2018-05-02 09:29:33,6.8,258428,奕盛通科技,奕盛通科技（北京）有限公司,少于15人,昌平区,大专,不需要融资,"数据服务,其他",116.298879,40.14227,全职,3-5年,[]
387,4477431,C#/WPF开发工程师,北京,2018-04-25 10:07:48,14.0,87908,天睿空间,北京天睿空间科技股份有限公司,50-150人,朝阳区,本科,天使轮,数据服务,116.47372,40.01282,全职,1-3年,"['免费班车', '带薪年假', '绩效奖金', '定期体检']"
388,4438416,c#助理开发工程师,成都,2018-04-17 22:36:21,6.2,175196,四方瑞通,成都四方瑞通软件有限公司,少于15人,锦江区,不限,不需要融资,"企业服务,移动互联网",0.0,0.0,全职,不限,[]
389,3602370,C#,深圳,2018-05-02 10:11:32,9.0,157423,正业玖坤,深圳市正业玖坤信息技术有限公司,50-150人,南山区,大专,上市公司,其他,113.953445,22.537865,全职,不限,[]
390,960239,C#中级开发工程师,长沙,2018-04-26 09:38:54,6.8,66674,长城医疗科技,湖南长城医疗科技有限公司,2000人以上,长沙县,大专,上市公司,医疗健康,113.103203,28.234431,全职,1-3年,"['技能培训', '节日礼物', '免费班车', '带薪年假']"
391,4086014,.NET(C#)软件开发工程师,北京,2018-04-23 09:50:23,7.0,223704,华科信,天津华科信科技有限责任公司,50-150人,朝阳区,本科,天使轮,"移动互联网,硬件",116.466169,39.96166,全职,1-3年,[]
392,4345974,C#中级开发工程师,广州,2018-04-20 14:53:40,8.2,131615,元亨计算机,广州元亨计算机科技有限公司,15-50人,天河区,大专,不需要融资,"其他,电子商务",113.33773,23.12823,全职,1-3年,"['年底双薪', '专项奖金', '绩效奖金', '带薪年假']"
393,3857706,c#软件工程师,杭州,2018-04-13 15:00:31,12.0,197329,执鼎医疗,执鼎医疗科技（杭州）有限公司,50-150人,滨江区,本科,未融资,医疗健康,120.139541,30.186233,全职,1-3年,"['专项奖金', '绩效奖金', '股票期权', '年终分红']"
394,4486441,高级c#开发工程师,广州,2018-04-26 12:38:30,12.4,373785,惠万家,广东圣韵惠万家电子商务有限公司,50-150人,,本科,不需要融资,电子商务,113.325929,23.143793,全职,3-5年,"['""""']"
395,4453757,C#开发工程师,深圳,2018-04-20 09:27:34,10.8,15647,富士康观澜iDPBG事业群,富泰华工业（深圳）有限公司,2000人以上,龙华新区,本科,上市公司,"电子商务 ,数据服务",113.993578,22.99368,全职,3-5年,"['年底双薪', '带薪年假', '全新的平台', '绩效奖金']"
396,3596168,C# 软件开发工程师,广州,2018-04-13 09:55:17,9.8,141896,广州润心教育,广州市润心教育咨询有限公司,15-50人,天河区,不限,A轮,"教育,企业服务",113.401124,23.167805,全职,1-3年,"['绩效奖金', '年终分红', '节日礼物', '弹性工作']"
397,3986882,高级C#开发人员,深圳,2018-05-02 10:29:53,13.6,119788,汇金智融,汇金智融（北京）科技有限公司,150-500人,南山区,本科,上市公司,"移动互联网,电子商务",113.942937,22.545711,全职,3-5年,"['年底双薪', '绩效奖金', '带薪年假', '弹性工作']"
398,4231714,软件工程师(c#）,杭州,2018-04-26 10:40:31,11.2,337884,永控科技,杭州永控科技有限公司,50-150人,拱墅区,本科,未融资,"信息安全,数据服务",120.111971,30.334812,全职,1-3年,"['""""']"
399,3522169,C#高级研发工程师,西安,2018-04-25 09:27:51,17.0,251427,西安顶峰软件,西安顶峰软件信息技术有限公司,少于15人,高新技术产业开发区,本科,未融资,"数据服务,广告营销",108.83778,34.21165,全职,3-5年,"['五险一金', '定期体检', '免费班车', '带薪年假']"
400,4350373,C#开发工程师（人工智能方向）,广州,2018-04-23 23:51:29,14.0,70967,移步到微,广州三尺信息科技有限公司,15-50人,天河区,本科,A轮,"移动互联网,企业服务",113.32081,23.16259,全职,1-3年,"['股票期权', '绩效奖金', '扁平管理', '弹性工作']"
401,4270426,C#研发工程师,厦门,2018-04-19 15:15:34,8.8,141484,国网信通产业集团亿力吉奥公司,厦门亿力吉奥信息科技有限公司,500-2000人,思明区,本科,不需要融资,"移动互联网,信息安全",118.184977,24.483658,全职,1-3年,"['带薪年假', '午餐补助', '定期体检', '节假日补贴']"
402,4409478,C#开发工程师,深圳,2018-04-12 11:19:31,9.6,363996,科信源,深圳市科信源网络空间科技有限公司,50-150人,福田区,不限,不需要融资,"移动互联网,数据服务",114.068363,22.518911,全职,1-3年,"['""""']"
403,4130136,C#/.NET研发工程师,北京,2018-05-02 14:31:30,14.0,87620,汉仪字库,北京汉仪科印信息技术有限公司,50-150人,海淀区,本科,不需要融资,"移动互联网,文化娱乐",115.99339,39.99426,全职,1-3年,"['技能培训', '节日礼物', '带薪年假', '绩效奖金']"
404,4394801,C#开发主管,广州,2018-05-02 10:15:24,13.2,231188,开太平,深圳开太平信息服务有限责任公司,150-500人,越秀区,大专,A轮,"移动互联网,数据服务",113.284889,23.142176,全职,5-10年,"['专项奖金', '领导好', '扁平管理', '独角兽']"
405,4269744,高级C#开发工程师,杭州,2018-05-01 14:07:12,15.0,22805,恒生电子,恒生电子股份有限公司,2000人以上,滨江区,本科,上市公司,"移动互联网,金融",120.165668,30.185677,全职,3-5年,"['绩效奖金', '专项奖金', '五险一金', '通讯津贴']"
406,2656206,C#软件开发工程师,上海,2018-04-23 10:08:07,7.0,145930,数设科技,上海数设科技有限公司,15-50人,杨浦区,本科,未融资,其他,121.50478,31.287499,全职,不限,[]
407,3981355,c#服务端开发工程师,杭州,2018-04-19 13:40:27,15.0,96076,每日给力,杭州每日给力科技有限公司,50-150人,西湖区,本科,上市公司,"移动互联网,游戏",120.099439,30.261927,全职,3-5年,"['节日礼物', '专项奖金', '股票期权', '绩效奖金']"
408,3030862,C#工程师,长沙,2018-04-17 08:52:44,8.8,155028,汉鼎,长沙汉鼎信息技术有限公司,15-50人,岳麓区,大专,不需要融资,"移动互联网,数据服务",112.896045,28.217155,全职,1-3年,[]
409,3926442,C# 工程师,广州,2018-04-28 10:28:38,2.8,299723,隆积士信息科技,广州隆积士信息科技有限公司,少于15人,天河区,不限,不需要融资,"企业服务,数据服务",113.391664,23.128304,实习,应届毕业生,"['领导好', '美女多', '扁平管理', '交通方便']"
410,3710667,服务器开发.Net(C#)工程师,苏州,2018-05-02 10:32:35,14.0,274148,厉登自动化科技,厉登自动化科技（苏州）有限公司,15-50人,工业园区,大专,A轮,"移动互联网,硬件",120.663349,31.324025,全职,3-5年,"['年底双薪', '带薪年假', '午餐补助']"
411,4500924,C#高级软件工程师,武汉,2018-04-28 17:07:36,11.6,109054,纳思系统,武汉纳思系统技术有限公司,15-50人,武昌区,本科,A轮,移动互联网,114.348766,30.562396,全职,3-5年,"['绩效奖金', '午餐补助', '海内外旅游', '员工生日会']"
412,2855429,C# /.Net开发工程师,上海,2018-04-26 17:31:57,12.0,4680,上海移品信息技术有限公司,上海移品信息技术有限公司,50-150人,闵行区,本科,不需要融资,"移动互联网,企业服务",121.387303,31.163397,全职,1-3年,"['首席娱乐官', '5天探亲假', '带薪病假', '生日惊喜']"
413,3642298,C#/.net后端工程师,合肥,2018-04-08 13:28:10,10.8,248498,有空科技,有空科技（北京）有限公司,少于15人,包河区,不限,天使轮,"企业服务,数据服务",117.302733,31.823866,全职,3-5年,"['股票期权', '弹性工作', '扁平管理', '五险一金']"
414,2901219,C#开发工程师,珠海,2018-04-04 17:43:36,10.8,162900,IT,珠海万讯行信息科技有限公司,50-150人,香洲区,大专,未融资,"企业服务,其他",113.511663,22.169373,全职,1-3年,[]
415,4487062,C#开发工程师,北京,2018-04-26 14:17:35,12.0,35677,零度智控,零度智控（北京）智能科技有限公司,50-150人,海淀区,本科,C轮,硬件,115.99339,39.99426,全职,1-3年,"['技能培训', '年底分红', '岗位晋升', '年度旅游']"
416,2358037,.NET C#软件工程师,上海,2018-04-26 11:52:08,9.6,148045,皓为商务,上海皓为商务咨询有限公司,15-50人,虹口区,本科,天使轮,"移动互联网,医疗健康",121.481436,31.268495,全职,1-3年,[]
417,1118287,C#软件工程师,广州,2018-04-23 08:29:03,6.6,97455,哈图,广州哈图信息技术有限公司,少于15人,南沙区,不限,未融资,企业服务,113.54061,22.799155,全职,1-3年,"['带薪年假', '岗位晋升']"
418,4442349,.NET/C#软件工程师,上海,2018-04-18 14:50:42,12.0,74271,天泰网络,上海天泰网络技术有限公司,50-150人,浦东新区,本科,未融资,信息安全,0.0,0.0,全职,1-3年,"['技能培训', '节日礼物', '专项奖金', '带薪年假']"
419,4020575,NET/C#工程师,广州,2018-04-16 11:13:52,9.0,273962,广州众拓计算机科技有限公司,广州众拓计算机科技有限公司,15-50人,番禺区,不限,未融资,其他,113.384129,22.937244,全职,3-5年,"['年底双薪', '绩效奖金', '通讯津贴', '定期体检']"
420,4150836,C#开发工程师,苏州,2018-04-09 16:59:31,10.8,80117,中城泰信,中城泰信（苏州）科技发展股份有限公司,15-50人,工业园区,大专,不需要融资,"移动互联网,数据服务",0.0,0.0,全职,1-3年,"['节日礼物', '年底双薪', '带薪年假', '绩效奖金']"
421,2774945,C#开发工程师 NET程序员,深圳,2018-05-02 11:42:01,10.8,168792,深圳飞之度科技有限公司,深圳飞之度科技有限公司,15-50人,南山区,大专,未融资,"移动互联网,企业服务",113.956462,22.537911,全职,3-5年,"['年底双薪', '带薪年假', '定期体检']"
422,4382892,C# /C++软件开发工程师,北京,2018-04-28 11:49:11,14.0,94016,易精软件,北京易精软件有限公司,少于15人,大兴区,不限,不需要融资,"移动互联网,其他",116.328523,39.783302,全职,5-10年,"['带薪年假', '交通补助', '五险一金', '午餐补助']"
423,3764574,C#软件开发工程师（中级）,西安,2018-04-27 15:35:28,12.0,36760,Nova科技,西安诺瓦电子科技有限公司,500-2000人,高新技术产业开发区,本科,未融资,"硬件,数据服务",108.993463,33.994053,全职,3-5年,"['技能培训', '节日礼物', '绩效奖金', '岗位晋升']"
424,4100774,C#高级开发工程师,深圳,2018-04-25 15:21:00,14.0,320121,达昌基金,深圳达昌基金管理有限公司,50-150人,南山区,本科,不需要融资,金融,113.952901,22.540817,全职,3-5年,"['股票期权', '绩效奖金']"
425,3698087,c#工程师,北京,2018-04-04 05:52:24,8.4,262718,比目汇智,北京比目汇智仿真科技有限公司,少于15人,通州区,本科,未融资,企业服务,,,全职,1-3年,[]
426,3995356,C#/.NET中级程序员,重庆,2018-04-28 15:22:18,8.8,148336,天策行互动,北京天策行互动科技有限公司,50-150人,渝北区,大专,不需要融资,"企业服务,电子商务",106.498797,29.614311,全职,3-5年,"['年终分红', '带薪年假', '午餐补助', '五险一金']"
427,3905206,C#开发工程师,北京,2018-04-28 09:27:08,13.2,132778,妈咪助理科技,妈咪助理（北京）科技有限公司,50-150人,海淀区,本科,未融资,生活服务,116.309486,40.040545,全职,1-3年,"['午餐补助', '技能培训', '岗位晋升', '扁平管理']"
428,4472380,C#高级软件工程师,北京,2018-04-24 14:04:38,12.0,219744,众星智联,北京众星智联科技有限责任公司,15-50人,大兴区,大专,A轮,"其他,移动互联网",116.323017,39.787645,全职,3-5年,"['年底双薪', '股票期权', '带薪年假', '年终分红']"
429,4382771,C#/.net技术专家,上海,2018-04-10 15:02:11,21.0,185078,深兰科技,深兰科技（上海）有限公司,150-500人,黄浦区,本科,B轮,"硬件,移动互联网",121.417556,31.208,全职,5-10年,[]
430,4378234,c#程序员,深圳,2018-04-07 16:22:11,11.8,359953,天天数字科技（深圳）有限公司,天天数字科技（深圳）有限公司,50-150人,宝安区,不限,不需要融资,"移动互联网,电子商务",113.886115,22.547077,全职,1-3年,"['""""']"
431,4075749,C#客户端开发工程师,重庆,2018-04-30 09:10:53,12.0,85537,深圳市锐明技术股份有限公司,深圳市锐明技术股份有限公司,500-2000人,九龙坡区,本科,不需要融资,"数据服务,硬件",106.485496,29.530106,全职,3-5年,"['技能培训', '节日礼物', '专项奖金', '带薪年假']"
432,3429976,C#开发工程师,深圳,2018-04-03 10:02:43,4.8,100865,深圳声光行科技发展有限公司,深圳市盖娅光音动态网络有限公司,15-50人,南山区,本科,A轮,"移动互联网,医疗健康",113.917641,22.48715,全职,1-3年,"['带薪年假', '岗位晋升', '领导好', '五险一金']"
433,4368886,c#/asp.net高级软件工程师,广州,2018-04-29 09:57:13,13.2,358244,广东万平药业,广东万平药业有限公司,50-150人,海珠区,本科,未融资,"电子商务,医疗健康",113.276398,23.089458,全职,5-10年,"['""""']"
434,3133069,高级C#开发工程师,北京,2018-04-11 10:26:32,23.6,114755,六点整北斗,武汉六点整北斗科技有限公司,50-150人,海淀区,大专,不需要融资,移动互联网,116.308811,39.983578,全职,3-5年,"['通讯津贴', '交通补助', '弹性工作', '节日礼物']"
435,4139910,C#工程师,成都,2018-04-17 17:12:57,8.2,116592,第六镜Glasssix,陕西第六镜科技文化有限责任公司,15-50人,成华区,大专,不需要融资,"生活服务,硬件",104.104654,30.669861,全职,3-5年,"['节日礼物', '扁平管理', '绩效奖金', '专项奖金']"
436,4484644,C#软件工程师——常熟,苏州,2018-05-02 12:23:06,5.6,74673,上海埃帕无线通信科技有限公司,上海埃帕无线通信科技有限公司,150-500人,常熟市,大专,不需要融资,"移动互联网,教育",120.777891,31.593319,全职,1-3年,[]
437,4014136,.NET(C# web) 研发工程师,郑州,2018-05-02 11:17:04,9.6,28393,爱云校,北京修齐治平科技有限公司,500-2000人,二七区,本科,C轮,"教育,数据服务",0.0,0.0,全职,1-3年,"['技能培训', '节日礼物', '股票期权', '带薪年假']"
438,4492807,C#开发工程师 （工具开发方向）,中山,2018-05-02 08:48:45,8.6,28003,读书郎,中山市读书郎电子有限公司,500-2000人,中山市市辖区,本科,不需要融资,移动互联网,113.418298,22.488494,全职,不限,"['绩效奖金', '年底双薪', '五险一金', '通讯津贴']"
439,3758108,.NET/C#高级开发顾问,北京,2018-05-02 08:22:09,10.8,250467,龙创腾达,北京龙创腾达科技有限公司,15-50人,海淀区,本科,不需要融资,"企业服务,移动互联网",116.309929,40.02723,全职,3-5年,[]
440,3995347,C#/.NET高级程序员,重庆,2018-04-28 15:22:26,10.8,148336,天策行互动,北京天策行互动科技有限公司,50-150人,渝北区,大专,不需要融资,"企业服务,电子商务",106.498797,29.614311,全职,5-10年,"['年终分红', '带薪年假', '午餐补助', '五险一金']"
441,4078481,C#/.net中级开发工程师,西安,2018-04-27 09:40:37,8.4,108563,百利科技,西安百利信息科技有限公司,15-50人,高新技术产业开发区,本科,天使轮,"移动互联网,医疗健康",108.88647,34.185738,全职,3-5年,"['股票期权', '专项奖金', '年终分红', '绩效奖金']"
442,4480089,C#高级软件工程师,广州,2018-04-25 14:23:38,12.0,299629,学塾加 交通仿真,广州学塾加软件科技有限公司,少于15人,天河区,本科,未融资,其他,113.344418,23.171673,全职,3-5年,"['""""']"
443,4441567,C#高级开发工程师,东莞,2018-04-18 13:55:28,9.6,216302,东莞市天宇网络技术股份有限公司,东莞市天宇网络技术股份有限公司,50-150人,东莞市市辖区,大专,上市公司,电子商务,113.7479,23.018689,全职,1-3年,[]
444,3687374,资深Java/Python/C#/PHP开发,北京,2018-05-02 19:48:53,29.0,7000,FreeWheel,飞维美地信息技术（北京）有限公司,500-2000人,朝阳区,本科,上市公司,"企业服务,数据服务",116.471469,39.953193,全职,3-5年,"['技能培训', '绩效奖金', '岗位晋升', '领导好']"
445,4410461,C#/.net软件开发工程师,上海,2018-04-21 13:44:51,4.8,236643,意玛软件,上海意玛软件有限公司,少于15人,嘉定区,本科,未融资,"移动互联网,电子商务",121.258626,31.347716,全职,1年以下,"['带薪年假', '绩效奖金', '技能培训', '弹性工作']"
446,4395495,C#开发工程师,北京,2018-04-10 13:29:56,10.8,87833,北京童康医疗,北京童康医疗信息技术有限公司,50-150人,西城区,大专,未融资,"医疗健康,数据服务",116.35295,39.91265,全职,不限,"['节日礼物', '带薪年假', '绩效奖金', '管理规范']"
447,4368819,c#/asp.net软件工程师,广州,2018-04-29 09:57:13,11.2,358244,广东万平药业,广东万平药业有限公司,50-150人,海珠区,本科,未融资,"电子商务,医疗健康",113.276398,23.089458,全职,3-5年,"['""""']"
448,4043139,C#开发工程师,广州,2018-04-14 10:05:57,10.8,131311,台大喜,广州台大喜商贸有限公司,50-150人,天河区,本科,未融资,电子商务,113.411594,23.185295,全职,应届毕业生,[]
449,3685015,高级c#开发工程师,北京,2018-04-03 10:35:47,19.0,150030,北京瑞友,北京瑞友科技股份有限公司,2000人以上,海淀区,大专,上市公司,"移动互联网,电子商务",116.235102,40.068314,全职,5-10年,[]
450,2103400,C# .NET,北京,2018-05-02 11:19:20,10.8,794,神州智联,北京神州智联科技有限公司,50-150人,,本科,B轮,"移动互联网,教育",116.31503189,40.043567248,全职,1-3年,"['节日礼物', '年底双薪', '股票期权', '带薪年假']"
451,3937625,C#开发工程师,上海,2018-04-23 13:10:31,8.8,176195,上海铁公鸡网络,上海铁公鸡网络科技有限公司,15-50人,闸北区,大专,未融资,"O2O,移动互联网",121.465122,31.256506,全职,1-3年,[]
452,593875,C#开发工程师,武汉,2018-04-16 10:20:51,4.2,64683,光谷西铂,武汉光谷西铂科技有限公司,15-50人,东湖新技术开发区,大专,未融资,移动互联网,114.40646,30.479132,全职,1-3年,"['节日礼物', '带薪年假', '定期体检', '五险一金']"
453,874075,C#软件工程师,北京,2018-05-02 14:57:47,11.2,36577,蝶和科技（中国）有限公司,北京蝶和医疗科技有限公司,500-2000人,丰台区,本科,A轮,医疗健康,116.29557,39.82234,全职,1-3年,"['技能培训', '带薪年假', '绩效奖金', '岗位晋升']"
454,3496342,C#开发工程师,西安,2018-05-02 10:10:56,7.0,151509,泽瑞通信,西安泽瑞通信有限公司,15-50人,曲江新区,大专,不需要融资,"数据服务,移动互联网",108.963211,34.19055,全职,1-3年,[]
455,4503440,C#/.net开发工程师,杭州,2018-05-01 19:57:12,19.0,153405,美窝科技,杭州美窝科技有限公司,150-500人,拱墅区,大专,A轮,O2O,120.121858,30.308615,全职,3-5年,[]
456,4003788,C#高级工程师,深圳,2018-04-27 15:36:49,10.8,9149,新浪爱彩,深圳市中网彩网络技术有限公司,50-150人,南山区,本科,A轮,文化娱乐,113.932749,22.541047,全职,1-3年,"['节日礼物', '带薪年假', '彩金补贴', '绩效奖金']"
457,602588,C#资深研发工程师,青岛,2018-04-26 09:20:51,9.6,65117,淞菱科技,青岛淞菱科技有限公司,50-150人,市南区,本科,B轮,移动互联网,120.422196,36.093662,全职,3-5年,[]
458,4458131,C#的B/S和C/S软件开发,北京,2018-04-20 16:53:08,10.8,119292,希普,北京希普无忧教育科技有限公司,15-50人,海淀区,不限,不需要融资,"教育,信息安全",116.334031,39.984563,全职,1-3年,[]
459,4170131,C#开发工程师,西安,2018-04-11 17:11:29,8.0,23727,知网,同方知网（北京）技术有限公司,2000人以上,高新技术产业开发区,本科,上市公司,"移动互联网,电子商务",108.871238,34.190349,全职,1-3年,"['美女多多', '带薪年假', '绩效奖金', '岗位晋升']"
460,3991496,C#及asp.net-初级开发工程师,武汉,2018-04-04 09:08:23,7.0,307701,中冠,武汉中冠相合文化发展有限公司,15-50人,东湖新技术开发区,大专,不需要融资,"移动互联网,电子商务",114.430295,30.504874,全职,1-3年,[]
461,2146218,C#中级开发工程师,广州,2018-04-25 17:28:17,9.6,140492,华奕科技,广州市华奕电子科技有限公司,50-150人,番禺区,大专,未融资,"医疗健康,移动互联网",112.993461,22.994261,全职,1-3年,[]
462,4394019,C# 、NET开发工程师 （高级）,广州,2018-04-10 10:48:28,10.2,344594,和弘信息科技,广州和弘信息科技有限公司,15-50人,天河区,大专,不需要融资,"移动互联网,企业服务",113.376698,23.135007,全职,3-5年,"['""""']"
463,3942214,.NET/C# 软件工程师,武汉,2018-04-09 10:54:26,10.8,286153,武汉锦美,武汉锦美电子商务有限公司,15-50人,洪山区,不限,不需要融资,电子商务,0.0,0.0,全职,3-5年,[]
464,4505781,C#工程师,上海,2018-05-02 13:37:29,14.0,308776,博复科技,上海博复信息科技有限公司,15-50人,奉贤区,本科,不需要融资,"信息安全,数据服务",121.477693,30.960869,全职,1-3年,[]
465,4394019,C# 、NET开发工程师 （高级）,广州,2018-04-10 10:48:28,10.2,344594,和弘信息科技,广州和弘信息科技有限公司,15-50人,天河区,大专,不需要融资,"移动互联网,企业服务",113.376698,23.135007,全职,3-5年,"['""""']"
466,3942214,.NET/C# 软件工程师,武汉,2018-04-09 10:54:26,10.8,286153,武汉锦美,武汉锦美电子商务有限公司,15-50人,洪山区,不限,不需要融资,电子商务,0.0,0.0,全职,3-5年,[]
467,4505781,C#工程师,上海,2018-05-02 13:37:29,14.0,308776,博复科技,上海博复信息科技有限公司,15-50人,奉贤区,本科,不需要融资,"信息安全,数据服务",121.477693,30.960869,全职,1-3年,[]
468,3197674,C#/.NET开发工程师（上海）,上海,2018-05-02 08:40:06,17.0,24748,平安科技,平安科技（深圳）有限公司,2000人以上,浦东新区,本科,不需要融资,金融,121.671079,31.23917,全职,不限,"['节日礼物', '年度旅游', '岗位晋升', '技能培训']"
469,493674,C#/.NET开发工程师,北京,2018-04-24 11:23:38,10.8,6006,CAXA,北京数码大方科技股份有限公司,500-2000人,海淀区,本科,上市公司,"移动互联网,数据服务",116.237855,40.074871,全职,1-3年,"['绩效奖金', '带薪年假', '交通补助', '弹性工作']"
470,313327,C#开发,北京,2018-04-29 21:10:07,15.2,40760,农机通网,北京科讯农通科技有限责任公司,15-50人,通州区,本科,未融资,"电子商务,分类信息",116.65667173,39.90702344,全职,3-5年,"['节日礼物', '年底双薪', '带薪年假', '氛围简单欢乐']"
471,4181573,c#开发工程师,南京,2018-04-13 13:26:36,12.0,34396,千目信息科技,南京千目信息科技有限公司,15-50人,玄武区,大专,未融资,"移动互联网,O2O",118.78506,32.08773,全职,1年以下,"['技能培训', '带薪年假', '绩效奖金', '岗位晋升']"
472,4337920,高级C#开发工程师,北京,2018-04-13 18:28:50,19.0,58971,AGMTrade聚米投投,北京安高盟科技服务有限公司,50-150人,大兴区,本科,不需要融资,金融,116.504871,39.799133,全职,5-10年,"['定期体检', '团队气氛优良', '技能培训', '五险一金']"
473,3393654,.net/c#工程师,北京,2018-04-11 12:07:59,6.8,9273,乐生活网,北京晨业信息技术有限公司,50-150人,东城区,不限,未融资,电子商务,116.434806,39.91197,全职,不限,"['绩效奖金', '带薪年假', '午餐补助', '岗位晋升']"
474,4110091,c#开发工程师,深圳,2018-05-02 10:22:24,11.2,41967,DOCOM,深圳市道控技术有限公司,150-500人,宝安区,大专,未融资,"旅游,移动互联网",113.837629,22.606653,全职,不限,"['年底双薪', '节日礼物', '带薪年假', '绩效奖金']"
475,4428200,C/C#软件工程师,深圳,2018-04-16 16:27:02,9.4,366916,深圳科信源,深圳市科信源投资有限公司,15-50人,福田区,本科,未融资,"移动互联网,电子商务",114.069613,22.530379,全职,1-3年,"['""""']"
476,519085,C# .NET开发工程师,南京,2018-04-16 11:10:34,8.4,58657,奥派,南京奥派信息产业股份公司,50-150人,鼓楼区,本科,上市公司,"移动互联网,教育",,,全职,3-5年,"['技能培训', '年底双薪', '节日礼物', '绩效奖金']"
477,4419580,C#开发工程师,深圳,2018-04-13 17:05:17,19.0,24650,华微明天,广州华微明天软件技术有限公司,150-500人,龙岗区,本科,A轮,"移动互联网,企业服务",114.061024,22.633343,全职,3-5年,"['技能培训', '节日礼物', '年底双薪', '带薪年假']"
478,2912086,C#高级开发工程师,北京,2018-04-11 10:26:33,19.0,114755,六点整北斗,武汉六点整北斗科技有限公司,50-150人,海淀区,大专,不需要融资,移动互联网,116.308811,39.983578,全职,3-5年,"['通讯津贴', '交通补助', '弹性工作', '节日礼物']"
479,4245307,C#开发工程师,杭州,2018-05-02 14:35:42,13.2,146072,络町网络,杭州络町网络技术有限公司,50-150人,滨江区,本科,A轮,"金融,移动互联网",120.167887,30.193444,全职,1-3年,[]
480,4498386,C#服务端开发工程师,上海,2018-04-28 11:43:14,19.0,169809,小闲在线,重庆小闲在线科技有限公司上海分公司,150-500人,闵行区,本科,未融资,"游戏,移动互联网",121.509762,31.097295,全职,1-3年,"['通讯津贴', '带薪年假', '交通补助', '年底双薪']"
481,2682692,.Net C# Asp.net 软件开发工程师,天津,2018-04-27 09:30:18,9.6,163713,科瑞泰医疗,科瑞泰医疗信息技术（天津）有限公司,15-50人,南开区,大专,未融资,移动互联网,117.176778,39.122414,全职,3-5年,[]
482,4384294,C#/.NET开发工程师J10182,北京,2018-04-23 11:28:26,14.0,12557,百分点,北京百分点信息科技有限公司,500-2000人,朝阳区,本科,D轮及以上,数据服务,116.388093,40.000288,全职,3-5年,"['节日礼物', '定期体检', '通讯津贴', '五险一金']"
483,3342233,C# /. NET 开发工程师,深圳,2018-04-28 19:10:10,11.2,17229,惠群数据,深圳市惠群商业数据技术有限公司,15-50人,南山区,大专,天使轮,"移动互联网,社交网络",113.949987,22.550613,全职,不限,"['技能培训', '专项奖金', '带薪年假', '绩效奖金']"
484,4278807,C#开发工程师,北京,2018-04-27 15:08:45,21.0,343924,比特威风,北京并集科技有限公司,15-50人,海淀区,本科,天使轮,"移动互联网,金融",116.336737,39.991985,全职,不限,"['""""']"
485,3131760,C#开发工程师,北京,2018-04-26 17:23:02,10.8,23172,海天瑞声,北京海天瑞声科技有限公司三河市燕郊分公司,50-150人,海淀区,本科,未融资,企业服务,116.339203,39.991926,全职,1-3年,"['年终分红', '绩效奖金', '五险一金', '带薪年假']"
486,2651321,C#软件开发工程师,西安,2018-04-23 10:07:22,6.6,159033,合科软件,西安合科软件有限公司,15-50人,高新技术产业开发区,本科,未融资,其他,108.903693,34.233435,全职,1-3年,"['年底双薪', '带薪年假', '弹性工作', '节日礼物']"
487,4316054,C#开发工程师,成都,2018-04-22 21:09:02,8.6,348840,四星科技,成都四星科技有限公司,15-50人,金牛区,大专,未融资,"信息安全,数据服务",104.028619,30.690719,全职,1-3年,"['""""']"
488,3061042,C#/.NET开发工程师,上海,2018-04-18 12:04:26,12.0,29129,jomard,上海精仪达电子科技有限公司,50-150人,普陀区,大专,未融资,硬件,121.36951,31.23082,全职,3-5年,"['技能培训', '节日礼物', '带薪年假', '绩效奖金']"
489,2932591,asp.net C# 开发工程师,厦门,2018-04-09 18:45:12,10.8,169819,雨果网,厦门从众互动文化传播有限公司,50-150人,思明区,本科,天使轮,"移动互联网,广告营销",118.197029,24.485971,全职,3-5年,['绩效奖金']
490,4353229,C#研发工程师,北京,2018-04-09 10:28:47,12.0,42288,高视信息,北京高视医疗信息技术有限公司,15-50人,海淀区,不限,不需要融资,医疗健康,116.378523,39.970773,全职,3-5年,"['节日礼物', '带薪年假', '绩效奖金', '管理规范']"
491,4403386,高级ASP.NET(C#)开发工程师,深圳,2018-05-02 10:13:38,15.8,23071,深圳市麦谷科技有限公司,深圳市麦谷科技有限公司,50-150人,南山区,本科,A轮,"移动互联网,数据服务",113.93084,22.541784,全职,3-5年,"['绩效奖金', '年底双薪', '带薪年假', '年度旅游']"
492,4148817,ASP.NET/C#软件工程师,上海,2018-04-28 14:53:08,12.0,52757,knowyou,诺优信息技术（上海）有限公司,50-150人,徐汇区,本科,未融资,"移动互联网,硬件",121.40781,31.17278,全职,1-3年,"['技能培训', '带薪年假', '绩效奖金', '岗位晋升']"
493,3798217,Java/Ruby/C# 应用软件开发工程师,西安,2018-04-26 16:41:06,12.6,67300,ThoughtWorks,思特沃克软件技术（成都）有限公司,2000人以上,高新技术产业开发区,不限,不需要融资,企业服务,108.841747,34.207933,全职,不限,"['技能培训', '节日礼物', '带薪年假', '全球化视野']"
494,4362053,高级c#工程师,北京,2018-05-02 13:47:31,17.8,24733,微网通联,北京微网通联股份有限公司,150-500人,海淀区,本科,不需要融资,"移动互联网,广告营销",116.283,40.046743,全职,3-5年,"['五险一金', '带薪年假', '股票期权', '节日礼物']"
495,4375014,C#高级开发工程师,杭州,2018-04-25 11:27:50,21.0,33573,wifisong,杭州微飞胜科技有限公司,15-50人,西湖区,本科,天使轮,"数据服务,分类信息",120.114392,30.285168,全职,3-5年,"['岗位晋升', '领导好', '午餐补助', '氛围好']"
496,4146512,c#工程师,北京,2018-04-10 07:50:39,7.6,60312,掌智在线,掌智在线科技(北京)有限公司,15-50人,顺义区,大专,未融资,"移动互联网,金融",116.551998,40.080162,全职,1-3年,"['技能培训', '年底双薪', '岗位晋升', '定期体检']"
497,3009863,C++/C# Developer,杭州,2018-05-02 20:34:23,13.2,72753,美国道富,道富信息科技浙江有限公司,2000人以上,西湖区,本科,上市公司,金融,120.11646,30.28979,全职,不限,"['年底双薪', '节日礼物', '岗位晋升', '管理规范']"
498,4244622,C#开发工程师,成都,2018-04-23 00:08:30,8.6,224387,通联富祥,成都通联富祥网络科技有限公司,15-50人,金牛区,大专,不需要融资,"信息安全,数据服务",104.028619,30.690719,全职,1-3年,[]
499,1164157,C# .Net软件工程师,昆明,2018-04-16 14:35:22,7.6,100418,蜂巢网络,贵安新区蜂巢网络科技有限公司,50-150人,官渡区,大专,天使轮,"移动互联网,O2O",102.725821,25.026179,全职,1-3年,"['技能培训', '节日礼物', '股票期权', '带薪年假']"
500,3891920,C#/.NET中级开发工程师,西安,2018-04-10 18:10:05,8.4,144685,西拓电气,西安西拓电气股份有限公司,50-150人,高新技术产业开发区,本科,上市公司,其他,108.83192,34.212156,全职,3-5年,[]
501,4386604,C#中初级工程师,北京,2018-04-09 10:43:26,10.8,37593,芯联达,芯联达科技（北京）有限公司,50-150人,海淀区,本科,B轮,医疗健康,116.299549,40.044767,全职,1-3年,"['节日礼物', '管理规范', '领导好', '五险一金']"
502,3396038,C# 开发工程师,南京,2018-04-04 11:51:31,14.0,43949,金智教育,江苏金智教育信息股份有限公司,500-2000人,江宁区,大专,上市公司,移动互联网,118.789531,31.900259,全职,5-10年,"['技能培训', '节日礼物', '岗位晋升', '五险一金']"
503,4058418,C# / .Net 高级研发工程师,成都,2018-05-02 11:44:42,21.0,293978,译讯信息科技,四川译讯信息科技有限公司,15-50人,高新区,本科,天使轮,企业服务、生活服务,104.03158,30.60398,全职,5-10年,"['绩效奖金', '带薪年假', '年度旅游', '领导好']"
504,4278204,C#开发实施工程师,深圳,2018-05-02 10:09:46,7.6,127219,纷享科技,深圳市纷享科技有限公司,50-150人,南山区,大专,未融资,"信息安全,移动互联网",113.993578,22.99368,全职,1-3年,"['年底双薪', '领导好', '弹性工作', '技能培训']"
505,4353841,C#开发工程师,成都,2018-04-08 10:38:13,4.8,149089,智客迅,成都智客迅科技有限公司,15-50人,高新区,大专,未融资,移动互联网,104.065693,30.53301,全职,1年以下,[]
506,4344059,C#开发工程师,杭州,2018-05-03 09:25:13,14.0,56928,昵图网,杭州昵图信息技术有限公司,50-150人,余杭区,本科,不需要融资,电子商务,119.991654,30.381789,全职,1-3年,"['绩效奖金', '年度旅游', '管理规范', '带薪年假']"
507,4394112,高级C#开发工程师,无锡,2018-04-10 10:55:02,11.0,362146,KIT,无锡科尤艾信息科技有限公司,50-150人,滨湖区,大专,未融资,移动互联网、电子商务,120.125886,31.496278,全职,3-5年,"['""""']"
508,1426880,C#工程师/研发/程序员,合肥,2018-04-08 14:41:14,12.0,53855,合肥火车头,合肥乐维信息技术有限公司,15-50人,蜀山区,不限,不需要融资,"移动互联网,数据服务",117.15173,31.865592,全职,1-3年,"['年底双薪', '节日礼物', '技能培训', '绩效奖金']"
509,4483955,C#工程师LY1,北京,2018-05-02 11:44:05,15.8,166774,励云科技,励云科技（北京）有限公司,50-150人,大兴区,大专,不需要融资,"移动互联网,数据服务",116.514318,39.788139,全职,3-5年,"['带薪年假', '通讯津贴', '美女多', '领导好']"
510,2646316,C#后台开发工程师,苏州,2018-05-03 09:13:02,7.0,161491,EOULU,苏州伊欧陆系统集成有限公司,50-150人,工业园区,本科,未融资,"硬件,企业服务",120.730646,31.257293,全职,不限,[]
511,3612586,.net C# 软件工程师,青岛,2018-04-16 11:38:31,7.0,261758,佳软信息,青岛佳软信息技术有限公司,15-50人,崂山区,大专,不需要融资,"移动互联网,信息安全",120.502296,36.172749,全职,不限,[]
512,2024999,"C# 程序员,开发工程师",广州,2018-04-10 15:20:04,5.6,135654,长远软件,广州市长远软件开发有限公司,15-50人,,不限,未融资,其他,113.30208118,23.15478565,全职,不限,"['绩效奖金', '午餐补助', '带薪年假', '定期体检']"
513,4402039,.net/C#工程师（中高级）-房地产项目,长沙,2018-04-27 16:29:28,11.2,180465,郑州菏怀,郑州菏怀软件科技有限公司,150-500人,岳麓区,大专,未融资,"企业服务,电子商务",112.952513,28.227802,全职,3-5年,[]
514,4134954,.NET/C#初级开发工程师,广州,2018-04-27 15:43:16,7.0,35648,港讯网络,广州港讯网络技术有限公司,15-50人,萝岗区,大专,未融资,"电子商务,企业服务",113.432407,23.162064,全职,不限,"['绩效奖金', '年度旅游', '扁平管理', '五险一金']"
515,2320527,.net/c#,深圳,2018-04-27 13:53:54,12.0,42428,中国好东西,深圳市解放路网络科技有限公司,50-150人,南山区,本科,B轮,电子商务,113.95309,22.533463,全职,3-5年,"['节日礼物', '股票期权', '瑜伽', '带薪年假']"
516,4099525,高级C#工程师-WPF方向,北京,2018-04-20 15:27:05,26.0,263620,卓邻科技,北京合志可成科技有限公司,150-500人,海淀区,本科,不需要融资,"移动互联网,电子商务",116.29021,39.907523,全职,3-5年,[]
517,3775323,C#语言开发,合肥,2018-04-19 09:38:07,5.6,126112,和安科技,安徽和安科技股份有限公司,50-150人,高新区,大专,不需要融资,医疗健康,117.197821,31.825339,全职,1-3年,[]
518,4327243,C#开发工程师,北京,2018-04-03 14:15:30,15.2,90910,嘉芸汇,北京嘉芸汇科技股份有限公司,50-150人,朝阳区,本科,上市公司,移动互联网,116.432923,39.955117,全职,3-5年,"['技能培训', '节日礼物', '绩效奖金', '领导好']"
519,3017331,c#网站开发工程师,天津,2018-05-01 22:07:27,12.0,149654,名诚雅仕,天津名诚雅仕科技有限公司,少于15人,南开区,本科,天使轮,"社交网络,企业服务",117.123184,39.096762,全职,1-3年,"['专项奖金', '绩效奖金', '通讯津贴', '交通补助']"
520,4477712,C#工程师,成都,2018-04-25 10:25:46,8.4,371998,成都云鼎丝路,成都云鼎丝路信息技术有限公司,15-50人,武侯区,本科,不需要融资,硬件,104.068338,30.533767,全职,1-3年,"['""""']"
521,4388094,.Net（C#）,深圳,2018-04-19 15:42:07,17.0,291665,ABSZ,德硕管理咨询（深圳）有限公司,50-150人,福田区,本科,不需要融资,企业服务 数据服务,0.0,0.0,全职,5-10年,"['交通补助', '带薪年假', '定期体检', '管理规范']"
522,3689825,资深C#开发工程师,北京,2018-05-02 19:48:54,27.0,7000,FreeWheel,飞维美地信息技术（北京）有限公司,500-2000人,朝阳区,本科,上市公司,"企业服务,数据服务",116.471469,39.953193,全职,3-5年,"['技能培训', '绩效奖金', '岗位晋升', '领导好']"
523,4466750,高薪诚聘+C#开发工程师（工作地点济南）,济南,2018-04-23 16:26:34,9.0,113939,北信工,北京南天信息工程有限公司,500-2000人,历城区,本科,上市公司,其他,117.302269,36.689044,全职,3-5年,[]
524,3991443,C#及asp.net-中级开发工程师,武汉,2018-04-04 09:08:22,14.0,307701,中冠,武汉中冠相合文化发展有限公司,15-50人,东湖新技术开发区,大专,不需要融资,"移动互联网,电子商务",114.430295,30.504874,全职,1-3年,[]
525,4378712,.NET开发工程师/C#开发/APP开发,长沙,2018-05-02 09:34:20,8.4,155381,天演维真,浙江天演维真网络科技有限公司,50-150人,岳麓区,大专,A轮,其他,112.914375,28.211458,全职,1-3年,[]
526,4438625,C#软件工程师,珠海,2018-04-26 09:05:35,12.6,53357,珠海优特科技,珠海优特电力科技股份有限公司,500-2000人,香洲区,本科,不需要融资,其他,113.55946,22.27794,全职,3-5年,"['技能培训', '年底双薪', '专项奖金', '带薪年假']"
527,2447553,C#软件开发工程师（校园）,北京,2018-04-24 11:23:37,10.0,6006,CAXA,北京数码大方科技股份有限公司,500-2000人,海淀区,硕士,上市公司,"移动互联网,数据服务",116.23785462,40.07487083,全职,应届毕业生,"['绩效奖金', '带薪年假', '交通补助', '弹性工作']"
528,4421701,C#开发工程师,西安,2018-04-14 12:23:54,6.8,365780,添翼金融,添翼金融信息服务有限公司,少于15人,曲江新区,不限,不需要融资,"企业服务,金融",109.014813,34.209409,全职,1-3年,"['绩效奖金', '带薪年假', '领导好', '五险一金']"
529,3419586,C#,成都,2018-05-02 10:00:30,11.2,122086,中建电商,中建电子商务有限责任公司,150-500人,高新区,大专,不需要融资,"移动互联网,电子商务",104.062752,30.538362,全职,3-5年,"['绩效奖金', '带薪年假', '交通补助', '午餐补助']"
530,2951558,C#研发,深圳,2018-05-02 10:53:10,12.0,185201,中联创新,深圳市中联创新自控系统有限公司,150-500人,龙岗区,本科,未融资,移动互联网,0.0,0.0,全职,1-3年,[]
531,2240213,C#,上海,2018-05-02 10:28:48,14.0,144065,微科数据,上海微科数据科技有限公司,15-50人,徐汇区,本科,不需要融资,"金融,数据服务",121.44471,31.195352,全职,3-5年,"['专项奖金', '扁平管理', '领导好', '技能培训']"
532,4225800,C#高级工程师,深圳,2018-04-27 15:36:49,10.8,9149,新浪爱彩,深圳市中网彩网络技术有限公司,50-150人,南山区,本科,A轮,文化娱乐,0.0,0.0,全职,1-3年,"['节日礼物', '带薪年假', '彩金补贴', '绩效奖金']"
533,3406341,c#开发工程师,北京,2018-04-26 11:08:38,7.6,44596,富盛科技,富盛科技股份有限公司,500-2000人,丰台区,本科,不需要融资,"信息安全,数据服务",116.289345,39.821232,全职,1年以下,"['年底双薪', '年终分红', '绩效奖金', '交通补助']"
534,4181626,.Net 软件工程师（C#）,杭州,2018-04-12 13:41:18,7.0,135726,杭州云策,杭州云策网络技术有限公司,15-50人,西湖区,大专,未融资,移动互联网,120.10982,30.26722,全职,1-3年,"['带薪年假', '交通补助', '午餐补助', '周末双休']"
535,4243581,C#开发,北京,2018-04-11 17:11:33,14.0,54232,人大金仓,北京人大金仓信息技术股份有限公司,150-500人,朝阳区,本科,不需要融资,数据服务,116.472836,40.022893,全职,1-3年,"['技能培训', '节日礼物', '带薪年假', '绩效奖金']"
536,4376486,C#工程师（自动化工具）,上海,2018-05-02 17:42:00,13.6,44833,恒生聚源,上海恒生聚源数据服务有限公司,150-500人,浦东新区,本科,A轮,"金融,数据服务",121.53233,31.21656,全职,1-3年,"['定期体检', '五险一金', '午餐补助', '股票期权']"
537,4361231,C#开发工程师,北京,2018-05-02 13:45:20,10.8,357497,中瑞智,北京中瑞智科技有限公司,15-50人,海淀区,本科,不需要融资,"移动互联网,数据服务",116.339021,39.991503,全职,不限,"['绩效奖金', '带薪年假', '午餐补助', '定期体检']"
538,4410617,C#开发工程师,北京,2018-04-27 09:43:38,14.0,18607,成众志,北京成众志科技有限公司,15-50人,海淀区,本科,A轮,移动互联网,116.299394,40.044745,全职,3-5年,"['年底双薪', '带薪年假', '年度旅游', '岗位晋升']"
539,4490737,c# /.net开发工程师,杭州,2018-04-26 21:59:45,11.2,374090,嗡嗡科技,杭州嗡嗡科技有限公司,少于15人,西湖区,大专,天使轮,不限,120.095041,30.309,全职,1-3年,"['""""']"
540,3788781,C# Developer,上海,2018-04-26 11:06:41,14.0,282289,医科达,医科达（上海）医疗器械有限公司,500-2000人,浦东新区,本科,上市公司,医疗健康,121.5325,31.224138,全职,不限,"['年底双薪', '绩效奖金', '带薪年假', '午餐补助']"
541,2506807,C#开发实习生,杭州,2018-05-02 10:40:41,3.4,112414,恒生长运,浙江恒生长运网络科技有限公司,50-150人,滨江区,本科,B轮,"移动互联网,O2O",120.17566001,30.18501011,实习,不限,"['年底双薪', '股票期权', '绩效奖金', '专项奖金']"
542,4479744,c#工程师,天津,2018-05-02 10:25:33,9.0,306283,Tesco,天津开发区乐购生活购物有限公司,500-2000人,南开区,大专,上市公司,移动互联网,117.210016,39.097894,全职,1-3年,"['""""']"
543,4395512,.net(c#）开发工程师,北京,2018-04-10 13:32:24,10.8,87833,北京童康医疗,北京童康医疗信息技术有限公司,50-150人,西城区,大专,未融资,"医疗健康,数据服务",116.35295,39.91265,全职,不限,"['节日礼物', '带薪年假', '绩效奖金', '管理规范']"
544,3856659,C#开发工程师,深圳,2018-05-02 14:39:52,14.4,14617,深圳市敏思达信息技术有限公司,深圳市敏思达技术有限公司,150-500人,南山区,大专,不需要融资,移动互联网,113.952429,22.537847,全职,3-5年,"['节日礼物', '年底双薪', '带薪年假', '年度旅游']"
545,4352181,.NET/C#初级开发工程师,上海,2018-04-19 10:04:48,7.6,333969,八商山,八商山（上海）智能科技有限公司,少于15人,杨浦区,大专,天使轮,"企业服务,旅游",121.532786,31.267339,全职,1-3年,"['""""']"
546,4417380,C#工程师 赛象科技直招,天津,2018-04-13 13:48:34,8.8,113826,对钩网,天津逸云动力网络科技有限公司,15-50人,西青区,不限,未融资,"移动互联网,电子商务",117.103796,39.083469,全职,3-5年,"['午餐补助', '带薪年假', '交通补助', '节日礼物']"
547,4466933,C# / .Net 开发工程师,成都,2018-05-02 11:44:41,14.0,293978,译讯信息科技,四川译讯信息科技有限公司,15-50人,高新区,不限,天使轮,企业服务、生活服务,104.03158,30.60398,全职,5-10年,"['绩效奖金', '带薪年假', '年度旅游', '领导好']"
548,3656987,C#/.NET开发工程师,成都,2018-05-02 09:57:13,14.0,235197,皓图智能,成都皓图智能科技有限责任公司,15-50人,成华区,本科,A轮,"其他,移动互联网",104.10839,30.67449,全职,不限,"['年底双薪', '午餐补助', '绩效奖金', '带薪年假']"
549,3711530,c#/asp.net高级工程师,上海,2018-04-27 09:57:51,12.0,82307,瀚医,上海瀚医智能科技有限公司,15-50人,闸北区,大专,未融资,"电子商务,医疗健康",121.448027,31.294832,全职,1-3年,"['节日礼物', '年底双薪', '带薪年假', '绩效奖金']"
550,3497077,高级.Net C#工程师,北京,2018-04-26 12:14:53,15.2,101676,金色世纪,北京金色世纪商旅网络科技股份有限公司,500-2000人,大兴区,本科,不需要融资,"电子商务,旅游",116.524999,39.777538,全职,3-5年,"['年底双薪', '专项奖金', '带薪年假', '节日礼物']"
551,4471078,c#开发,北京,2018-04-24 11:22:55,12.4,147344,云起融通,北京云起融通科技有限公司,50-150人,海淀区,本科,不需要融资,"移动互联网,数据服务",116.338479,39.97522,全职,1-3年,[]
552,884366,C# 高级开发工程师,济南,2018-04-08 20:17:25,14.0,82977,恩源,北京恩源科技有限公司,500-2000人,历下区,本科,不需要融资,"电子商务,企业服务",117.12393001,36.65214966,全职,3-5年,"['年底双薪', '带薪年假', '岗位晋升', '扁平管理']"
553,4396356,C#开发工程师,深圳,2018-05-02 10:09:48,14.0,78101,极致软件,北京极致智慧科技有限公司,150-500人,南山区,大专,未融资,"移动互联网,企业服务",113.947804,22.53451,全职,5-10年,"['节日礼物', '带薪年假', '绩效奖金', '年度旅游']"
554,4273693,c#软件开发工程师,深圳,2018-04-27 09:51:44,14.0,106390,跨越速运,跨越速运集团有限公司,2000人以上,宝安区,大专,不需要融资,其他,113.780717,22.68044,全职,1-3年,"['节日礼物', '免费班车', '带薪年假', '绩效奖金']"
555,4213718,C#,上海,2018-04-25 11:21:46,21.0,318981,BTCC,上海掘东信息技术有限公司,50-150人,徐汇区,本科,不需要融资,移动互联网,121.443222,31.178889,全职,不限,"['股票期权', '带薪年假', '定期体检', '节日礼物']"
556,1167984,C# .Net 高级软件工程师,无锡,2018-04-25 11:09:12,12.0,100409,泛亚,泛亚信息技术江苏有限公司,500-2000人,北塘区,不限,不需要融资,"移动互联网,电子商务",120.29727221,31.6130144,全职,5-10年,"['节日礼物', '免费班车', '带薪年假', '年度旅游']"
557,4442589,高级.net(C#)研发工程师,北京,2018-05-02 09:52:37,16.4,366621,英迪致远,北京英迪致远科技有限责任公司,15-50人,朝阳区,大专,不需要融资,信息安全 数据服务,116.468598,40.00224,全职,5-10年,"['""""']"
558,968687,C#网站开发,广州,2018-04-27 15:43:16,9.8,35648,港讯网络,广州港讯网络技术有限公司,15-50人,萝岗区,大专,未融资,"电子商务,企业服务",113.432407,23.162064,全职,不限,"['绩效奖金', '年度旅游', '扁平管理', '五险一金']"
559,2897702,C#研发工程师,成都,2018-04-25 09:23:49,8.4,179046,亿盟恒信,成都亿盟恒信科技有限公司,50-150人,高新区,本科,A轮,"移动互联网,电子商务",104.071589,30.539977,全职,1-3年,"['绩效奖金', '带薪年假', '弹性工作', '技能培训']"
560,2784635,C#工程师,杭州,2018-05-02 16:34:39,12.0,129648,易促科技,上海易促网络技术有限公司,50-150人,西湖区,不限,不需要融资,电子商务,120.096937,30.293957,全职,不限,[]
561,798633,.net/C#开发工程师,武汉,2018-05-02 14:51:02,5.8,30885,纬创软件,纬创软件（北京）有限公司武汉分公司,2000人以上,东湖新技术开发区,本科,上市公司,企业服务,114.42109415,30.45604559,全职,1-3年,"['技能培训', '节日礼物', '岗位晋升', '年度旅游']"
562,3370151,C#/VC软件工程师,上海,2018-04-19 17:03:07,7.6,231652,诣阔软件,上海诣阔软件有限公司,50-150人,浦东新区,本科,未融资,硬件,121.610472,31.254194,全职,1-3年,[]
563,3450276,C#开发工程师,成都,2018-05-02 10:28:46,9.6,109109,物联亿达,四川物联亿达科技有限公司,50-150人,武侯区,本科,未融资,"电子商务,企业服务",104.063603,30.589229,全职,1-3年,"['绩效奖金', '带薪年假', '通讯津贴', '节日礼物']"
564,3108203,.NET/C#开发工程师,深圳,2018-05-02 10:22:25,11.2,41967,DOCOM,深圳市道控技术有限公司,150-500人,宝安区,大专,未融资,"旅游,移动互联网",113.837629,22.606653,全职,1-3年,"['年底双薪', '节日礼物', '带薪年假', '绩效奖金']"
565,4445425,C#开发工程师,厦门,2018-04-27 14:20:54,7.6,232955,厦门众库科技有限公司,厦门众库科技有限公司,50-150人,思明区,不限,未融资,"数据服务,生活服务",118.082658,24.445567,全职,不限,[]
566,4411049,C#/.NET开发工程师,北京,2018-05-03 09:07:12,18.6,189022,微创,上海微创软件股份有限公司北京分公司,2000人以上,朝阳区,本科,上市公司,"移动互联网,电子商务",116.458337,39.956388,全职,5-10年,"['年底双薪', '绩效奖金', '免费班车', '节日礼物']"
567,4219045,C#软件开发工程师,广州,2018-05-02 10:48:01,10.8,114369,名通科技,深圳市名通科技股份有限公司,150-500人,天河区,本科,不需要融资,移动互联网,0.0,0.0,全职,不限,"['13-15薪', '领导好', '岗位晋升', '带薪年假']"
568,2853319,.NET（C#）开发工程师,杭州,2018-05-03 09:08:55,12.0,104450,中宝科技,杭州中宝科技有限公司,50-150人,西湖区,本科,不需要融资,其他,120.078646,30.290994,全职,1-3年,"['节日礼物', '年度旅游', '扁平管理', '定期体检']"
569,3279832,C#开发工程师,北京,2018-05-02 15:18:21,8.4,59610,汇法网,北京汇法正信科技有限公司,150-500人,朝阳区,大专,A轮,"电子商务,金融",0.0,0.0,全职,1-3年,"['技能培训', '专项奖金', '股票期权', '绩效奖金']"
570,4160484,C#软件开发工程师,成都,2018-05-02 10:22:31,15.2,328064,北京世纪德辰,北京世纪德辰通信技术有限公司,150-500人,高新区,本科,未融资,"硬件,其他",104.066282,30.544961,全职,5-10年,"['""""']"
571,4225763,C#/.NET全栈工程师,上海,2018-05-02 14:08:23,19.0,166867,震旦云,震旦云（上海）科技有限公司,15-50人,浦东新区,本科,不需要融资,"企业服务,O2O",0.0,0.0,全职,5-10年,"['领导好', '管理规范', '五险一金', '岗位晋升']"
572,4020843,C#开发工程师,上海,2018-05-02 09:25:50,15.8,113865,云辰,上海云辰信息科技有限公司,150-500人,普陀区,大专,未融资,"信息安全,数据服务",0.0,0.0,全职,3-5年,[]
573,3162973,c#开发工程师,杭州,2018-05-02 09:18:12,12.0,46016,AE Mobile 杭州手游工作室,杭州勤路软件有限公司,50-150人,西湖区,本科,不需要融资,游戏,120.14628,30.27913,全职,1-3年,"['专项奖金', '绩效奖金', '岗位晋升', '管理规范']"
574,3670756,C#开发工程师,绵阳,2018-05-02 08:57:55,8.4,268885,四川红地,四川省红地科技有限责任公司,15-50人,涪城区,本科,未融资,"移动互联网,数据服务",104.695908,31.492202,全职,不限,"['带薪年假', '绩效奖金', '领导好', '技能培训']"
575,4387867,C#/.NET工程师,上海,2018-04-09 12:40:18,9.8,360632,矽甲科技,矽甲（上海）信息科技有限公司,15-50人,嘉定区,大专,未融资,"移动互联网,企业服务",121.235087,31.389555,全职,1-3年,"['""""']"
576,3473295,C#高级开发工程师-银行软件,上海,2018-04-23 11:22:28,8.4,243497,译会科技,上海译会信息科技有限公司,50-150人,普陀区,本科,天使轮,"金融,移动互联网",121.36925,31.229707,全职,1-3年,"['午餐补助', '带薪年假', '绩效奖金', '定期体检']"
577,4306048,C#开发工程师,杭州,2018-05-02 08:59:07,11.2,81958,威灿,杭州威灿科技有限公司,50-150人,滨江区,大专,不需要融资,"数据服务,硬件",120.225946,30.208737,全职,3-5年,"['年底双薪', '岗位晋升', '扁平管理', '领导好']"
578,1697668,C#开发工程师,宁波,2018-05-02 14:01:29,9.8,124150,宁波一网信息技术有限公司,宁波一网信息技术有限公司,50-150人,江东区,本科,不需要融资,"数据服务,医疗健康",121.62850105,29.87509054,全职,不限,"['年底双薪', '绩效奖金', '带薪年假', '定期体检']"
579,1618019,C#高级软件开发工程师,深圳,2018-04-17 14:09:32,14.0,120668,前海拾车道,深圳市前海拾车道信息技术有限公司,15-50人,南山区,本科,未融资,"电子商务,其他",113.94757045,22.54995028,全职,3-5年,"['年底双薪', '带薪年假', '绩效奖金', '专项奖金']"
580,4086193,中高级C#开发工程师（后端开发）,北京,2018-05-02 11:33:52,12.0,267922,中交汇智,北京中交汇智数据有限公司,15-50人,朝阳区,本科,不需要融资,"企业服务,数据服务",116.490457,39.979663,全职,3-5年,[]
581,4010543,c#软件开发工程师,杭州,2018-05-02 12:01:24,10.8,309510,微智兆,杭州微智兆智能科技有限公司,50-150人,拱墅区,大专,不需要融资,"数据服务,硬件",120.102534,30.338407,全职,1-3年,"['""""']"
582,4447493,c#开发实习生,北京,2018-04-26 11:08:21,3.4,44596,富盛科技,富盛科技股份有限公司,500-2000人,丰台区,本科,不需要融资,"信息安全,数据服务",116.291638,39.824661,实习,1年以下,"['年底双薪', '年终分红', '绩效奖金', '交通补助']"
583,3608036,".Net,C#,ASP.net工程师",深圳,2018-05-02 21:30:18,7.6,65843,赛尔姆信息科技,深圳赛尔姆信息科技有限公司,少于15人,福田区,大专,未融资,"移动互联网,企业服务",114.067239,22.547158,全职,1-3年,"['技能培训', '节日礼物', '年底双薪', '带薪年假']"
584,3060778,C#工程师,深圳,2018-05-02 09:58:28,14.0,33627,乐易网络,深圳市乐易网络股份有限公司,150-500人,南山区,本科,A轮,"移动互联网,游戏",113.94604,22.533413,全职,1-3年,"['技术大牛', '高逼格环境', '两次年度旅游', '福利倍儿好']"
585,3940951,C#高级开发工程师-银行软件,上海,2018-04-23 11:22:29,8.4,243497,译会科技,上海译会信息科技有限公司,50-150人,普陀区,本科,天使轮,"金融,移动互联网",121.36925,31.229707,全职,1-3年,"['午餐补助', '带薪年假', '绩效奖金', '定期体检']"
586,2799596,C#软件开发工程师,深圳,2018-04-09 11:11:08,19.6,164,平安证券,平安证券股份有限公司,2000人以上,福田区,本科,上市公司,金融,114.063599,22.548153,全职,3-5年,"['技能培训', '年度旅游', '岗位晋升', '管理规范']"
587,1165363,C#开发工程师,深圳,2018-04-24 09:40:50,8.4,94212,助宝科技,深圳市助宝科技服务有限公司,15-50人,罗湖区,本科,天使轮,"电子商务,企业服务",114.12686,22.57642,全职,1-3年,"['股票期权', '扁平管理', '五险一金', '弹性工作']"
588,3966206,c#/.NET开发工程师,西安,2018-04-20 10:58:08,9.8,195930,西安泰晟,西安泰晟信息科技有限公司,50-150人,沣渭新区,本科,未融资,移动互联网,108.877966,34.22833,全职,应届毕业生,[]
589,4228086,C#/.NET开发工程师,广州,2018-05-02 11:31:00,11.2,876,酷有拿货网,广州市衣酷网络技术有限公司,50-150人,荔湾区,本科,A轮,"电子商务,O2O",113.222922,23.119879,全职,1-3年,"['年底双薪', '节日礼物', '带薪年假', '绩效奖金']"
590,4443069,c#工程师,成都,2018-05-02 09:43:49,10.8,66454,天翼网络,四川天翼网络服务有限公司,150-500人,高新区,本科,不需要融资,"移动互联网,文化娱乐",104.0393,30.62126,全职,3-5年,"['技能培训', '专项奖金', '带薪年假', '绩效奖金']"
591,891362,C#软件工程师,北京,2018-05-02 09:18:14,14.0,63045,同方知网数字出版技术股份有限公司,同方知网数字出版技术股份有限公司,2000人以上,海淀区,本科,不需要融资,教育,116.35571411,40.0481569,全职,1-3年,"['节日礼物', '免费班车', '绩效奖金', '扁平管理']"
592,4451262,C#软件开发工程师,上海,2018-04-19 16:28:27,14.0,155583,SMEE,上海微电子装备(集团)股份有限公司,500-2000人,浦东新区,本科,不需要融资,硬件,121.633777,31.215134,全职,3-5年,"['绩效奖金', '带薪年假', '交通补助', '午餐补助']"
593,3222709,.net/c#/asp.net开发工程师,深圳,2018-05-02 11:36:44,10.8,116412,深圳优苗健康科技,深圳市优苗健康科技有限公司,15-50人,南山区,大专,天使轮,"移动互联网,医疗健康",113.942581,22.535628,全职,3-5年,"['股票期权', '专项奖金', '带薪年假', '交通补助']"
594,4320830,C#、.NET高级软件工程师（精诚至开）,上海,2018-05-02 09:51:42,12.0,63078,上海汇鲲,上海汇鲲信息科技有限公司,50-150人,徐汇区,本科,不需要融资,"移动互联网,电子商务",121.436743,31.185865,全职,3-5年,"['带薪年假', '年度旅游', '领导好', '定期体检']"
595,4222135,asp.net程序员(c#),北京,2018-04-23 14:20:07,8.2,101865,万法通,万法通（北京）法律咨询有限公司,15-50人,朝阳区,大专,不需要融资,"企业服务,教育",116.441321,39.91011,全职,1-3年,"['技能培训', '专项奖金', '带薪年假', '绩效奖金']"
596,4150320,C#工程师,上海,2018-04-08 13:36:27,9.6,116056,软杰智能,上海软杰智能设备有限公司,15-50人,徐汇区,大专,不需要融资,"其他,硬件",121.441034,31.154774,全职,3-5年,[]
597,4429956,PC端(C#)开发工程师(深圳),深圳,2018-05-02 08:40:06,21.0,24748,平安科技,平安科技（深圳）有限公司,2000人以上,福田区,本科,不需要融资,金融,113.993578,22.99368,全职,不限,"['节日礼物', '年度旅游', '岗位晋升', '技能培训']"
598,4294492,C#软件工程师,成都,2018-04-24 16:48:50,6.2,282135,科曼信息,深圳市科曼信息技术股份有限公司成都分公司,50-150人,武侯区,本科,上市公司,"信息安全,其他",104.05525,30.586756,全职,1-3年,[]
599,4424304,美兰湖C#软件开发工程师/实习生,上海,2018-04-16 10:26:32,7.0,131304,为杰科技,上海为杰信息科技有限公司,少于15人,宝山区,不限,未融资,移动互联网,121.351859,31.402313,全职,不限,[]
600,1654620,C#,深圳,2018-04-26 15:56:55,9.6,85781,金政软件,深圳市金政软件技术有限公司,150-500人,福田区,大专,未融资,"移动互联网,企业服务",,,全职,1-3年,"['年底双薪', '专项奖金', '带薪年假', '绩效奖金']"
601,4388124,.Net（C#）Developer,深圳,2018-05-02 11:35:27,8.4,291665,ABSZ,德硕管理咨询（深圳）有限公司,50-150人,福田区,本科,不需要融资,企业服务 数据服务,0.0,0.0,全职,1-3年,"['交通补助', '带薪年假', '定期体检', '管理规范']"
602,3760161,C#后端开发工程师,广州,2018-04-11 19:00:38,8.4,210575,超越通信,广州超越通信科技有限公司,50-150人,天河区,本科,未融资,"移动互联网,其他",113.356589,23.134919,全职,1-3年,[]
603,2079312,C#软件工程师,大连,2018-04-12 12:56:12,8.4,44262,恒锐科技,大连恒锐科技股份有限公司,150-500人,,本科,上市公司,数据服务,121.51217355,38.85565178,全职,不限,"['年底双薪', '股票期权', '节日礼物', '五险一金']"
604,4458135,C#软件工程师,深圳,2018-04-27 09:34:15,14.4,326716,神州云海,深圳市神州云海智能科技有限公司,150-500人,龙岗区,本科,未融资,"硬件,其他",114.247447,22.731822,全职,3-5年,"['""""']"
605,4448833,C#工程师,上海,2018-04-19 12:21:43,7.6,31843,潘多网络,上海潘多网络科技有限公司,15-50人,闸北区,大专,A轮,"游戏,硬件",121.467208,31.26662,全职,1-3年,"['股票期权', '专项奖金', '带薪年假', '年度旅游']"
606,4230826,.net/c#开发工程师（1年以上经验）,深圳,2018-04-26 09:23:48,10.8,255039,云智汇科技服务,云智汇（武汉）科技服务有限公司,500-2000人,龙岗区,大专,上市公司,数据服务,0.0,0.0,全职,不限,"['年底双薪', '绩效奖金', '带薪年假', '定期体检']"
607,4450926,C#/.NET,深圳,2018-04-24 10:11:21,17.8,44875,印孚瑟斯,印孚瑟斯技术（中国）有限公司,2000人以上,南山区,大专,上市公司,移动互联网,113.948649,22.531182,全职,5-10年,"['节日礼物', '技能培训', '免费班车', '岗位晋升']"
608,4428120,C#软件工程师,深圳,2018-04-24 09:23:21,14.0,158770,赋安,深圳市赋安安全系统有限公司,500-2000人,南山区,大专,不需要融资,"硬件,其他",113.951336,22.538602,全职,1-3年,"['年底双薪', '带薪年假', '通讯津贴', '定期体检']"
609,2351497,C#（.net）实习生,北京,2018-04-28 15:41:29,4.4,125704,Autotask,北京奥德达斯软件有限公司,50-150人,海淀区,本科,不需要融资,移动互联网,0.0,0.0,实习,不限,[]
610,4456074,c#软件工程师,成都,2018-04-28 15:41:28,9.0,331788,希德瑞光,成都希德瑞光科技有限公司,15-50人,高新区,本科,不需要融资,其他,104.038277,30.625218,全职,1-3年,"['年底双薪', '带薪年假', '弹性工作', '技能培训']"
611,1614452,C#研发工程师,武汉,2018-04-27 08:40:05,9.0,33217,华信数据,武汉华信数据系统有限公司,50-150人,洪山区,本科,未融资,"企业服务,数据服务",114.42379992,30.5039796,全职,3-5年,"['技能培训', '节日礼物', '年底双薪', '岗位晋升']"
612,4438432,c# Web开发工程师,成都,2018-04-17 22:43:43,10.2,175196,四方瑞通,成都四方瑞通软件有限公司,少于15人,武侯区,大专,不需要融资,"企业服务,移动互联网",0.0,0.0,全职,1-3年,[]
613,3895120,Java/C#/ UI 初级工程师（英文流利）,广州,2018-05-02 17:02:38,10.8,50241,Symbio-Freeborders,信必优(深圳)信息技术有限公司,2000人以上,天河区,本科,未融资,"移动互联网,电子商务",113.332464,23.134217,全职,不限,"['节日礼物', '年底双薪', '带薪年假', '年度旅游']"
614,3797557,.net / C# 高级开发工程师,深圳,2018-04-28 19:10:21,18.2,17229,惠群数据,深圳市惠群商业数据技术有限公司,15-50人,南山区,大专,天使轮,"移动互联网,社交网络",113.949987,22.550613,全职,5-10年,"['技能培训', '专项奖金', '带薪年假', '绩效奖金']"
615,3069920,高级.net（C#)开发工程师,长沙,2018-04-27 10:51:44,9.6,190985,中航信息,长沙中航信息技术有限公司,50-150人,岳麓区,大专,不需要融资,"移动互联网,数据服务",112.883535,28.20787,全职,5-10年,"['带薪年假', '专项奖金', '交通补助', '午餐补助']"
616,4435543,C#开发工程师,广州,2018-04-23 18:05:12,9.8,289055,中海达定位,广州中海达定位技术有限公司,500-2000人,番禺区,本科,上市公司,"信息安全,数据服务",113.370059,22.968126,全职,1-3年,"['专项奖金', '带薪年假', '年终分红', '专线接送']"
617,4167571,C#开发实习生,北京,2018-04-23 09:05:09,2.8,20309,奥伯特,北京奥伯特石油科技有限公司,50-150人,海淀区,本科,不需要融资,移动互联网,115.99339,39.99426,实习,应届毕业生,"['节日礼物', '年度旅游', '岗位晋升', '通讯津贴']"
618,2687589,C#资深后端开发工程师,深圳,2018-04-30 18:48:41,15.0,41144,17TRACK全球物流查询平台,深圳市帝盟网络科技有限公司,15-50人,南山区,大专,A轮,"移动互联网,电子商务",113.932925,22.541408,全职,5-10年,"['年底双薪', '专项奖金', '带薪年假', '绩效奖金']"
619,4491472,c#开发工程师,深圳,2018-04-27 10:04:36,8.8,134278,橙色魔方,深圳前海橙色魔方信息技术有限公司,150-500人,南山区,本科,未融资,"金融,数据服务",113.943551,22.548179,全职,1-3年,[]
620,4451832,Java/C# 开发工程师（19届实习）,天津,2018-04-19 17:11:20,2.4,142626,CLPS,上海华钦信息科技股份有限公司,500-2000人,南开区,本科,未融资,"数据服务,金融",117.725107,39.041819,实习,应届毕业生,"['专项奖金', '带薪年假', '定期体检', '交通补助']"
621,3985594,C#开发工程师,上海,2018-04-23 13:06:57,8.8,39315,思果网络,上海思果网络科技有限公司,少于15人,静安区,大专,不需要融资,"移动互联网,社交网络",121.46516,31.256485,全职,1-3年,"['带薪年假', '绩效奖金', '年度旅游', '扁平管理']"
622,3216037,C#软件工程师,深圳,2018-04-16 17:37:34,16.8,109014,妙智科技（深圳）,妙智科技（深圳）有限公司,15-50人,南山区,大专,B轮,医疗健康,113.94908,22.54084999,全职,1-3年,[]
623,4457073,C#开发工程师,上海,2018-04-20 15:12:59,19.0,63016,药研社,上海妙一生物科技有限公司,15-50人,闵行区,不限,A轮,"移动互联网,O2O",121.360823,31.130043,全职,3-5年,"['带薪年假', '岗位晋升', '领导好', '五险一金']"
624,3338152,C#软件工程师,深圳,2018-04-23 10:32:34,11.2,123275,雄帝科技,深圳市雄帝科技股份有限公司,500-2000人,光明新区,本科,不需要融资,"信息安全,硬件",113.925133,22.758557,全职,1-3年,[]
625,4424028,net(C#)网站程序开发工程师,上海,2018-04-16 10:00:41,7.2,334985,上海尚隽,上海尚隽网络科技有限公司,15-50人,杨浦区,大专,未融资,移动互联网 企业服务,121.519254,31.298486,全职,1年以下,"['""""']"
626,3243641,C#工程师,深圳,2018-04-16 13:56:24,10.8,156952,京柏医疗,深圳京柏医疗科技股份有限公司,500-2000人,宝安区,本科,B轮,移动互联网,113.91388,22.577068,全职,1-3年,"['带薪年假', '周末双休', '员工旅游', '股票期权']"
627,3497257,.Net C#开发,北京,2018-04-26 12:14:57,10.8,101676,金色世纪,北京金色世纪商旅网络科技股份有限公司,500-2000人,大兴区,不限,不需要融资,"电子商务,旅游",116.524999,39.777538,全职,1-3年,"['年底双薪', '专项奖金', '带薪年假', '节日礼物']"
628,4430637,C# 后台开发,成都,2018-04-17 01:40:35,4.8,170878,人人众合（成都分公司,北京人人众合科技有限公司,50-150人,高新区,本科,未融资,"移动互联网,企业服务",104.068443,30.534381,全职,3-5年,[]
629,4383330,C#/.Net软件工程师（工作地点：武汉）,武汉,2018-04-25 16:09:56,6.6,360763,维思安,深圳市维思安科技发展有限公司,15-50人,江汉区,大专,未融资,"医疗健康,数据服务",114.268695,30.610074,全职,1-3年,"['""""']"
630,4269926,C#工程师,合肥,2018-04-25 16:04:47,10.8,328164,中科智链,安徽中科智链信息科技有限公司,15-50人,庐阳区,大专,未融资,"移动互联网,硬件",117.273938,31.9239,全职,不限,"['""""']"
631,3618016,高薪寻找 兼职C#软件开发工程师,上海,2018-04-17 17:27:56,7.0,178038,上海沃杰软件,上海沃杰软件有限公司,15-50人,闵行区,大专,不需要融资,"移动互联网,数据服务",121.419817,31.06232,兼职,3-5年,[]
632,3707994,.NET/C#开发工程师,武汉,2018-04-26 09:23:48,8.4,255039,云智汇科技服务,云智汇（武汉）科技服务有限公司,500-2000人,东湖新技术开发区,本科,上市公司,数据服务,114.424058,30.463068,全职,1-3年,"['年底双薪', '绩效奖金', '带薪年假', '定期体检']"
