,职位编码,职位名称,所在城市,发布日期,薪资待遇(k),公司编码,公司名称,公司全称,公司规模,所在区域,最低学历,融资状态,公司类型,经度,纬度,全职/实习,工作经验
0,4128071,node.js开发,上海,2018-04-28 13:23:43,16.8,1738,有鱼金融科技,上海彩亿信息技术有限公司,500-2000人,徐汇区,本科,B轮,"移动互联网,金融",121.404254,31.164469,全职,3-5年
1,4401330,Node.js开发工程师,杭州,2018-04-28 09:37:42,21.0,8169,点我达,点我达网络科技有限公司,500-2000人,下城区,不限,D轮及以上,O2O,120.16619,30.315801,全职,3-5年
2,3938926,Node.js研发工程师,北京,2018-04-28 15:08:30,21.0,587,伙伴网,伙伴聚力（北京）科技有限公司,50-150人,海淀区,本科,A轮,企业服务,116.30932105,40.03650509,全职,3-5年
3,4075205,Node.js开发工程师,北京,2018-04-29 13:33:31,17.0,40898,玩心游戏,玩心（上海）网络科技有限公司,50-150人,朝阳区,本科,A轮,"移动互联网,游戏",116.467542,39.994632,全职,3-5年
4,3920526,Node.js工程师,广州,2018-04-30 12:52:33,11.2,22450,MAKA,深圳格莱珉文化传播有限公司广州分公司,50-150人,海珠区,本科,A轮,"企业服务,移动互联网",113.32377,23.09642,全职,1-3年
5,946389,Node.js开发工程师,深圳,2018-04-28 14:17:15,14.0,15737,友好速搭,亿众骏达网络科技（深圳）有限公司,50-150人,南山区,不限,A轮,"企业服务,电子商务",113.94167,22.554075,全职,1-3年
6,4207131,Node.js,上海,2018-04-28 09:14:16,17.0,51396,上业科技,上海上业信息科技股份有限公司,150-500人,闵行区,大专,未融资,"移动互联网,教育",121.521661,31.079885,全职,3-5年
7,4495393,node.js开发工程师,上海,2018-04-27 17:10:10,19.0,15257,美味不用等,美味不用等（上海）信息科技股份有限公司,500-2000人,浦东新区,本科,C轮,"移动互联网,O2O",121.582533,31.203457,全职,1-3年
8,4022223,Node.js开发工程师,上海,2018-04-28 14:33:51,17.8,231013,赏赏科技,上海赏赏科技有限公司,少于15人,静安区,本科,不需要融资,"金融,分类信息",121.442947,31.279272,全职,3-5年
9,3482557,Node.js开发工程师,上海,2018-04-28 15:14:41,24.8,56746,贝米钱包,上海贝涛金融信息服务有限公司,50-150人,徐汇区,本科,A轮,金融,121.446889,31.204067,全职,3-5年
10,4349849,Node.js 工程师,北京,2018-04-27 15:56:35,21.0,59792,况客科技,况客科技(北京)有限公司,15-50人,朝阳区,本科,A轮,金融,116.44103,39.92734,全职,1-3年
11,968476,Node.js 工程师,哈尔滨,2018-04-26 16:59:16,8.4,88240,星核软件,北京星核软件有限公司,少于15人,南岗区,不限,不需要融资,"企业服务,移动互联网",126.68901117,45.75177789,全职,1-3年
12,4164875,Node.js开发工程师,上海,2018-04-28 11:43:04,10.8,42715,电竞虎,上海快屏网络科技有限公司,50-150人,浦东新区,大专,不需要融资,"移动互联网,广告营销",0.0,0.0,全职,1-3年
13,3405960,Node.js工程师,上海,2018-04-27 10:45:53,24.8,14229,微盟,上海萌店信息科技有限公司,2000人以上,宝山区,本科,D轮及以上,"移动互联网,电子商务",121.496277,31.349371,全职,3-5年
14,3389828,Node.js,北京,2018-04-29 11:18:40,28.0,5706,洋葱数学,光合新知（北京）科技有限公司,150-500人,朝阳区,大专,C轮,"移动互联网,教育",116.500139,39.991999,全职,3-5年
15,4128098,Node.js,上海,2018-04-28 13:23:51,22.8,1738,有鱼金融科技,上海彩亿信息技术有限公司,500-2000人,徐汇区,本科,B轮,"移动互联网,金融",121.404254,31.164469,全职,3-5年
16,2895460,Node.js工程师,杭州,2018-04-28 09:37:41,21.0,8169,点我达,点我达网络科技有限公司,500-2000人,下城区,不限,D轮及以上,O2O,120.16579198,30.31569396,全职,3-5年
17,3944391,node.js开发,北京,2018-04-27 10:01:50,19.0,255,多贝网,北京多贝兄弟信息技术有限公司,50-150人,海淀区,本科,上市公司,教育,115.99339,39.99426,全职,1-3年
18,4478817,Node.js工程师,北京,2018-04-27 09:38:26,21.0,100652,梦哆啦,北京梦哆啦网络科技有限公司,50-150人,西城区,本科,A轮,"移动互联网,金融",116.35276,39.94141,全职,1-3年
19,3194514,Node.js开发,上海,2018-04-28 16:08:08,19.0,144037,眸事网,上海脉豪商务信息咨询有限公司,150-500人,虹口区,大专,天使轮,"移动互联网,企业服务",120.993464,30.994061,全职,1-3年
20,4354464,Node.js工程师,北京,2018-04-26 14:27:58,28.0,145061,HOLLA Group,达摩英时（北京）网络科技有限公司,15-50人,海淀区,不限,A轮,"移动互联网,社交网络",116.308891,39.980691,全职,3-5年
21,3958820,Node.js研发工程师,北京,2018-04-28 09:39:19,22.0,29789,众享比特,北京众享比特科技有限公司,15-50人,朝阳区,本科,B轮,移动互联网,116.488304,39.971387,全职,3-5年
22,4203028,node.js,厦门,2018-04-28 09:57:43,10.8,221200,玩美,厦门玩美网络科技有限公司,15-50人,思明区,大专,未融资,"游戏,移动互联网",118.193405,24.492305,全职,1-3年
23,2333261,Node.js工程师,北京,2018-04-27 10:14:45,22.8,93302,佳格天地,北京佳格天地科技有限公司,50-150人,海淀区,本科,A轮,"移动互联网,数据服务",116.302304,39.986014,全职,3-5年
24,2486202,Node.js开发工程师,武汉,2018-04-20 10:12:17,12.0,146945,智领云,武汉智领云科技有限公司,15-50人,东湖新技术开发区,本科,天使轮,"数据服务,移动互联网",114.406353,30.454493,全职,3-5年
25,3916697,Node.js工程师,上海,2018-04-28 13:24:24,21.0,211613,ARKie,上海阿几网络技术有限公司,50-150人,黄浦区,本科,A轮,"移动互联网,企业服务",121.484443,31.231763,全职,1-3年
26,4011807,node.js开发工程师,成都,2018-04-28 14:53:56,10.8,267147,游技网络,成都游技网络科技有限公司,50-150人,双流区,大专,不需要融资,"移动互联网,企业服务",104.069204,30.546203,全职,1-3年
27,3223231,Node.js工程师,北京,2018-04-27 17:52:38,22.0,203384,樱桃,山东丽波电子科技有限公司,15-50人,朝阳区,本科,B轮,电子商务,116.492782,39.973929,全职,1-3年
28,3945645,node.js开发,深圳,2018-04-28 17:16:23,14.0,128998,江苏亿科达,上海海万信息科技股份有限公司,500-2000人,福田区,大专,不需要融资,"移动互联网,金融",114.06017,22.548627,全职,3-5年
29,3873198,Node.js开发工程师,北京,2018-04-27 15:36:05,21.0,79922,OKCoin,北京乐酷达网络科技有限公司,150-500人,海淀区,本科,B轮,"移动互联网,金融",116.310529,40.040752,全职,3-5年
30,4134479,node.js开发工程师,上海,2018-04-28 13:23:51,28.0,1738,有鱼金融科技,上海彩亿信息技术有限公司,500-2000人,徐汇区,本科,B轮,"移动互联网,金融",121.404254,31.164469,全职,5-10年
31,3964532,Node.JS开发工程师,杭州,2018-04-28 10:04:02,9.6,148986,首格网络,上海首格网络科技有限公司,50-150人,西湖区,大专,A轮,"移动互联网,医疗健康",120.140604,30.286446,全职,1-3年
32,4018195,Node.js工程师,北京,2018-04-27 11:15:43,18.2,28393,爱云校,北京修齐治平科技有限公司,500-2000人,朝阳区,本科,C轮,"教育,数据服务",116.481459,39.99646,全职,3-5年
33,4020333,Node.js工程师,北京,2018-04-25 21:22:39,21.0,168606,LEANIOT,北京华夏亨元科技有限公司,50-150人,朝阳区,本科,不需要融资,"企业服务,数据服务",0.0,0.0,全职,3-5年
34,4455386,node.js,上海,2018-04-20 11:36:30,28.0,315385,语酷网络,上海语酷网络科技有限公司,15-50人,静安区,不限,不需要融资,"社交网络,企业服务",121.438506,31.221671,全职,3-5年
35,4062633,Node.js开发工程师,深圳,2018-04-28 12:06:21,10.8,122335,丹尼尔惠灵顿,丹尼尔惠灵顿贸易（深圳）有限公司,150-500人,南山区,不限,不需要融资,电子商务,113.943689,22.524666,全职,1-3年
36,4424114,Node.JS开发,北京,2018-04-26 11:25:51,24.8,4286,竞技世界,竞技世界（北京）网络技术有限公司,500-2000人,海淀区,本科,不需要融资,"移动互联网,游戏",116.312136,40.037381,全职,5-10年
37,4311035,Node.js开发工程师,北京,2018-04-24 20:15:33,19.0,311775,主线科技,北京主线科技有限公司,15-50人,海淀区,本科,天使轮,"移动互联网,硬件",116.335867,39.998785,全职,1-3年
38,3294109,Node.js开发工程师,杭州,2018-04-28 10:13:49,24.0,45337,大东车慧,深圳市大东车慧科技股份有限公司,50-150人,滨江区,本科,A轮,"移动互联网,数据服务",0.0,0.0,全职,1-3年
39,521238,Node.js开发工程师,北京,2018-04-28 09:15:05,25.2,1121,智课网,北京创新伙伴教育科技有限公司,500-2000人,海淀区,本科,B轮,"移动互联网,教育",116.335068,39.953962,全职,不限
40,4117777,Node.js开发工程师,广州,2018-04-27 20:53:22,16.8,296449,星汉科技,星汉（广州）科技有限公司,50-150人,海珠区,本科,天使轮,"移动互联网,游戏",113.368263,23.096482,全职,1-3年
41,4425004,Node.JS,上海,2018-04-28 13:38:32,10.8,69152,博奥特科技,深圳市博奥特科技有限公司,150-500人,徐汇区,本科,未融资,"移动互联网,金融",121.405181,31.165478,全职,1-3年
42,4250449,Node.js开发工程师（北京）,北京,2018-04-28 17:10:02,28.0,30816,蜻蜓FM,上海倾听信息技术有限公司,150-500人,朝阳区,本科,D轮及以上,移动互联网,116.454812,39.920432,全职,3-5年
43,4086932,Node.js开发工程师,北京,2018-04-28 10:54:01,21.0,8414,一点资讯,一点网聚科技有限公司,500-2000人,朝阳区,本科,D轮及以上,移动互联网,116.490835,40.00522,全职,1-3年
44,3909093,Node.js工程师,上海,2018-04-18 20:55:42,10.8,114592,上海怡新,上海怡新信息技术有限公司,15-50人,长宁区,本科,未融资,"移动互联网,数据服务",121.43245,31.20869,全职,1-3年
45,4134521,node.js【徐汇】,上海,2018-04-28 17:50:26,19.0,1738,有鱼金融科技,上海彩亿信息技术有限公司,500-2000人,徐汇区,本科,B轮,"移动互联网,金融",121.40437233,31.16440487,全职,3-5年
46,2597754,Node.Js开发工程师,上海,2018-04-29 17:28:48,15.2,112005,搜股,搜股（北京）科技有限公司,50-150人,静安区,本科,A轮,"金融,移动互联网",,,全职,不限
47,1305076,Node.js,广州,2018-04-28 19:08:01,11.2,68910,健康猫,广州大象健康科技有限公司,500-2000人,天河区,大专,A轮,移动互联网,113.41715564,23.17342944,全职,3-5年
48,3164084,Node.js工程师,北京,2018-04-28 09:17:57,24.0,72150,容联七陌,北京容联七陌科技有限公司,150-500人,朝阳区,本科,D轮及以上,移动互联网,116.374839,40.009367,全职,1-3年
49,2504580,Node.js开发,北京,2018-04-27 11:15:42,29.0,28393,爱云校,北京修齐治平科技有限公司,500-2000人,朝阳区,本科,C轮,"教育,数据服务",116.47971721,39.99502389,全职,3-5年
50,2463564,Node.js研发工程师,上海,2018-04-28 10:33:45,12.6,33278,弘连网络,上海弘连网络科技有限公司,50-150人,,本科,未融资,数据服务,,,全职,1-3年
51,4327276,Node.js开发工程师,上海,2018-04-23 12:57:38,15.8,55405,店达信息,上海店达信息技术有限公司,500-2000人,浦东新区,本科,B轮,"电子商务,O2O",121.584877,31.193497,全职,1-3年
52,3959677,Node.js 工程师,北京,2018-04-28 11:14:21,14.0,255,多贝网,北京多贝兄弟信息技术有限公司,50-150人,海淀区,本科,上市公司,教育,116.308114,39.978669,全职,1-3年
53,4109421,node.js开发工程师,北京,2018-04-28 10:54:02,14.0,8414,一点资讯,一点网聚科技有限公司,500-2000人,朝阳区,本科,D轮及以上,移动互联网,116.490835,40.00522,全职,1-3年
54,3514103,Node.js开发,深圳,2018-04-27 09:50:53,19.0,36862,Micro Cube,深圳迈科创新科技有限公司,50-150人,福田区,本科,不需要融资,"移动互联网,广告营销",114.030746,22.533428,全职,3-5年
55,4352099,node.js 工程师,深圳,2018-04-28 12:04:02,22.4,124262,Minieye,深圳佑驾创新科技有限公司,50-150人,南山区,本科,A轮,"硬件,其他",113.952408,22.536121,全职,1-3年
56,4090016,Node.js研发工程师,北京,2018-04-25 17:59:37,15.2,4582,趣玩网,乐趣家（北京）信息技术有限公司,150-500人,昌平区,本科,D轮及以上,"移动互联网,电子商务",115.99339,39.99426,全职,3-5年
57,4323005,Node.js开发工程师,北京,2018-04-11 14:59:17,19.0,26041,黑螺,北京黑螺技术有限公司,15-50人,海淀区,本科,天使轮,"移动互联网,数据服务",116.303028,40.054877,全职,3-5年
58,3295244,Node.js开发工程师,北京,2018-04-24 12:15:39,14.0,93376,火舞游戏,北京火舞科技有限公司,15-50人,朝阳区,大专,不需要融资,游戏,116.514226,39.905452,全职,1-3年
59,2549909,Node.js,武汉,2018-04-18 10:03:42,18.2,13153,优品财富管理有限公司,优品财富管理有限公司,500-2000人,江夏区,本科,未融资,金融,114.421523,30.456991,全职,不限
60,4412675,Node.js,深圳,2018-04-27 09:50:53,14.6,36862,Micro Cube,深圳迈科创新科技有限公司,50-150人,福田区,大专,不需要融资,"移动互联网,广告营销",114.030746,22.533428,全职,1-3年
61,4005990,Node.js 开发工程师,成都,2018-04-25 17:34:58,9.4,21748,Dreamix,智慕时代科技（成都）有限公司,50-150人,武侯区,本科,B轮,移动互联网,104.056731,30.586036,全职,1-3年
62,4458916,Node.js 开发工程师,北京,2018-04-28 11:09:06,14.0,220422,数码通科技,北京数码通科技有限公司,50-150人,朝阳区,本科,不需要融资,"移动互联网,企业服务",116.492874,39.973926,全职,1-3年
63,1259090,Node.js开发,广州,2018-04-28 15:55:47,9.8,34420,图普科技（深度学习图像识别云）,广州图普网络科技有限公司,50-150人,天河区,本科,A轮,"移动互联网,数据服务",113.373119,23.123226,全职,1-3年
64,4095883,node.js工程师,广州,2018-04-27 18:32:46,13.2,41883,太湖云计算,江苏太湖云计算信息技术股份有限公司,150-500人,天河区,大专,上市公司,电子商务,0.0,0.0,全职,1-3年
65,2729488,node.js,杭州,2018-04-22 13:48:44,14.0,166067,暄暄科技,北京暄暄科技有限公司,50-150人,西湖区,本科,A轮,"企业服务,教育",120.13775,30.27575,全职,1-3年
66,4080422,Node.js工程师,北京,2018-04-28 16:10:19,12.0,29013,尚层装饰,尚层装饰（北京）有限公司,2000人以上,朝阳区,大专,D轮及以上,生活服务,115.99339,39.99426,全职,3-5年
67,2844640,node.js开发工程师,杭州,2018-04-26 17:27:04,17.8,142528,数澜科技,杭州数澜科技有限公司,150-500人,余杭区,本科,A轮,"企业服务,数据服务",119.993921,29.993843,全职,1-3年
68,2724310,Node.js开发工程师&nbsp;,广州,2018-04-26 11:20:33,19.0,166288,悄悄科技,广州市悄悄科技有限公司,50-150人,天河区,本科,不需要融资,"移动互联网,社交网络",113.327016,23.119985,全职,3-5年
69,4230300,Node.js 开发工程师,成都,2018-04-19 11:17:49,14.0,196165,校精灵,成都校精灵科技有限公司,15-50人,高新区,本科,天使轮,"企业服务,教育",104.05558,30.53895,全职,1年以下
70,2986561,高级node.js工程师,杭州,2018-04-27 15:44:15,17.0,64712,火球科技,杭州火球科技有限公司,150-500人,西湖区,本科,A轮,"移动互联网,电子商务",120.075025,30.28917,全职,1-3年
71,1443568,node.js开发工程师,北京,2018-04-28 16:21:39,17.8,83710,iHealth,北京爱和健康科技有限公司,150-500人,海淀区,本科,不需要融资,"移动互联网,医疗健康",116.336046,40.027804,全职,1-3年
72,4022200,Node.js 工程师,武汉,2018-04-28 11:46:05,19.0,75863,石墨文档,武汉初心科技有限公司,50-150人,洪山区,本科,B轮,移动互联网,114.406106,30.476672,全职,3-5年
73,4287906,Node.js 开发工程师,杭州,2018-04-28 11:10:55,14.0,245889,网信集团,网信集团有限公司,2000人以上,西湖区,本科,不需要融资,"移动互联网,金融",120.127271,30.273275,全职,3-5年
74,2887346,Node.js程序员,深圳,2018-04-19 09:36:25,14.0,83025,环球易购,深圳市环球易购电子商务有限公司,2000人以上,南山区,大专,上市公司,电子商务,39.897445,116.331398,全职,1-3年
75,3221851,Node.js工程师,北京,2018-04-28 10:35:33,22.4,151782,爱特曼科技,北京爱特曼科技有限公司,15-50人,海淀区,不限,A轮,"移动互联网,数据服务",116.348614,39.973592,全职,不限
76,2975865,Node.js开发工程师,广州,2018-04-27 13:50:23,11.8,169002,修炼,广东修炼科技股份有限公司,50-150人,天河区,大专,不需要融资,移动互联网,113.33759,23.127164,全职,1-3年
77,4333588,高级Node.js工程师,深圳,2018-04-28 14:17:18,19.0,15737,友好速搭,亿众骏达网络科技（深圳）有限公司,50-150人,南山区,本科,A轮,"企业服务,电子商务",113.941651,22.553942,全职,3-5年
78,3786375,node.js技术研发,北京,2018-04-23 19:12:11,28.0,279945,黑派科技,转型工场（北京）科技有限公司,15-50人,朝阳区,本科,A轮,"移动互联网,数据服务",116.432958,39.922368,全职,1-3年
79,3305166,系统开发工程师（Node.js）,北京,2018-04-30 09:08:21,19.0,9955,学堂在线,北京慕华信息科技有限公司,150-500人,海淀区,本科,B轮,"移动互联网,教育",116.329427,39.99412,全职,3-5年
80,4354876,node.js开发,北京,2018-04-27 15:06:45,19.0,164735,蜜柚,北京蜜柚时尚科技有限公司,50-150人,朝阳区,本科,B轮,"游戏,移动互联网",116.488496,40.00019,全职,1-3年
81,595704,Node.js工程师,杭州,2018-04-27 14:44:19,14.0,18655,大搜车,杭州大搜车汽车服务有限公司,500-2000人,余杭区,本科,D轮及以上,"移动互联网,O2O",120.03181961,30.2437203,全职,1-3年
82,4401403,高级Node.js工程师,上海,2018-04-27 10:43:42,24.0,35384,智慧芽,智慧芽信息科技（苏州）有限公司,150-500人,闸北区,本科,C轮,移动互联网,121.45252,31.24603,全职,3-5年
83,4414466,Node.js高级开发工程师,北京,2018-04-28 11:24:14,28.0,292100,币印,中本聪明(北京)科技有限公司,15-50人,朝阳区,本科,不需要融资,"金融,数据服务",116.479874,39.987108,全职,3-5年
84,3976861,Node.js开发工程师,上海,2018-04-27 11:43:45,15.2,15257,美味不用等,美味不用等（上海）信息科技股份有限公司,500-2000人,浦东新区,本科,C轮,"移动互联网,O2O",121.5935,31.207614,全职,3-5年
85,2587188,Node.js/JavaScript,北京,2018-04-28 09:30:03,21.0,70634,彩视,迅捷联动（北京）科技有限公司,15-50人,朝阳区,本科,A轮,移动互联网,116.451267,39.96072,全职,3-5年
86,3961001,Node.js开发工程师,北京,2018-04-26 16:14:08,19.0,107408,AdMaster,精硕科技（北京）股份有限公司,500-2000人,海淀区,本科,不需要融资,数据服务,116.357186,40.042672,全职,3-5年
87,4347717,高级Node.js开发工程师,上海,2018-04-28 11:30:16,22.8,44790,听果音乐,上海听果网络科技有限公司,50-150人,长宁区,大专,不需要融资,"移动互联网,电子商务",121.438547,31.214963,全职,3-5年
88,636413,Node.js 软件工程师,上海,2018-04-27 15:45:50,15.2,40729,Rela热拉-多元女性社区,上海初生网络科技有限公司,50-150人,黄浦区,本科,B轮,"移动互联网,社交网络",121.4805,31.230318,全职,1-3年
89,4387266,Node.js开发工程/Node.js服务端工程师,广州,2018-04-26 21:53:02,10.8,257806,前海易物,前海易物（深圳）电子商务有限公司广州分公司,150-500人,海珠区,大专,A轮,"电子商务,移动互联网",113.404813,23.092222,全职,1-3年
90,3960962,Node.js开发工程师,北京,2018-04-26 16:14:08,24.0,107408,AdMaster,精硕科技（北京）股份有限公司,500-2000人,海淀区,本科,不需要融资,数据服务,116.357186,40.042672,全职,3-5年
91,3724248,Node.JS Engineer,北京,2018-04-28 16:40:41,19.0,138807,时空娱乐,时空幻境（北京）科技有限公司,50-150人,朝阳区,本科,不需要融资,游戏,116.419248,39.969886,全职,3-5年
92,4422179,Node.js开发工程师,深圳,2018-04-23 14:39:39,17.0,334793,小猫停车,深圳市小猫信息技术有限公司,150-500人,南山区,本科,B轮,"移动互联网,硬件",113.926028,22.549224,全职,3-5年
93,3338306,Node.js工程师,武汉,2018-04-27 14:46:11,5.6,52301,研众科技,武汉研众科技有限公司,少于15人,武昌区,本科,天使轮,"移动互联网,O2O",113.993569,30.993672,全职,1-3年
94,4422244,Node.js开发工程师,珠海,2018-04-25 09:27:23,9.8,352954,珠海万晟达,珠海市万晟达科技发展有限公司,50-150人,香洲区,本科,不需要融资,"移动互联网,数据服务",113.576811,22.284364,全职,1-3年
95,4023025,Node.js工程师,上海,2018-04-27 18:50:00,11.4,41846,CareerFrog职业蛙,上海凯洛格信息科技有限公司,150-500人,长宁区,本科,B轮,教育,0.0,0.0,全职,1-3年
96,4462512,Node.js高级开发工程师,北京,2018-04-24 09:50:57,27.0,4148,同程艺龙,艺龙网信息技术（北京）有限公司,2000人以上,朝阳区,本科,上市公司,"移动互联网,旅游",116.495469,39.976718,全职,3-5年
97,4429761,Node.js工程师,上海,2018-04-16 18:32:43,19.0,64597,乂学,上海乂学教育科技有限公司,150-500人,黄浦区,本科,A轮,"移动互联网,教育",121.470861,31.210651,全职,3-5年
98,4056279,Node.js开发工程师,北京,2018-04-28 11:38:06,22.8,159108,大唐互娱,北京棋开德胜科技有限公司,150-500人,朝阳区,本科,不需要融资,"移动互联网,游戏",116.414402,40.043555,全职,3-5年
99,4400227,Node.js开发工程师,上海,2018-04-27 09:06:58,17.0,12117,找钢网,上海钢富电子商务有限公司,500-2000人,杨浦区,本科,D轮及以上,电子商务,121.49018,31.29454,全职,3-5年
100,3175306,高级Node.js开发工程师,广州,2018-04-26 11:20:34,24.0,166288,悄悄科技,广州市悄悄科技有限公司,50-150人,天河区,本科,不需要融资,"移动互联网,社交网络",113.319822,23.126231,全职,3-5年
101,4304330,Node.js,宁波,2018-04-23 17:48:15,14.0,215410,宁波睿奇软件技术有限公司,宁波睿奇软件技术有限公司,15-50人,鄞州区,不限,未融资,"游戏,移动互联网",121.596332,29.854404,全职,1-3年
102,4186531,高级node.js工程师,北京,2018-04-28 10:13:04,28.0,4286,竞技世界,竞技世界（北京）网络技术有限公司,500-2000人,海淀区,本科,不需要融资,"移动互联网,游戏",115.99339,39.99426,全职,5-10年
103,3684347,Node.js开发工程师,北京,2018-04-28 13:02:28,28.0,16869,朗播网,北京博智天下信息技术有限公司,150-500人,海淀区,本科,B轮,教育,116.31287,40.03445,全职,5-10年
104,3955837,资深node.js开发工程师,杭州,2018-04-27 15:44:15,19.0,64712,火球科技,杭州火球科技有限公司,150-500人,西湖区,本科,A轮,"移动互联网,电子商务",120.075258,30.28882,全职,3-5年
105,664104,Node.js工程师,重庆,2018-04-27 11:38:17,8.2,57708,秒差距,重庆秒差距科技有限公司,15-50人,渝北区,本科,未融资,移动互联网,106.5236,29.590184,全职,1-3年
106,4321317,Node.js开发工程师,苏州,2018-04-28 21:24:11,7.0,351805,泽汇动力,苏州泽汇动力信息技术有限公司,少于15人,工业园区,本科,不需要融资,"移动互联网,数据服务",120.738157,31.275971,全职,1-3年
107,1038986,Node.js开发工程师/网站后端开发工程师,深圳,2018-04-27 10:01:55,24.0,64371,MYOFFER　学无国界,深圳学无国界教育科技有限公司,50-150人,南山区,本科,B轮,移动互联网,113.912818,22.482859,全职,5-10年
108,3911280,高级Node.js开发工程师,上海,2018-04-25 11:53:05,29.0,165,UCloud,上海优刻得信息科技有限公司,500-2000人,杨浦区,本科,D轮及以上,"数据服务,企业服务",121.99341,30.994275,全职,5-10年
109,3507947,Node.js开发工程师,深圳,2018-04-18 09:45:46,19.6,30456,回收宝,深圳回收宝科技有限公司,150-500人,南山区,本科,B轮,"移动互联网,电子商务",113.993578,22.99368,全职,3-5年
110,4348764,node.js工程师,广州,2018-04-12 18:36:55,9.4,50241,Symbio-Freeborders,信必优(深圳)信息技术有限公司,2000人以上,海珠区,本科,未融资,"移动互联网,电子商务",0.0,0.0,全职,不限
111,4226000,Node.js工程师（成都）,成都,2018-04-28 09:17:58,26.0,72150,容联七陌,北京容联七陌科技有限公司,150-500人,高新区,本科,D轮及以上,移动互联网,104.063118,30.577176,全职,3-5年
112,3916726,Node.js工程师（可实习）,上海,2018-04-28 13:24:24,14.0,211613,ARKie,上海阿几网络技术有限公司,50-150人,黄浦区,本科,A轮,"移动互联网,企业服务",121.484443,31.231763,全职,应届毕业生
113,2832867,Node.js 工程师,上海,2018-04-27 10:38:21,21.0,228,Strikingly,"Striking.ly, Inc.",150-500人,杨浦区,不限,A轮,移动互联网,121.99341,30.994275,全职,不限
114,3681609,Node.js,上海,2018-04-28 16:08:10,14.0,144037,眸事网,上海脉豪商务信息咨询有限公司,150-500人,虹口区,大专,天使轮,"移动互联网,企业服务",120.993464,30.994061,全职,1-3年
115,3389858,Node.JS开发工程师,上海,2018-04-28 15:56:02,24.0,232421,上海元聚,上海元聚网络科技有限公司,150-500人,闵行区,不限,B轮,移动互联网,121.387755,31.169253,全职,1-3年
116,4484605,node.js工程师,厦门,2018-04-26 10:04:54,8.4,336268,MORE,厦门虚拟云链网络科技有限公司,15-50人,湖里区,不限,A轮,金融 移动互联网,118.195815,24.487909,全职,1-3年
117,4426700,Node.js 工程师,烟台,2018-04-23 09:35:10,9.6,357399,康康纺织科技,烟台康康纺织科技有限公司,50-150人,芝罘区,不限,未融资,其他,121.401979,37.541625,全职,不限
118,4260445,node.js开发工程师,上海,2018-04-27 11:43:46,17.8,15257,美味不用等,美味不用等（上海）信息科技股份有限公司,500-2000人,浦东新区,本科,C轮,"移动互联网,O2O",121.5935,31.207614,全职,3-5年
119,1750820,Node.js工程师,北京,2018-04-27 11:15:42,14.0,28393,爱云校,北京修齐治平科技有限公司,500-2000人,朝阳区,本科,C轮,"教育,数据服务",116.47971721,39.99502389,全职,1-3年
120,3559570,node.js工程师／服务器端工程师,上海,2018-04-27 09:46:35,14.0,124821,UniCareer职优你,职优你（上海）教育科技有限公司,150-500人,杨浦区,本科,C轮,教育,121.516586,31.299703,全职,1-3年
121,4391847,Node.js开发工程师/专家,北京,2018-04-25 19:47:47,28.0,31590,四维图新,北京四维图新科技股份有限公司,2000人以上,海淀区,大专,上市公司,"移动互联网,生活服务",116.245368,40.072979,全职,5-10年
122,4269745,node.js工程师,北京,2018-04-26 13:23:25,15.2,41861,华生恒业,北京华生恒业科技有限公司,500-2000人,海淀区,本科,C轮,"医疗健康,移动互联网",115.99339,39.99426,全职,3-5年
123,4003076,高级Node.js开发工程师-,杭州,2018-04-28 10:48:09,19.0,329,网易,网易（杭州）有限公司,2000人以上,滨江区,本科,上市公司,"电子商务,移动互联网",120.192295,30.188393,全职,3-5年
124,4466444,Node.js开发工程师,苏州,2018-04-23 16:04:04,7.0,347921,麦粒信息,苏州麦粒信息科技有限公司,少于15人,工业园区,大专,天使轮,"移动互联网,金融",120.731426,31.264482,全职,1-3年
125,4205363,高级Node.js开发工程师,深圳,2018-04-28 12:06:36,19.0,122335,丹尼尔惠灵顿,丹尼尔惠灵顿贸易（深圳）有限公司,150-500人,南山区,本科,不需要融资,电子商务,113.943689,22.524666,全职,3-5年
126,3512243,node.js开发工程师,佛山,2018-04-17 16:05:50,12.0,21565,杰为软件,杰为软件系统（深圳）有限公司,150-500人,顺德区,本科,未融资,"移动互联网,企业服务",113.205698,22.904873,全职,3-5年
127,3870242,Node.js工程师,嘉兴,2018-04-06 12:31:26,7.6,282580,汉佳科技,嘉兴乌镇汉佳科技有限公司,15-50人,,大专,未融资,"企业服务,移动互联网",120.496251,30.737038,全职,不限
128,4449540,Node.js,上海,2018-04-19 14:17:01,17.0,352797,上海硬角信息技术有限公司,上海硬角信息技术有限公司,少于15人,黄浦区,本科,天使轮,移动互联网,121.486518,31.230466,全职,1-3年
129,4386713,Node.js开发工程师,北京,2018-04-28 13:53:20,16.0,100296,来来,北京无限引力网络科技有限公司,50-150人,朝阳区,本科,A轮,"移动互联网,社交网络",116.49269,39.973072,全职,3-5年
130,3291579,Node.js开发工程师,广州,2018-04-27 14:15:19,7.6,219929,广州诺德信息技术有限公司,广州诺德信息技术有限公司,少于15人,天河区,大专,不需要融资,"企业服务,移动互联网",113.371813,23.122925,全职,1-3年
131,176745,Node.js研发工程师,北京,2018-04-23 16:12:04,19.0,27749,淡蓝网Blued,北京蓝城兄弟信息技术有限公司,150-500人,朝阳区,本科,D轮及以上,"移动互联网,社交网络",116.469923,39.899738,全职,3-5年
132,2197367,Node.js开发工程师,成都,2018-04-02 11:31:43,13.2,55764,雨诺股份,青岛雨诺网络信息股份有限公司,50-150人,高新区,本科,A轮,"移动互联网,企业服务",104.06176,30.541901,全职,3-5年
133,4494849,node.js开发工程师,北京,2018-04-27 16:16:45,17.8,26832,财萃网,北京中博新视网络教育科技发展有限公司,50-150人,海淀区,本科,不需要融资,"O2O,教育",116.500434,39.893805,全职,5-10年
134,4456059,Node.js开发工程师,上海,2018-04-24 18:58:24,19.0,147488,森兰信息科技（上海）有限公司,森兰信息科技（上海）有限公司,150-500人,杨浦区,不限,A轮,"教育,文化娱乐",121.503985,31.342201,全职,3-5年
135,4330502,高级Node.js开发工程师,北京,2018-04-18 18:31:51,21.0,216662,SENSORO,北京升哲科技有限公司,50-150人,朝阳区,本科,B轮,"移动互联网,硬件",116.481049,39.996796,全职,3-5年
136,3911249,资深Node.js开发工程师,上海,2018-04-25 11:53:05,29.0,165,UCloud,上海优刻得信息科技有限公司,500-2000人,杨浦区,本科,D轮及以上,"数据服务,企业服务",121.99341,30.994275,全职,5-10年
137,4498912,Node.JS工程师,北京,2018-04-28 13:45:29,14.0,62474,药明康德,上海药明康德新药开发有限公司,2000人以上,朝阳区,本科,不需要融资,医疗健康,0.0,0.0,全职,1-3年
138,3719268,Node.js开发工程师,上海,2018-04-24 14:15:36,19.0,172833,上海心灵伙伴云计算,上海心灵伙伴云计算信息技术有限公司,150-500人,普陀区,本科,未融资,教育,121.39315,31.231924,全职,3-5年
139,1976572,Node.js,深圳,2018-04-28 14:22:08,16.8,68524,编程猫,深圳点猫科技有限公司,150-500人,南山区,本科,B轮,"移动互联网,教育",113.940851,22.509672,全职,1-3年
140,4491843,node.js,济南,2018-04-27 10:34:17,8.4,368933,睿朗,济南睿朗信息科技有限公司,少于15人,,本科,未融资,不限,117.043894,36.664832,全职,1-3年
141,475292,Node.js 软件工程师 开发,上海,2018-04-25 19:08:02,9.8,54962,岚智网络,上海岚智网络科技有限公司,15-50人,徐汇区,本科,不需要融资,"移动互联网,电子商务",121.432833,31.181651,全职,1-3年
142,2995736,Node.js 高级软件工程师,苏州,2018-04-25 00:02:35,14.0,191061,提点科技,苏州提点信息科技有限公司,15-50人,工业园区,不限,不需要融资,"移动互联网,数据服务",120.728328,31.276532,全职,不限
143,4189742,急聘-Node.js工程师,北京,2018-04-27 10:05:09,26.0,127008,datafountain,北京数联众创科技有限公司,15-50人,海淀区,本科,不需要融资,移动互联网,0.0,0.0,全职,5-10年
144,4448889,Node.js 工程师,杭州,2018-04-26 18:05:39,19.0,133891,桃树数据,杭州桃树科技有限公司,15-50人,滨江区,本科,B轮,数据服务,120.22258,30.207211,全职,3-5年
145,4430041,Node.js工程师,北京,2018-04-23 14:37:13,24.0,293221,百分百行,北京百分百行科技有限公司,50-150人,朝阳区,本科,A轮,"移动互联网,生活服务",116.475819,39.907396,全职,3-5年
146,4428449,Node.js工程师,杭州,2018-04-26 10:49:48,8.4,52124,极爱网络,杭州极爱网络科技有限公司,15-50人,西湖区,不限,天使轮,移动互联网,120.078646,30.290994,全职,1-3年
147,3217505,Node.js开发工程师,杭州,2018-04-10 09:49:42,19.0,136597,亿咖通科技,浙江亿咖通科技有限公司,500-2000人,滨江区,本科,不需要融资,"移动互联网,硬件",0.0,0.0,全职,3-5年
148,1136334,Node.js 程序员,北京,2018-04-28 13:53:03,14.0,71494,北大医信,北大医疗信息技术有限公司,500-2000人,海淀区,本科,不需要融资,医疗健康,,,全职,不限
149,3444405,Node.js 后端开发工程师,武汉,2018-04-26 11:50:10,14.0,2438,悦然心动,武汉悦然心动网络科技有限公司,50-150人,洪山区,本科,上市公司,"移动互联网,社交网络",114.414309,30.500826,全职,1-3年
150,4196367,Node.js后端开发,北京,2018-04-24 13:56:08,19.0,67961,云派游戏,云派互联科技（北京）有限公司,50-150人,朝阳区,本科,不需要融资,"移动互联网,游戏",116.417035,40.031998,全职,1-3年
151,4088586,服务器开发（Node.js）,杭州,2018-04-27 09:12:20,19.0,26983,浙江冰峰,浙江冰峰科技有限公司,50-150人,滨江区,大专,不需要融资,游戏,120.208093,30.210775,全职,1-3年
152,1466310,Node.js开发工程师（创新中心）,北京,2018-04-28 13:53:03,17.0,71494,北大医信,北大医疗信息技术有限公司,500-2000人,海淀区,本科,不需要融资,医疗健康,116.313161,39.984635,全职,1-3年
153,3933525,Node.js后端开发工程师（V7500）,上海,2018-04-28 10:07:15,24.0,52315,Video++,上海极链网络科技有限公司,150-500人,黄浦区,本科,C轮,"数据服务,文化娱乐",121.506201,31.211158,全职,3-5年
154,4266033,node.js开发工程师,广州,2018-04-27 09:53:50,13.6,128403,玩胜科技广州分公司,上海玩胜网络科技有限公司广州分公司,50-150人,天河区,大专,未融资,移动互联网,113.33444,23.14938,全职,1-3年
155,4445758,node.js开发工程师,深圳,2018-04-18 19:55:43,10.4,368049,壹像素,深圳市壹像素网络科技有限公司,50-150人,宝安区,大专,不需要融资,移动互联网,113.912049,22.573522,全职,1-3年
156,4477792,Node.js 后端工程师,北京,2018-04-27 14:04:03,21.0,54359,时速云,北京云思畅想科技有限公司,50-150人,海淀区,本科,B轮,"企业服务,数据服务",116.347763,40.001464,全职,3-5年
157,4087562,Node.JS高级研发工程师,北京,2018-04-28 11:38:06,35.0,159108,大唐互娱,北京棋开德胜科技有限公司,150-500人,朝阳区,本科,不需要融资,"移动互联网,游戏",116.414402,40.043555,全职,5-10年
158,4271501,Node.js 后台工程师,深圳,2018-04-28 08:44:11,14.0,286431,AfterShip,AFTERSHIP LIMITED,50-150人,南山区,本科,A轮,"电子商务,企业服务",113.945036,22.528953,全职,1-3年
159,3823245,服务端开发（Node.js）-网易云基础服务-蜂巢,杭州,2018-04-27 11:57:31,31.0,329,网易,网易（杭州）有限公司,2000人以上,滨江区,本科,上市公司,"电子商务,移动互联网",120.192295,30.188393,全职,3-5年
160,4365382,Node.js专家,苏州,2018-04-27 10:43:43,24.0,35384,智慧芽,智慧芽信息科技（苏州）有限公司,150-500人,工业园区,本科,C轮,移动互联网,120.657481,31.292894,全职,10年以上
161,4368839,Node.js工程师,北京,2018-04-03 17:28:52,19.0,357635,晓币科技,北京晓币科技有限公司,少于15人,朝阳区,本科,天使轮,移动互联网,116.470515,39.913285,全职,3-5年
162,3747052,服务器开发（Node.js),北京,2018-04-27 10:22:54,21.0,4286,竞技世界,竞技世界（北京）网络技术有限公司,500-2000人,海淀区,本科,不需要融资,"移动互联网,游戏",116.313466,40.037696,全职,5-10年
163,3564758,Node.js开发专家,杭州,2018-04-26 17:27:04,26.0,142528,数澜科技,杭州数澜科技有限公司,150-500人,余杭区,本科,A轮,"企业服务,数据服务",120.003852,30.291585,全职,5-10年
164,4386689,Node.js开发工程师,北京,2018-04-28 14:32:18,16.0,84708,必连,必连（北京）科技有限公司,50-150人,朝阳区,本科,A轮,"移动互联网,社交网络",0.0,0.0,全职,3-5年
165,4446132,Node.js开发工程师,北京,2018-04-24 22:46:41,19.0,29382,大唐网络,新华瑞德（北京）网络科技有限公司,150-500人,海淀区,大专,上市公司,"移动互联网,教育",116.370929,39.968827,全职,3-5年
166,4363364,Node.js工程师,北京,2018-04-02 21:45:19,19.0,357635,晓币科技,北京晓币科技有限公司,少于15人,朝阳区,本科,天使轮,移动互联网,,,全职,3-5年
167,4218297,后端开发工程师（Node.js）,杭州,2018-04-27 10:23:38,21.0,35358,当堂信息,杭州当堂信息技术有限公司,50-150人,拱墅区,不限,不需要融资,"移动互联网,生活服务",119.993591,29.993662,全职,3-5年
168,4066143,node.js,杭州,2018-04-16 11:20:44,19.0,171980,Rokid,芋头科技（杭州）有限公司,150-500人,西湖区,本科,B轮,"电子商务,移动互联网",120.067022,30.245942,全职,3-5年
169,3507065,Node.js开发工程师,北京,2018-04-19 13:01:34,28.0,54024,一起写,晴云科技有限公司,15-50人,海淀区,本科,B轮,"移动互联网,企业服务",116.304382,39.984408,全职,1-3年
170,4365494,node.js,上海,2018-04-25 10:34:44,13.6,64227,孩子通－－通向未来、通向梦想,上海孩子通信息科技有限公司,15-50人,虹口区,本科,不需要融资,"移动互联网,教育",121.500709,31.252859,全职,1-3年
171,3943323,Node.Js开发工程师,上海,2018-04-28 14:25:08,14.0,58442,蜂果网络,上海蜂果网络科技有限公司,50-150人,浦东新区,本科,A轮,游戏,121.523804,31.191857,全职,不限
172,4452657,node.js开发工程师,北京,2018-04-19 18:27:38,12.0,90202,踢球者联盟,北京踢球者联盟科技有限公司,15-50人,朝阳区,本科,天使轮,"移动互联网,文化娱乐",116.451509,39.963576,全职,应届毕业生
173,2443635,Node.js开发工程师,北京,2018-04-13 14:44:43,17.0,33418,UnitedStack,UNITEDSTACK（北京）科技有限公司,50-150人,海淀区,本科,C轮,数据服务,116.338938,39.998324,全职,1-3年
174,3747804,Node.js高级开发工程师,北京,2018-04-28 11:17:05,20.8,30605,赢时胜软件,深圳市赢时胜信息技术股份有限公司,500-2000人,黄浦区,本科,上市公司,金融,121.496072,31.227203,全职,1-3年
175,4438852,Node.js开发工程师,上海,2018-04-26 08:43:24,9.8,241329,勤道科技,郑州勤道科技有限公司,50-150人,徐汇区,不限,不需要融资,"移动互联网,金融",121.405181,31.165478,全职,1-3年
176,4091607,Node.js,上海,2018-04-26 15:14:12,19.0,318932,维特国际,WIT Global Trading Limited,15-50人,徐汇区,大专,A轮,移动互联网,121.4495,31.188726,全职,1-3年
177,3834995,高级Node.js后端研发工程师,广州,2018-04-28 15:55:46,19.0,34420,图普科技（深度学习图像识别云）,广州图普网络科技有限公司,50-150人,天河区,本科,A轮,"移动互联网,数据服务",113.37311,23.1231,全职,1-3年
178,4397851,Node.js开发工程师,深圳,2018-04-28 10:46:07,18.4,123267,同道大叔,深圳市同道大叔文化传播有限公司,50-150人,南山区,大专,不需要融资,"电子商务,移动互联网",113.993578,22.99368,全职,3-5年
179,4011099,搜狗大律师-Node.js工程师-北京-03433,北京,2018-04-28 10:39:34,29.0,1537,搜狗,北京搜狗科技发展有限公司,2000人以上,海淀区,本科,上市公司,"移动互联网,数据服务",116.33254,39.99366006,全职,3-5年
180,4047581,node.js后端开发工程师,上海,2018-04-27 13:33:29,14.4,129496,上海豆子网络科技有限公司,上海豆子网络科技有限公司,150-500人,浦东新区,本科,不需要融资,游戏,121.596821,31.212214,全职,3-5年
181,2817896,全栈工程师，Node.js工程师，WEB前端工程师,济南,2018-04-20 13:58:07,7.0,172661,硅谷科技,上海硅谷计算机科技有限公司,15-50人,槐荫区,本科,不需要融资,"数据服务,企业服务",0.0,0.0,全职,1-3年
182,4202048,node.js开发工程师,上海,2018-04-27 11:43:45,14.0,15257,美味不用等,美味不用等（上海）信息科技股份有限公司,500-2000人,浦东新区,本科,C轮,"移动互联网,O2O",121.5935,31.207614,全职,1-3年
183,4473330,Node.js开发工程师,北京,2018-04-24 15:13:23,14.0,58936,众晶数码,北京众晶锐驰科技有限公司,15-50人,海淀区,不限,不需要融资,移动互联网,115.99339,39.99426,全职,1-3年
184,3575937,后端开发工程师（Node.js）,上海,2018-04-27 19:52:11,19.0,246971,Vechain,上海唯链信息科技有限公司,50-150人,静安区,大专,A轮,"移动互联网,信息安全",121.438506,31.221671,全职,3-5年
185,4424145,Node.js（express框架）,北京,2018-04-27 09:15:48,16.8,273658,周同科技,北京周同科技有限公司,50-150人,朝阳区,本科,A轮,"移动互联网,数据服务",116.517303,40.039379,全职,不限
186,4300153,广告-Node.js,深圳,2018-04-19 15:37:03,21.0,101,迅雷,深圳市迅雷网络技术有限公司,500-2000人,南山区,本科,上市公司,移动互联网,113.93851,22.54505,全职,3-5年
187,4344530,Node.js后端开发工程师,武汉,2018-04-26 16:57:31,8.8,222172,RulerTech然诺,武汉然诺管理咨询有限公司,15-50人,江岸区,本科,天使轮,"移动互联网,企业服务",114.28076,30.627693,全职,1-3年
188,4306536,后端调度系统开发--Node.js,上海,2018-04-28 15:51:42,9.8,215477,木蚁机器人,上海木蚁机器人科技有限公司,15-50人,浦东新区,本科,天使轮,硬件,121.602201,31.20599,全职,1-3年
189,4223280,Node.js 高级研发工程师,上海,2018-04-28 10:29:18,21.0,65218,亿微征信,亿微征信服务有限公司,50-150人,浦东新区,本科,不需要融资,金融,121.53419,31.2173,全职,1-3年
190,3862433,Node.js开发工程师,上海,2018-04-10 10:23:53,19.0,113723,上海拿米金服,上海拿米金融信息服务有限公司,150-500人,徐汇区,大专,不需要融资,"移动互联网,金融",121.41045,31.17033,全职,3-5年
191,2480033,Node.js,北京,2018-04-28 15:09:46,12.0,128481,海克智动,北京海克智动科技开发有限公司,15-50人,海淀区,大专,天使轮,"移动互联网,硬件",116.34695,40.01925,全职,1-3年
192,4086623,Node.js工程师,上海,2018-04-27 09:57:16,14.0,9793,eDoctor,上海翼多信息咨询有限公司,150-500人,长宁区,大专,A轮,"医疗健康,广告营销",121.38478,31.21575,全职,1-3年
193,4480364,Node.js,广州,2018-04-25 14:47:03,7.0,157207,云石动力,广州云石动力科技有限公司,50-150人,白云区,不限,不需要融资,"移动互联网,企业服务",113.233494,23.21051,全职,1-3年
194,4476412,后端工程师（Node.js）,上海,2018-04-24 20:53:12,19.0,243778,斐讯技术,四川斐讯信息技术有限公司,2000人以上,松江区,本科,不需要融资,"信息安全,硬件",121.158217,31.022781,全职,3-5年
195,4304389,Node.js,杭州,2018-04-23 17:47:53,14.0,215410,宁波睿奇软件技术有限公司,宁波睿奇软件技术有限公司,15-50人,滨江区,不限,未融资,"游戏,移动互联网",120.14504,30.188231,全职,1-3年
196,4090462,node.js开发实习生,广州,2018-04-17 18:13:56,2.4,28417,兔展RabbitPre,深圳兔展智能科技有限公司,150-500人,天河区,本科,B轮,移动互联网,113.3737697,23.12566019,实习,不限
197,4369338,高级 Node.js 后端开发工程师,上海,2018-04-27 17:05:46,22.2,7090,Teambition,上海汇翼信息科技有限公司,150-500人,浦东新区,本科,B轮,"移动互联网,企业服务",121.583532,31.197561,全职,3-5年
198,4268029,node.js工程师,北京,2018-04-26 17:26:00,19.0,23113,易米云通,南京易米云通网络科技有限公司,150-500人,朝阳区,本科,B轮,移动互联网,116.406849,39.973642,全职,3-5年
199,3519952,Node.js开发,杭州,2018-04-27 14:29:44,11.2,43906,浙江聚有财,浙江聚有财金融服务外包有限公司,150-500人,上城区,大专,未融资,金融,120.196464,30.230214,全职,1-3年
200,3720974,Node.js开发工程师,北京,2018-04-26 16:14:08,21.0,107408,AdMaster,精硕科技（北京）股份有限公司,500-2000人,海淀区,本科,不需要融资,数据服务,116.357186,40.042672,全职,1-3年
201,2030829,Node.js后端开发工程师,上海,2018-04-28 18:49:32,12.0,16737,哒哒英语,上海卓赞信息技术有限公司,500-2000人,长宁区,大专,C轮,教育,121.35532999,31.21821985,全职,1-3年
202,4271520,Node.js (组长) 高級后台工程师,深圳,2018-04-28 08:44:11,28.0,286431,AfterShip,AFTERSHIP LIMITED,50-150人,南山区,本科,A轮,"电子商务,企业服务",113.945036,22.528953,全职,3-5年
203,2045378,Node.js开发工程师,广州,2018-04-18 10:57:58,6.2,7390,锐汇软件,广州市锐汇软件科技有限公司,少于15人,,大专,未融资,"移动互联网,广告营销",,,全职,1-3年
204,4092664,Node.JS后台开发工程师,深圳,2018-04-27 10:14:38,19.0,17617,Makeblock,深圳市创客工场科技有限公司,150-500人,南山区,本科,B轮,硬件,0.0,0.0,全职,1-3年
205,4082854,高级 Node.js 开发工程师,青岛,2018-04-09 14:32:28,19.0,90154,国泰思科THINK CHINA,青岛国泰思科数码技术有限公司,50-150人,市南区,大专,未融资,"移动互联网,电子商务",120.39194,36.06387,全职,1-3年
206,3062049,Node.js方向后端工程师,北京,2018-04-28 11:01:53,19.0,3038,Gridsum 国双,北京国双科技有限公司,500-2000人,海淀区,本科,上市公司,"数据服务,企业服务",116.33175,39.97599007,全职,3-5年
207,4118736,后台开发（Node.js）,广州,2018-04-27 13:40:01,6.6,59065,深圳道乐,深圳道乐科技有限公司,50-150人,海珠区,本科,未融资,"移动互联网,金融",0.0,0.0,全职,1-3年
208,4281178,node.js开发工程师,上海,2018-04-27 11:43:46,19.0,15257,美味不用等,美味不用等（上海）信息科技股份有限公司,500-2000人,浦东新区,本科,C轮,"移动互联网,O2O",121.5935,31.207614,全职,3-5年
209,4450227,node.js开发工程师,上海,2018-04-26 15:32:06,8.4,331547,科加诺－上海,科加诺智能系统（上海）有限公司,15-50人,浦东新区,大专,未融资,移动互联网 数据服务,121.599188,31.207144,全职,不限
210,3757791,Node.js开发工程师,上海,2018-04-26 08:44:36,19.0,72387,心灵伙伴览育,上海心灵伙伴览育信息技术有限公司,150-500人,普陀区,本科,A轮,"移动互联网,教育",120.993464,30.994061,全职,3-5年
211,3999293,开发主管 JavaScript/Node.js,厦门,2018-04-25 14:01:17,31.0,9237,RingCentral厦门研发中心,厦门铃盛软件有限公司,500-2000人,思明区,本科,上市公司,"移动互联网,数据服务",0.0,0.0,全职,5-10年
212,2860793,Node.js开发工程师,广州,2018-04-24 15:20:57,9.8,1918,诺特软件开发,广州诺特软件开发有限公司,50-150人,越秀区,大专,上市公司,"电子商务,企业服务",113.31278,23.13471,全职,3-5年
213,4437697,NODE.JS 开发工程师,广州,2018-04-26 12:09:33,11.2,348907,广州乐趣,广州乐趣科技有限公司,少于15人,番禺区,大专,不需要融资,社交网络,113.333402,22.99243,全职,1-3年
214,3382940,node.js开发工程师,广州,2018-04-26 09:57:45,11.4,57112,卖家宝,广州卖家宝信息技术咨询有限公司,150-500人,天河区,大专,不需要融资,电子商务,113.321124,23.11939,全职,3-5年
215,4392293,Node.js开发工程师,深圳,2018-04-09 20:01:47,14.0,151674,酷旗,深圳酷旗互联网有限公司,15-50人,南山区,大专,不需要融资,"硬件,移动互联网",113.938842,22.54096,全职,1-3年
216,4483331,Node.js开发工程师,广州,2018-04-28 17:00:17,13.2,13553,广州游爱,广州游爱网络技术有限公司,500-2000人,天河区,不限,上市公司,"移动互联网,游戏",113.340591,23.138342,全职,3-5年
217,4159097,Node.js开发工程师,广州,2018-04-26 21:32:20,12.0,320877,一一科技,广州一一科技有限公司,15-50人,荔湾区,不限,不需要融资,"移动互联网,企业服务",113.245728,23.090287,全职,1-3年
218,4442851,Node.js开发工程师,上海,2018-04-18 15:24:02,10.8,328708,LendingCar,吉林省利欧海外科技交流有限责任公司,15-50人,普陀区,本科,未融资,移动互联网,121.386996,31.223785,全职,3-5年
219,4082831,Web 应用开发工程师/Node.js 开发工程师,青岛,2018-04-09 14:32:30,14.0,90154,国泰思科THINK CHINA,青岛国泰思科数码技术有限公司,50-150人,市南区,大专,未融资,"移动互联网,电子商务",120.39194,36.06387,全职,1-3年
220,4087647,Node.js高级工程师,郑州,2018-04-23 13:20:49,7.0,35654,脉冲软件科技,郑州脉冲软件科技有限公司,15-50人,金水区,不限,不需要融资,"移动互联网,企业服务",113.69311,34.80706,全职,3-5年
221,4347955,Node.js和智能合约开发工程师,北京,2018-04-23 12:24:57,28.0,106564,喜农云科,北京喜农云科网络技术有限公司,15-50人,朝阳区,本科,天使轮,移动互联网,116.612726,39.929221,全职,3-5年
222,4021181,node.js后端工程师,北京,2018-04-26 16:14:07,28.0,107408,AdMaster,精硕科技（北京）股份有限公司,500-2000人,海淀区,本科,不需要融资,数据服务,116.357186,40.042672,全职,3-5年
223,4297177,Node.js开发工程师,深圳,2018-04-23 14:55:42,15.2,62359,澳信集团,深圳市澳信投资顾问有限公司,500-2000人,福田区,大专,不需要融资,O2O,114.055736,22.533101,全职,3-5年
224,4325756,高级研发岗位Node.js,上海,2018-04-23 12:58:05,22.0,55405,店达信息,上海店达信息技术有限公司,500-2000人,浦东新区,大专,B轮,"电子商务,O2O",121.584877,31.193497,全职,3-5年
225,3650979,Node.js Engineer,厦门,2018-04-25 14:01:18,16.8,9237,RingCentral厦门研发中心,厦门铃盛软件有限公司,500-2000人,思明区,本科,上市公司,"移动互联网,数据服务",0.0,0.0,全职,1-3年
226,4501133,Node.js开发工程师,深圳,2018-04-28 17:31:05,9.6,6566,金蝶,金蝶软件（中国）有限公司,2000人以上,南山区,本科,上市公司,"移动互联网,电子商务",113.955266,22.534742,全职,1-3年
227,4500024,node.js,上海,2018-04-28 15:48:06,12.0,83758,酷耀信息,上海酷耀信息科技有限公司,15-50人,浦东新区,不限,未融资,移动互联网,121.629079,31.207591,全职,1-3年
228,4462371,Node.js后端软件工程师,北京,2018-04-28 10:02:09,26.0,221215,9-A-M,站坐（宁波）智能科技有限公司,15-50人,海淀区,本科,A轮,"数据服务,企业服务",116.30899,39.981654,全职,3-5年
229,4381116,node.js 后端工程师,武汉,2018-04-26 15:33:57,10.8,141759,睿佳科技,睿佳（武汉）软件科技有限公司,少于15人,洪山区,本科,天使轮,"医疗健康,企业服务",114.425782,30.50896,全职,1-3年
230,3740806,Node.js开发工程师,上海,2018-04-25 10:13:35,17.0,255768,上海童迹,上海童迹科技有限公司,15-50人,静安区,大专,天使轮,"移动互联网,教育",121.449832,31.236734,全职,3-5年
231,4359486,node.js开发工程师,长沙,2018-04-02 13:45:33,10.8,356931,亚太日报,亚太智媒（北京）科技有限公司,150-500人,岳麓区,不限,A轮,文化娱乐、移动互联网,,,全职,不限
232,3124482,node.js开发工程师,北京,2018-04-09 10:15:21,14.4,9933,新东方在线,北京新东方迅程网络科技有限公司,500-2000人,海淀区,本科,不需要融资,"移动互联网,教育",116.312532,39.980408,全职,3-5年
233,4271513,Node.js 高级后台工程师,深圳,2018-04-28 08:44:11,24.8,286431,AfterShip,AFTERSHIP LIMITED,50-150人,南山区,本科,A轮,"电子商务,企业服务",113.945036,22.528953,全职,3-5年
234,3581554,Node.js后端开发工程师,北京,2018-04-24 12:15:39,14.0,93376,火舞游戏,北京火舞科技有限公司,15-50人,朝阳区,大专,不需要融资,游戏,116.514226,39.905452,全职,不限
235,2164994,Node.js（简道云产品后台开发）,无锡,2018-04-28 14:19:57,12.0,3246,帆软软件,南京帆软软件有限公司,500-2000人,,本科,不需要融资,数据服务,120.309329,31.55082792,全职,不限
236,4392092,Node.js 开发工程师,北京,2018-04-09 19:13:43,14.4,338159,船运帮,北京神女科技有限公司,15-50人,海淀区,本科,天使轮,"移动互联网,O2O",116.311577,39.981682,全职,1-3年
237,4443863,node.js开发工程师,广州,2018-04-23 15:06:56,15.2,271124,扁鸿信息,广州扁鸿信息科技有限公司,少于15人,越秀区,本科,不需要融资,"医疗健康,移动互联网",113.272307,23.173383,全职,1-3年
238,4453921,node.js开发工程师,北京,2018-04-26 19:06:03,17.2,37949,小牛电动车,北京牛电科技有限责任公司,150-500人,朝阳区,本科,A轮,"电子商务,硬件",116.483553,39.991794,全职,3-5年
239,1965627,Node.js 开发工程师,深圳,2018-04-24 14:29:45,12.0,938,一花科技,深圳市一花科技有限公司,50-150人,,大专,不需要融资,游戏,113.94174099,22.54044,全职,1-3年
240,4229101,Node.js开发工程师,北京,2018-04-16 11:02:44,14.0,178057,一起写,北京一起写信息科技有限公司,15-50人,海淀区,本科,B轮,企业服务,116.310611,39.976778,全职,应届毕业生
241,3279760,Node.js后端开发工程师,深圳,2018-04-27 10:01:55,10.8,64371,MYOFFER　学无国界,深圳学无国界教育科技有限公司,50-150人,南山区,大专,B轮,移动互联网,113.930057,22.519667,全职,1-3年
242,3651084,node.js,北京,2018-04-26 16:12:55,21.0,227496,科维睿创,北京科维睿创科技有限公司,15-50人,朝阳区,不限,未融资,"数据服务,移动互联网",116.495185,39.894775,全职,3-5年
243,3911303,初级Node.js开发工程师,上海,2018-04-25 11:53:07,19.0,165,UCloud,上海优刻得信息科技有限公司,500-2000人,杨浦区,本科,D轮及以上,"数据服务,企业服务",121.99341,30.994275,全职,1-3年
244,4155126,node.js实习生（优秀可转正）,北京,2018-04-27 10:01:50,3.8,255,多贝网,北京多贝兄弟信息技术有限公司,50-150人,海淀区,本科,上市公司,教育,115.99339,39.99426,实习,应届毕业生
245,3303832,后端开发工程师（Node.js）,北京,2018-04-25 15:17:33,28.0,44749,ofo,东峡大通（北京）管理咨询有限公司,2000人以上,海淀区,本科,D轮及以上,移动互联网,116.310072,39.984547,全职,3-5年
246,4035714,Node.js服务器程序,杭州,2018-04-27 09:12:21,12.0,26983,浙江冰峰,浙江冰峰科技有限公司,50-150人,滨江区,大专,不需要融资,游戏,120.19195,30.19735,全职,1-3年
247,3360534,Node.js开发工程师 (实习),广州,2018-04-27 14:17:01,3.4,219929,广州诺德信息技术有限公司,广州诺德信息技术有限公司,少于15人,天河区,大专,不需要融资,"企业服务,移动互联网",113.371813,23.122925,实习,应届毕业生
248,4060119,Node.js/TypeScript高级研发工程师,北京,2018-04-23 12:41:05,22.4,118242,石油工业出版社,石油工业出版社有限公司,150-500人,朝阳区,本科,不需要融资,"文化娱乐,企业服务",115.99339,39.99426,全职,1-3年
249,3751495,Node.JS 后台开发工程师,深圳,2018-04-27 14:08:54,14.4,50241,Symbio-Freeborders,信必优(深圳)信息技术有限公司,2000人以上,南山区,大专,未融资,"移动互联网,电子商务",113.930476,22.533013,全职,不限
250,4411085,Node.js服务端工程师,广州,2018-04-24 14:27:49,10.8,257806,前海易物,前海易物（深圳）电子商务有限公司广州分公司,150-500人,海珠区,大专,A轮,"电子商务,移动互联网",113.404813,23.092222,全职,1-3年
251,4245689,Node.js开发工程师,北京,2018-04-16 15:06:39,24.0,339770,优澜科技,北京优澜科技有限公司,15-50人,海淀区,本科,未融资,移动互联网,116.320043,39.96574,全职,3-5年
252,3472138,高级Node.js开发工程师,广州,2018-04-28 16:33:11,21.0,241942,启尔智信息科技,广州启尔智信息科技有限公司,15-50人,番禺区,本科,未融资,移动互联网,113.328943,23.006865,全职,3-5年
253,4431542,Node.js开发工程师,杭州,2018-04-23 12:02:41,16.8,325075,妙银理财,杭州银钻金融服务外包有限公司,50-150人,西湖区,本科,不需要融资,"移动互联网,金融",120.060155,30.287799,全职,1-3年
254,4023396,node.js开发工程师,北京,2018-04-26 14:13:03,24.8,50702,美团点评,北京三快在线科技有限公司,2000人以上,朝阳区,本科,D轮及以上,"移动互联网,O2O",116.48939,40.00692,全职,1-3年
255,3911294,中级Node.js开发工程师,上海,2018-04-25 11:53:05,19.0,165,UCloud,上海优刻得信息科技有限公司,500-2000人,杨浦区,本科,D轮及以上,"数据服务,企业服务",121.99341,30.994275,全职,3-5年
256,4226537,Node.js工程师,上海,2018-04-08 11:03:56,26.0,120674,维优Viewfin,上海若灵软件技术有限公司,50-150人,浦东新区,大专,A轮,"金融,移动互联网",121.510467,31.237064,全职,5-10年
257,2460820,Node.js,上海,2018-04-27 17:14:21,12.0,24995,泛微,上海泛微网络科技股份有限公司,2000人以上,闵行区,本科,上市公司,"移动互联网,企业服务",121.525236,31.080356,全职,1年以下
258,4264867,node.js工程师,重庆,2018-04-09 10:00:01,6.6,110802,江小白,重庆江小白品牌管理有限公司,500-2000人,渝北区,本科,不需要融资,"电子商务,移动互联网",106.50138,29.61541,全职,1-3年
259,4501241,Node.js后端开发工程师,北京,2018-04-28 17:45:56,14.0,249264,葡萄学院,北京点易通科技有限公司,15-50人,朝阳区,本科,天使轮,"教育,移动互联网",116.4741,40.011893,全职,3-5年
260,4429461,Node.js高级工程师,北京,2018-04-16 17:58:31,29.0,3564,同程艺龙,同程网络科技股份有限公司,2000人以上,朝阳区,本科,D轮及以上,"旅游,电子商务",116.495469,39.976718,全职,3-5年
261,3188565,node.js工程师,上海,2018-04-04 11:39:12,19.0,182274,247Collective,炽炎商务咨询（上海）有限公司,15-50人,静安区,不限,天使轮,"电子商务,文化娱乐",121.443766,31.219726,全职,3-5年
262,4163612,Node.js开发工程师,上海,2018-04-26 10:25:48,9.6,328708,LendingCar,吉林省利欧海外科技交流有限责任公司,15-50人,普陀区,大专,未融资,移动互联网,121.386996,31.223785,全职,1-3年
263,4028106,Node.js后台开发工程师,深圳,2018-04-28 09:36:58,24.0,304520,夸克链,誇克鏈科技有限公司,150-500人,南山区,本科,天使轮,移动互联网、电子商务,113.957389,22.537258,全职,3-5年
264,4368817,Node.js高级工程师,深圳,2018-04-26 17:29:09,14.0,142378,智现实,深圳市智能现实科技有限公司,15-50人,南山区,本科,A轮,"移动互联网,企业服务",113.940008,22.540521,全职,1-3年
265,3123540,Node.js后端开发工程师,上海,2018-04-26 10:15:17,22.8,44790,听果音乐,上海听果网络科技有限公司,50-150人,长宁区,大专,不需要融资,"移动互联网,电子商务",121.43864,31.21498987,全职,1-3年
266,4275487,Node.js开发工程师,深圳,2018-04-20 17:08:30,7.2,333689,渊泊科技,深圳市渊泊科技有限公司,少于15人,南山区,本科,未融资,"移动互联网,企业服务",113.938223,22.523806,全职,1-3年
267,4393694,Node.js开发工程师,杭州,2018-04-28 08:44:13,19.0,31544,睿琪软件,杭州睿琪软件有限公司,50-150人,滨江区,本科,不需要融资,数据服务,120.13932,30.18548,全职,1-3年
268,4319891,Node.js开发工程师,上海,2018-04-28 17:09:01,12.8,261231,锐索,锐索企业管理(上海)有限公司,15-50人,静安区,本科,未融资,"移动互联网,数据服务",121.438449,31.290987,全职,1-3年
269,4217960,Node.js,北京,2018-04-27 16:59:44,21.0,43565,宜创,宜创（北京）科技有限公司,15-50人,朝阳区,本科,不需要融资,"移动互联网,企业服务",116.481386,39.996903,全职,3-5年
270,3656164,Node.js 开发工程师,深圳,2018-04-13 15:59:48,10.8,263619,网飞翔,网飞翔网络科技(深圳)有限公司,少于15人,南山区,本科,不需要融资,"移动互联网,电子商务",113.941451,22.541096,全职,3-5年
271,4452519,node.js,深圳,2018-04-19 18:09:12,16.8,257563,兔比特,深圳市洛克曼科技有限公司,15-50人,南山区,大专,不需要融资,"电子商务,移动互联网",113.94059,22.55473,全职,不限
272,4188354,Node.js研发工程师,杭州,2018-04-08 11:14:22,18.4,217625,花信科技,杭州花信信息科技有限公司,少于15人,拱墅区,不限,不需要融资,"金融,移动互联网",120.106183,30.305161,全职,1-3年
273,2156122,Node.js,深圳,2018-04-25 17:46:39,12.0,95521,红鸟网络,深圳市红鸟网络科技有限公司,150-500人,南山区,大专,上市公司,"移动互联网,企业服务",113.953534,22.542215,全职,1-3年
274,3922173,高级开发工程师（node.js）,北京,2018-04-23 18:05:55,24.0,42226,慧科讯业,慧科讯业（北京）网络科技有限公司,500-2000人,朝阳区,本科,未融资,文化娱乐,116.45697,39.96243,全职,3-5年
275,3968533,Node.js开发工程师,广州,2018-04-27 09:41:20,12.0,68505,拇指部落,深圳拇指部落科技有限公司,15-50人,天河区,大专,未融资,"移动互联网,游戏",112.993461,22.994261,全职,1-3年
276,4487151,node.js后台开发工程师,北京,2018-04-26 14:25:14,28.0,10857,快乐格子,北京快乐格子信息技术有限公司,50-150人,朝阳区,本科,A轮,"移动互联网,企业服务",116.41746,39.99614,全职,5-10年
277,2955508,Node.js工程师,上海,2018-04-28 12:03:08,21.0,121448,餐加,上海餐加企业管理咨询有限公司,15-50人,浦东新区,不限,不需要融资,"企业服务,移动互联网",121.587766,31.192337,全职,1-3年
278,1164397,Node.js开发工程师,广州,2018-04-25 10:39:20,15.2,589,多益网络,广州多益网络股份有限公司,500-2000人,萝岗区,不限,不需要融资,"移动互联网,游戏",113.505122,23.161058,全职,不限
279,3680774,Node.js服务器开发工程师,北京,2018-04-27 10:45:52,21.0,88394,搜游网络,搜游网络科技（北京）有限公司,50-150人,海淀区,本科,B轮,"移动互联网,游戏",116.292829,39.946039,全职,3-5年
280,3576562,Node.js 开发工程师,北京,2018-04-09 15:16:13,12.0,251098,多媒体处理技术,北京知法平台科技有限公司,15-50人,大兴区,本科,不需要融资,"移动互联网,企业服务",116.33482,39.76472,全职,不限
281,3866648,node.js工程师,杭州,2018-04-27 09:55:57,9.0,163694,兰邻科技,杭州兰邻科技有限公司,50-150人,滨江区,大专,不需要融资,移动互联网,120.215766,30.186057,全职,1年以下
282,3278813,资深后端Node.js工程师,深圳,2018-04-28 09:02:13,19.0,70037,引导美,深圳市引导美电子商务有限公司,150-500人,福田区,本科,A轮,"移动互联网,电子商务",114.005996,22.533962,全职,5-10年
283,4242603,Node.js后端开发工程师,上海,2018-04-27 10:21:55,11.2,38630,天舍游戏,天舍（上海）文化传媒有限公司,15-50人,徐汇区,本科,天使轮,"O2O,游戏",121.431809,31.192983,全职,1-3年
284,4474467,node.js后端工程师,北京,2018-04-26 13:41:49,14.0,144646,毕加索,北京毕加索智能科技有限公司,50-150人,海淀区,本科,B轮,移动互联网,116.323042,39.975512,全职,1-3年
285,861322,服务端开发工程师(Node.js),武汉,2018-04-27 10:08:06,14.0,75773,奇葩互动,武汉奇葩互动娱乐有限公司,15-50人,东湖新技术开发区,本科,天使轮,"游戏,文化娱乐",114.399516,30.453122,全职,1-3年
286,3751837,资深 Node.js 研发工程师,广州,2018-04-27 11:02:59,16.8,140766,奢分期,广州微一网络科技有限公司,50-150人,越秀区,不限,A轮,"移动互联网,电子商务",113.306574,23.132272,全职,1-3年
287,4492624,Node.js 开发工程师,深圳,2018-04-27 11:39:52,12.0,368736,来宝互娱,深圳市来宝互娱科技有限公司,15-50人,宝安区,大专,天使轮,游戏,0.0,0.0,全职,1-3年
288,2335872,后端工程师（Node.js方向）,上海,2018-04-26 15:09:49,19.0,58635,即刻,上海即果信息技术有限公司,50-150人,杨浦区,本科,C轮,移动互联网,121.51136174,31.30482651,全职,1-3年
289,4472749,node.js后端工程师,北京,2018-04-26 13:41:49,14.0,144646,毕加索,北京毕加索智能科技有限公司,50-150人,海淀区,本科,B轮,移动互联网,116.323042,39.975512,全职,1-3年
290,4486057,Node.js开发工程师,成都,2018-04-26 11:43:22,14.0,17979,龙渊网络,成都龙渊网络科技有限公司,150-500人,高新区,本科,B轮,"移动互联网,游戏",104.055755,30.550721,全职,3-5年
291,4217120,资深 Node.js 工程师,上海,2018-04-16 11:19:43,15.8,201486,优领资本,上海优领信息科技有限公司,50-150人,长宁区,本科,不需要融资,"企业服务,金融",121.429867,31.220342,全职,1-3年
292,3822567,node.js实习生,北京,2018-04-26 16:22:43,4.8,119625,北京昆仑医云科技有限公司,北京昆仑医云科技有限公司,15-50人,东城区,本科,天使轮,"移动互联网,医疗健康",116.433221,39.920718,实习,应届毕业生
293,2299880,Node.js,北京,2018-04-27 14:04:35,24.0,146114,神州灵云,神州灵云（北京）科技有限公司,15-50人,朝阳区,本科,未融资,"移动互联网,企业服务",116.47717638,39.99873255,全职,3-5年
294,4216550,node.js开发工程师,广州,2018-04-26 14:36:58,9.2,94015,炫米科技,广州炫米信息科技有限公司,15-50人,黄埔区,本科,天使轮,"移动互联网,企业服务",113.438842,23.189324,全职,应届毕业生
295,4420214,区块链-Node.js开发,成都,2018-04-28 11:10:55,14.0,245889,网信集团,网信集团有限公司,2000人以上,高新区,大专,不需要融资,"移动互联网,金融",104.069932,30.585314,全职,3-5年
296,4251843,Node.js开发工程师,北京,2018-04-27 09:14:22,14.0,114173,所问数据,北京所问数据科技有限公司,50-150人,朝阳区,大专,A轮,"企业服务,数据服务",116.480725,39.995964,全职,1-3年
297,2827719,前端&amp;Node.js工程师,北京,2018-04-28 16:21:02,28.0,709,Weego,北京非凡维格科技有限公司,50-150人,朝阳区,本科,A轮,旅游,116.45996,39.91355,全职,3-5年
298,2601676,Node.js工程师,广州,2018-04-28 19:10:32,14.0,14059,租租车,广州力挚网络科技有限公司,500-2000人,天河区,本科,B轮,"旅游,生活服务",113.32112,23.138371,全职,不限
299,4283902,Node.js后端开发工程师,上海,2018-04-20 11:40:41,16.4,237560,魔麟网络,上海魔麟网络科技有限公司,50-150人,宝山区,本科,未融资,游戏,121.435731,31.337225,全职,1-3年
300,3048898,Node.Js开发工程师,苏州,2018-04-26 15:46:17,12.6,171188,iCoastline,江苏海岸线互联网科技有限公司,15-50人,工业园区,本科,天使轮,移动互联网,120.732362,31.255531,全职,3-5年
301,4390944,Node.js服务器开发工程师,重庆,2018-04-17 15:17:05,10.8,340302,造梦人,重庆造梦人网络科技有限公司,50-150人,南岸区,不限,不需要融资,"移动互联网,社交网络",106.566606,29.53128,全职,1-3年
302,4415118,NODE.JS,杭州,2018-04-24 10:52:27,14.0,315513,南讯软件,杭州南讯软件科技有限公司,150-500人,江干区,大专,A轮,"移动互联网,电子商务",120.259729,30.307864,全职,1-3年
303,4419276,高级Node.js开发工程师,深圳,2018-04-13 16:42:26,16.8,263619,网飞翔,网飞翔网络科技(深圳)有限公司,少于15人,南山区,本科,不需要融资,"移动互联网,电子商务",113.941451,22.541096,全职,3-5年
304,3963679,node.js开发工程师,北京,2018-04-27 11:57:34,26.0,120539,衣二三,北京衣二三网络科技有限公司,150-500人,东城区,本科,C轮,"移动互联网,电子商务",116.41322999,39.91046964,全职,3-5年
305,4207175,Node.js工程师,北京,2018-04-16 19:06:42,14.0,315647,深源恒际,深源恒际科技有限公司,15-50人,海淀区,本科,未融资,"移动互联网,数据服务",116.313701,39.978427,全职,1-3年
306,4346021,应用开发（Node.js）【实习生】【杭州】,杭州,2018-04-27 18:05:58,7.0,142528,数澜科技,杭州数澜科技有限公司,150-500人,余杭区,本科,A轮,"企业服务,数据服务",120.003543,30.291554,实习,应届毕业生
307,3938356,Node.js服务器开发,北京,2018-04-24 11:11:18,35.0,262091,无界光合,北京无界光合科技有限公司,15-50人,海淀区,本科,A轮,"社交网络,游戏",116.333677,39.984333,全职,5-10年
308,4139278,Node.js开发工程师,北京,2018-04-27 11:25:50,19.0,320897,天机数据,北京天机数测数据科技有限公司,50-150人,朝阳区,本科,A轮,"移动互联网,数据服务",116.460422,39.961372,全职,3-5年
309,4446321,Node.js开发工程师,成都,2018-04-19 09:15:51,16.0,346628,普寻科技,成都普寻科技有限公司,15-50人,武侯区,本科,不需要融资,数据服务,104.06106,30.616068,全职,3-5年
310,3363562,Node.js后端工程师,厦门,2018-04-28 10:25:30,8.4,137732,与梦信息,厦门与梦信息技术有限公司,15-50人,思明区,大专,未融资,移动互联网,118.196449,24.483828,全职,1-3年
311,4471866,node.js 后端开发工程师,深圳,2018-04-27 18:20:55,17.0,99498,兰拓科技,深圳市兰拓科技发展有限公司,15-50人,福田区,大专,天使轮,"移动互联网,电子商务",114.066681,22.53864,全职,1-3年
312,4148552,Node.js,上海,2018-04-26 19:51:33,9.0,198442,millwonder,上海米哇达信息科技有限公司,15-50人,长宁区,不限,未融资,"硬件,移动互联网",121.396335,31.205251,全职,不限
313,4226575,初级Node.js工程师,上海,2018-04-08 11:03:57,19.0,120674,维优Viewfin,上海若灵软件技术有限公司,50-150人,浦东新区,大专,A轮,"金融,移动互联网",121.510467,31.237064,全职,3-5年
314,3561539,Node.js初级研发工程师,杭州,2018-04-04 14:27:51,11.2,254381,口碑电商,杭州口碑电子商务有限公司,15-50人,西湖区,不限,不需要融资,"移动互联网,电子商务",120.066379,30.290163,全职,不限
315,4350105,Node.js服务器工程师/游戏服务器开发工程师,成都,2018-04-28 14:53:50,20.8,267147,游技网络,成都游技网络科技有限公司,50-150人,双流区,大专,不需要融资,"移动互联网,企业服务",104.069204,30.546203,全职,3-5年
316,4442698,Node.js开发工程师,上海,2018-04-26 15:23:49,16.8,104862,PwC,普华永道信息技术（上海）有限公司,500-2000人,浦东新区,本科,未融资,"移动互联网,金融",121.602387,31.205212,全职,1-3年
317,4398822,Node.js开发工程师,杭州,2018-04-26 09:30:05,12.0,29105,51公积金管家,杭州煎饼网络技术有限公司,150-500人,西湖区,本科,B轮,移动互联网,120.097912,30.288302,全职,1-3年
318,4465623,node.js研发经理,广州,2018-04-23 15:05:15,19.6,271124,扁鸿信息,广州扁鸿信息科技有限公司,少于15人,越秀区,本科,不需要融资,"医疗健康,移动互联网",113.272307,23.173383,全职,3-5年
319,4308950,Node.js开发工程师,成都,2018-04-18 10:02:24,10.8,116224,成都掌厨网,成都掌上食材科技有限公司,50-150人,武侯区,不限,A轮,"O2O,电子商务",104.065932,30.61659,全职,1-3年
320,3980240,Node.js后端开发工程师,上海,2018-04-28 16:55:50,15.8,97651,爸妈营,上海爸妈营教育科技有限公司,50-150人,杨浦区,本科,A轮,"移动互联网,教育",121.51022,31.30582,全职,1-3年
321,4361438,Node.js开发工程师,上海,2018-04-27 09:45:13,28.0,29811,关爱通,中智关爱通（上海）科技股份有限公司,150-500人,徐汇区,本科,未融资,"电子商务,企业服务",121.419234,31.175236,全职,不限
322,4464521,node.js后台,上海,2018-04-25 15:12:08,22.0,368564,上海盒思智能科技有限公司,上海盒思智能科技有限公司,少于15人,闵行区,本科,未融资,"生活服务,其他",121.416736,31.073415,全职,3-5年
323,2827877,Node.js,上海,2018-04-04 12:01:57,25.2,166260,data-whisper,上海硬咖网络科技有限公司,少于15人,徐汇区,不限,天使轮,"数据服务,其他",121.442869,31.185354,全职,不限
324,2717782,Node.js 后端研发工程师,广州,2018-04-27 11:02:59,12.6,140766,奢分期,广州微一网络科技有限公司,50-150人,越秀区,不限,A轮,"移动互联网,电子商务",113.306574,23.132272,全职,不限
325,3397101,Node.js开发工程师,深圳,2018-04-26 10:39:01,7.0,125520,汉富商贸,深圳市汉富商贸有限公司,15-50人,南山区,大专,未融资,电子商务,113.993578,22.99368,全职,1-3年
326,4481952,Node.JS工程师,上海,2018-04-25 16:47:41,14.0,62474,药明康德,上海药明康德新药开发有限公司,2000人以上,浦东新区,本科,不需要融资,医疗健康,121.607601,31.323084,全职,1-3年
327,4338262,Node.js/Angular.js开发工程师,上海,2018-04-28 14:14:00,17.0,50995,Mediasia,Mediasia Interactive,少于15人,静安区,本科,不需要融资,招聘,121.44402,31.236477,全职,5-10年
328,4405157,node.js后台开发,上海,2018-04-25 11:23:08,22.0,19787,敢聊,上海儒果网络科技有限公司,15-50人,闵行区,本科,A轮,"移动互联网,社交网络",121.416632,31.073271,全职,3-5年
329,156960,Node.js,广州,2018-04-25 13:32:59,11.2,26769,美丽阅读,广州美读信息技术有限公司,15-50人,天河区,大专,A轮,"移动互联网,文化娱乐",113.31989783,23.12615131,全职,不限
330,4344342,node.js后端工程师,上海,2018-04-18 14:34:45,19.0,127724,瑞多科技,瑞多（上海）智能科技有限公司,15-50人,浦东新区,本科,不需要融资,"生活服务,医疗健康",121.56863,31.095945,全职,3-5年
331,4353701,Node.js开发工程师,上海,2018-04-23 12:01:08,28.0,353209,ONEROOT,上海启日信息技术有限公司,15-50人,虹口区,本科,A轮,移动互联网,121.477215,31.271142,全职,3-5年
332,4293058,高级Node.js开发工程师,广州,2018-04-19 16:18:12,17.0,177725,卓睿网络,广州市卓睿网络科技有限公司,50-150人,天河区,大专,不需要融资,"移动互联网,企业服务",0.0,0.0,全职,3-5年
333,1892756,Node.js后端开发,上海,2018-04-28 15:52:40,9.6,19193,itomix,上海杰鸿信息科技有限公司,15-50人,,大专,不需要融资,"移动互联网,金融",121.53054022,31.2710194,全职,1-3年
334,3544265,node.js高级开发工程师,深圳,2018-04-27 18:20:56,19.0,99498,兰拓科技,深圳市兰拓科技发展有限公司,15-50人,福田区,本科,天使轮,"移动互联网,电子商务",114.066323,22.539161,全职,3-5年
335,4076250,Node.js 工程师-北京,北京,2018-04-26 14:30:50,28.0,75863,石墨文档,武汉初心科技有限公司,50-150人,朝阳区,本科,B轮,移动互联网,116.456054,39.933081,全职,3-5年
336,4420259,Node.js服务器开发工程师,深圳,2018-04-24 09:34:37,17.0,3624,习习网络,深圳习习网络科技有限公司,150-500人,南山区,本科,B轮,"移动互联网,教育",114.005478,22.594916,全职,3-5年
337,4294936,Node.js后端开发工程师,厦门,2018-04-02 17:55:05,5.6,214227,萌岛,厦门萌岛网络科技有限公司,15-50人,思明区,本科,A轮,"移动互联网,电子商务",118.184385,24.48903,全职,1-3年
338,3561543,Node.js高级研发工程师,杭州,2018-04-04 14:27:54,35.0,254381,口碑电商,杭州口碑电子商务有限公司,15-50人,西湖区,不限,不需要融资,"移动互联网,电子商务",120.066379,30.290163,全职,3-5年
339,2933992,Node.js开发工程师/手游服务器端开发,成都,2018-04-23 11:21:16,15.2,54771,乐远互动,成都乐远互动科技有限公司,50-150人,高新区,本科,B轮,游戏,102.892574,30.361766,全职,3-5年
340,4362551,Node.js后端研发工程师,北京,2018-04-28 14:53:39,26.0,110628,JoyCastle,北京乐城堡科技有限公司,15-50人,朝阳区,本科,不需要融资,"移动互联网,游戏",116.453971,39.932248,全职,不限
341,2724106,Node.js后端开发工程师,上海,2018-04-04 12:01:58,22.4,166260,data-whisper,上海硬咖网络科技有限公司,少于15人,徐汇区,不限,天使轮,"数据服务,其他",121.442869,31.185354,全职,不限
342,4366518,NODE.JS开发工程师,上海,2018-04-03 14:22:13,7.6,192,萌果网络,上海萌果信息科技有限公司,50-150人,徐汇区,不限,未融资,"移动互联网,游戏",121.40843,31.17676,全职,1-3年
343,4198925,高级Node.js服务器研发工程师,北京,2018-04-23 12:41:05,22.4,118242,石油工业出版社,石油工业出版社有限公司,150-500人,朝阳区,本科,不需要融资,"文化娱乐,企业服务",115.99339,39.99426,全职,不限
344,4303102,Node.js工程师,上海,2018-04-21 06:55:53,14.0,113423,优豹信息,上海优豹信息科技有限公司,15-50人,浦东新区,本科,天使轮,"企业服务,移动互联网",121.582027,31.204063,全职,1-3年
345,3074668,Node.js开发工程师,深圳,2018-04-11 16:01:59,8.2,34592,沃享科技,深圳市沃享科技有限公司,15-50人,南山区,大专,A轮,移动互联网,113.950158,22.585553,全职,1-3年
346,4370452,Node.js开发工程师,上海,2018-04-04 09:32:34,10.2,48412,马上办公,上海斟石信息技术有限公司,50-150人,徐汇区,本科,A轮,"移动互联网,O2O",121.431086,31.148275,全职,1-3年
347,4352915,Node.js开发助理工程师,上海,2018-04-28 18:33:44,8.8,355023,思可普,思可普（上海）信息科技有限公司,少于15人,浦东新区,不限,未融资,移动互联网,121.533391,31.243506,全职,1-3年
348,4491817,Node.js初中级开发工程师,杭州,2018-04-27 10:32:27,12.0,278992,场景鹿,杭州场景鹿科技有限公司,15-50人,西湖区,不限,天使轮,"生活服务,硬件",120.108103,30.298904,全职,1-3年
349,2797606,高级Node.JS开发工程师,上海,2018-04-23 14:26:32,17.0,169820,亮金,上海亮金信息技术有限公司,少于15人,青浦区,大专,未融资,"移动互联网,硬件",121.260135,31.193696,全职,1-3年
350,3834972,node.js 开发工程师（物联网方向）,厦门,2018-04-29 15:37:43,10.8,70550,农信互联,北京农信互联科技有限公司,500-2000人,集美区,本科,不需要融资,移动互联网,118.065401,24.592208,全职,1-3年
351,4363275,Node.js高级开发工程师,北京,2018-04-02 21:01:40,21.0,21372,房天下,北京搜房网络技术有限公司,2000人以上,丰台区,本科,上市公司,生活服务,116.300936,39.813635,全职,3-5年
352,4433364,node.js后端,北京,2018-04-17 12:18:09,14.6,367196,安络,北京安络技术有限公司,15-50人,海淀区,大专,B轮,电子商务、移动互联网,,,全职,3-5年
353,3862730,Node.js开发工程师,上海,2018-04-08 19:11:36,19.0,113723,上海拿米金服,上海拿米金融信息服务有限公司,150-500人,徐汇区,大专,不需要融资,"移动互联网,金融",121.410559,31.171432,全职,3-5年
354,4444906,后端开发（Node.js）,深圳,2018-04-18 17:53:51,17.0,363534,共创盈科技,深圳市共创盈科技有限公司,15-50人,福田区,大专,不需要融资,移动互联网,114.027021,22.52845,全职,1-3年
355,4390766,node.js棋牌开发,长沙,2018-04-09 16:58:06,9.6,300052,长沙后景,长沙后景网络科技有限公司,15-50人,芙蓉区,大专,不需要融资,游戏 移动互联网,112.98391,28.175357,全职,1-3年
356,3425216,初级node.js工程师,上海,2018-04-04 11:39:28,8.4,182274,247Collective,炽炎商务咨询（上海）有限公司,15-50人,静安区,不限,天使轮,"电子商务,文化娱乐",121.443766,31.219726,全职,1-3年
357,4500237,node.js后端,郑州,2018-04-28 16:09:32,17.4,343915,秒赢,河南秒赢信息技术有限公司,15-50人,高新区,本科,未融资,移动互联网、游戏,113.548892,34.794146,全职,3-5年
358,3962697,后端工程师（Node.js方向）,上海,2018-04-26 15:09:48,19.0,58635,即刻,上海即果信息技术有限公司,50-150人,杨浦区,本科,C轮,移动互联网,121.51018,31.30609,全职,1-3年
359,4485631,node.js资深工程师,北京,2018-04-27 18:19:26,21.0,1575,百度,百度在线网络技术（北京）有限公司,2000人以上,海淀区,本科,不需要融资,"移动互联网,数据服务",116.301396,40.050909,全职,3-5年
360,2807608,Node.js实习生,上海,2018-04-23 14:26:29,3.8,169820,亮金,上海亮金信息技术有限公司,少于15人,青浦区,本科,未融资,"移动互联网,硬件",121.260135,31.193696,实习,不限
361,4005542,Node.js开发工程师（偏数据方向）,杭州,2018-04-24 10:18:05,14.4,13163,个推,浙江每日互动网络科技股份有限公司,150-500人,西湖区,本科,D轮及以上,移动互联网,120.11455979,30.2903098,全职,1-3年
362,4372757,后端研发工程师Node.js,上海,2018-04-27 11:04:36,18.2,305492,氢腾科技,上海氢腾信息科技有限公司,15-50人,闵行区,大专,天使轮,移动互联网,121.364502,31.169797,全职,1-3年
363,3184123,Node.js 后端工程师,上海,2018-04-23 13:33:46,14.0,91295,执楠科技,上海执楠信息科技有限公司,15-50人,徐汇区,本科,不需要融资,"企业服务,数据服务",,,全职,1-3年
364,3607977,"JS,Javascript,node.js工程师",深圳,2018-04-20 15:10:16,7.0,65843,赛尔姆信息科技,深圳赛尔姆信息科技有限公司,少于15人,福田区,大专,未融资,"移动互联网,企业服务",114.067239,22.547158,全职,1-3年
365,4391783,node.js资深工程师,北京,2018-04-26 10:23:34,21.0,1575,百度,百度在线网络技术（北京）有限公司,2000人以上,海淀区,本科,不需要融资,"移动互联网,数据服务",116.301396,40.050909,全职,5-10年
366,4445951,node.js高级开发工程师,北京,2018-04-18 21:01:29,21.0,90202,踢球者联盟,北京踢球者联盟科技有限公司,15-50人,朝阳区,本科,天使轮,"移动互联网,文化娱乐",116.451509,39.963576,全职,3-5年
367,4421556,高级 Node.js 服务端工程师,北京,2018-04-26 11:03:37,28.0,134339,CELLA,北京易码云天科技有限公司,15-50人,朝阳区,大专,A轮,"企业服务,数据服务",116.445223,39.948013,全职,3-5年
368,3982120,Node.js研发架构师,北京,2018-04-17 21:33:35,45.0,3328,好未来,北京世纪好未来教育科技有限公司,2000人以上,海淀区,本科,上市公司,"移动互联网,教育",116.314526,39.982338,全职,5-10年
369,4194297,node.js 后端开发,海口,2018-04-23 09:44:13,5.6,332149,海南玉螺,海南玉螺信息技术有限公司,15-50人,美兰区,本科,天使轮,移动互联网,110.35687,20.04965,全职,不限
370,4381702,Node.js后端开发,北京,2018-04-08 14:28:01,24.8,321104,终极天橙,北京终极天橙信息技术有限公司,15-50人,朝阳区,本科,A轮,移动互联网,0.0,0.0,全职,3-5年
371,3827481,node.js游戏服务端,深圳,2018-04-28 11:45:52,12.0,139931,小多游戏,深圳小多科技有限公司,15-50人,南山区,本科,未融资,游戏,113.942115,22.548654,全职,1-3年
372,4274598,Node.JS后端工程师,武汉,2018-04-26 13:43:47,13.2,344163,嘿哟科技,武汉嘿呦科技有限公司,15-50人,江岸区,本科,天使轮,移动互联网,0.0,0.0,全职,1-3年
373,4055022,资深服务器开发工程师（Node.js）,上海,2018-04-25 17:46:24,21.4,23239,DeNA China,上海纵游网络技术有限公司,150-500人,杨浦区,本科,不需要融资,"移动互联网,游戏",121.99341,30.994275,全职,3-5年
374,2866772,Node.js后端开发工程师,深圳,2018-04-28 14:52:30,17.8,32687,前海汇流,深圳市前海汇流信息科技有限公司,50-150人,南山区,本科,A轮,移动互联网,113.9422,22.54878,全职,1-3年
375,4444023,区块链/以太坊/node.js开发,北京,2018-04-18 16:48:05,21.0,90202,踢球者联盟,北京踢球者联盟科技有限公司,15-50人,朝阳区,本科,天使轮,"移动互联网,文化娱乐",116.451509,39.963576,全职,不限
376,4121004,Node.js 后端工程师职位,北京,2018-04-02 13:49:55,20.2,40705,WalktheChat,WalktheChat,少于15人,东城区,本科,不需要融资,移动互联网,116.43679,39.9364,全职,3-5年
377,4294160,Node.js后端开发工程师,广州,2018-04-19 11:30:14,9.8,54251,金十数据,广州金十信息科技有限公司,50-150人,海珠区,本科,未融资,"移动互联网,金融",113.321787,23.08993,全职,1-3年
378,4464841,后端开发工程师（Node.js方向）,成都,2018-04-23 14:06:49,8.2,32792,悠云,成都悠云高科技有限公司,少于15人,高新区,本科,未融资,"移动互联网,数据服务",104.0562,30.53872,全职,1-3年
379,4306924,node.js游戏后端开发,武汉,2018-04-23 14:38:24,10.8,255560,微鑫时代,武汉微鑫时代科技责任有限公司,150-500人,洪山区,不限,不需要融资,"移动互联网,其他",114.405137,30.506297,全职,1-3年
380,3786862,Node.js开发工程师实习,杭州,2018-04-16 17:42:29,3.8,112272,纳舍科技,杭州纳舍科技有限公司,少于15人,江干区,本科,未融资,"企业服务,数据服务",120.332688,30.315203,实习,应届毕业生
381,4494583,node.js后端开发工程师,北京,2018-04-27 15:53:53,28.0,310977,森众,潍坊森众商贸有限公司,2000人以上,海淀区,本科,未融资,移动互联网、电子商务,116.311705,40.033074,全职,3-5年
382,3561541,Node.js中级研发工程师,杭州,2018-04-04 14:27:47,18.2,254381,口碑电商,杭州口碑电子商务有限公司,15-50人,西湖区,不限,不需要融资,"移动互联网,电子商务",120.066379,30.290163,全职,1-3年
383,4421566,初/中级 Node.js 服务端工程师,北京,2018-04-28 10:47:42,14.0,134339,CELLA,北京易码云天科技有限公司,15-50人,朝阳区,大专,A轮,"企业服务,数据服务",116.445223,39.948013,全职,1-3年
384,4155239,Node.js后端开发工程师,深圳,2018-04-28 10:55:56,14.0,24510,逗拍,深圳市大头兄弟文化传播有限公司,15-50人,宝安区,大专,A轮,"移动互联网,文化娱乐",113.86142,22.56539,全职,不限
385,3355488,Node.js 资深后端开发工程师,广州,2018-04-24 11:29:50,12.4,66089,芹菜科技,广州芹菜信息科技有限公司,15-50人,天河区,大专,天使轮,游戏,113.38963,23.12632,全职,1-3年
386,3672459,Node.js 服务端高级工程师,南京,2018-04-09 13:26:30,21.0,102256,大翼科技,南京大翼航空科技有限公司,15-50人,浦口区,不限,未融资,其他,118.642081,32.036511,全职,1-3年
387,3997515,Node.js服务器开发工程师,深圳,2018-04-08 11:14:31,17.0,141370,宗申比亚乔,宗申·比亚乔佛山摩托车企业有限公司,150-500人,南山区,大专,不需要融资,其他,113.937987,22.523392,全职,1-3年
388,4102616,Node.js后端开发工程师,杭州,2018-04-16 16:05:33,19.0,309148,浙江蚁加科技有限公司,浙江蚁加科技有限公司,15-50人,余杭区,不限,未融资,O2O,119.965392,30.270829,全职,不限
389,4223214,Node.js开发实习生,北京,2018-04-28 22:18:07,5.4,328933,初到科技,北京初到科技有限公司,少于15人,昌平区,本科,天使轮,"移动互联网,企业服务",116.348162,40.080092,实习,应届毕业生
390,4138893,.net/c#/java/node.js/php,郑州,2018-04-28 09:17:06,12.0,174872,YHCloud,郑州盈和软件技术有限公司,15-50人,高新区,本科,不需要融资,"移动互联网,社交网络",113.599858,34.797186,全职,1-3年
391,3062123,Node.js全栈工程师,北京,2018-04-28 11:01:53,19.0,3038,Gridsum 国双,北京国双科技有限公司,500-2000人,海淀区,本科,上市公司,"数据服务,企业服务",116.33175,39.97599007,全职,3-5年
392,4347481,游戏Node.js服务器开发,北京,2018-04-25 20:01:42,21.0,318262,ME2ZEN,北京明途真科技有限公司,50-150人,朝阳区,本科,不需要融资,游戏,116.433706,39.921442,全职,应届毕业生
393,4474780,node.js全栈工程师,北京,2018-04-27 09:37:50,21.0,100652,梦哆啦,北京梦哆啦网络科技有限公司,50-150人,西城区,本科,A轮,"移动互联网,金融",116.35276,39.94141,全职,3-5年
394,3865685,Node.js 技术专家-P7-平台数据技术事业群,杭州,2018-04-24 22:54:00,35.0,153849,蚂蚁金服集团,支付宝(杭州)信息技术有限公司,2000人以上,西湖区,本科,B轮,"金融,移动互联网",120.125788,30.272627,全职,3-5年
395,4053142,【校招】游戏Node.js服务器开发,北京,2018-04-25 20:30:24,17.0,6702,Zenjoy,北京创智优品科技有限公司,150-500人,东城区,本科,不需要融资,"移动互联网,游戏",116.4334,39.92111,全职,应届毕业生
396,4151919,Node.js（后端）,北京,2018-04-28 17:44:38,28.0,325708,静帆科技,北京静帆科技有限公司,50-150人,海淀区,本科,不需要融资,"移动互联网,金融",116.241271,40.071217,全职,1-3年
397,4250054,Node.js 实习生,上海,2018-04-14 10:01:51,5.6,152688,上海进记,上海进记网络科技有限公司,少于15人,嘉定区,不限,未融资,"电子商务,移动互联网",121.158487,31.288002,实习,应届毕业生
398,4169020,Node.js全栈开发工程师,上海,2018-04-08 10:24:03,14.0,60054,掌门1对1在线教育,上海掌小门教育科技有限公司,500-2000人,虹口区,本科,D轮及以上,"移动互联网,教育",121.488669,31.259278,全职,3-5年
399,4429727,Node.Js Backend Developer,上海,2018-04-16 18:28:18,24.0,36286,StoreHub,StoreHub.com,少于15人,长宁区,本科,A轮,"移动互联网,企业服务",121.402257,31.202824,全职,1-3年
400,3937278,高级Node.js工程师 (全栈),上海,2018-04-18 20:55:42,16.8,114592,上海怡新,上海怡新信息技术有限公司,15-50人,长宁区,本科,未融资,"移动互联网,数据服务",121.43245,31.20869,全职,3-5年
401,1919043,Node.js后台开发工程师,成都,2018-04-27 14:22:02,9.6,132268,道格腾,成都道格腾科技有限公司,15-50人,,本科,天使轮,移动互联网,104.05707497,30.58596317,全职,1-3年
402,3580488,node.js全栈开发工程师,北京,2018-04-23 21:45:32,15.8,155217,全迹科技,北京全迹科技有限公司,15-50人,朝阳区,本科,天使轮,"硬件,其他",116.498254,39.975406,全职,3-5年
403,4470655,node.js后端开发工程师,成都,2018-04-24 10:58:02,8.2,166768,前未信息,上海前未信息科技有限公司,15-50人,高新区,本科,未融资,"移动互联网,电子商务",104.067656,30.551731,全职,1-3年
404,4287972,资深游戏服务器开发工程师（Node.js）,上海,2018-04-25 17:46:25,26.0,23239,DeNA China,上海纵游网络技术有限公司,150-500人,杨浦区,本科,不需要融资,"移动互联网,游戏",121.51142,31.26148,全职,3-5年
405,4493048,node.js后端,上海,2018-04-27 12:50:56,17.0,112282,诚选家,上海友氪网络科技有限公司,少于15人,闵行区,大专,天使轮,"移动互联网,电子商务",121.463469,31.021331,全职,不限
406,4431335,node.js服务端/express后台开发,上海,2018-04-17 10:04:26,24.8,238414,狮翼网络,上海狮翼网络科技有限公司,15-50人,静安区,不限,未融资,"游戏,移动互联网",121.46662,31.267475,全职,1-3年
407,4498012,node.js游戏服务器,深圳,2018-04-28 11:11:28,14.0,3882,游戏谷,北京游戏谷信息技术有限公司,500-2000人,南山区,本科,不需要融资,游戏,113.942115,22.548654,全职,1-3年
408,4329604,Node.js后端开发工程师,苏州,2018-04-23 15:57:09,16.8,172126,科航科技,科航（苏州）信息科技有限公司,15-50人,工业园区,本科,不需要融资,"数据服务,硬件",120.733269,31.254751,全职,1-3年
409,4502055,node.js后端,北京,2018-04-29 12:08:12,28.0,314912,众愈科技,北京众愈科技有限公司,15-50人,朝阳区,本科,天使轮,移动互联网,116.490632,39.985193,全职,5-10年
410,4297859,资深Node.js开发工程师（游戏服务器）,上海,2018-04-26 15:35:10,24.0,198106,跳跃互娱,上海跳跃互动娱乐发展有限公司,150-500人,浦东新区,本科,不需要融资,游戏,121.601566,31.206666,全职,3-5年
411,2659470,node.js游戏服务端主程,上海,2018-04-25 12:00:09,19.0,30830,哔哩哔哩,上海幻电信息科技有限公司,2000人以上,浦东新区,本科,上市公司,"移动互联网,文化娱乐",121.99341,30.994275,全职,5-10年
412,4265735,Node.js/Html5前端开发工程师,深圳,2018-04-27 11:19:45,25.2,195436,Finogeeks,珠海凡泰极客科技有限责任公司,50-150人,南山区,本科,A轮,"金融,社交网络",113.94225,22.519682,全职,3-5年
413,3243817,Node.js 游戏后端工程师,深圳,2018-04-27 09:53:26,24.0,33375,凌墨互动,深圳市凌墨互动科技有限公司,少于15人,宝安区,不限,天使轮,移动互联网,113.866158,22.568065,全职,3-5年
414,1420804,Node.js后端工程师,杭州,2018-04-16 17:42:29,8.4,112272,纳舍科技,杭州纳舍科技有限公司,少于15人,江干区,本科,未融资,"企业服务,数据服务",120.33268762,30.31520285,全职,1-3年
415,4303307,node.js服务端/express后台开发,上海,2018-04-08 17:18:33,16.8,347811,珑翼网络,上海珑翼网络科技有限公司,50-150人,静安区,不限,C轮,"移动互联网,电子商务",121.46662,31.267475,全职,1-3年
416,2844015,Node.js服务器主程,北京,2018-04-28 11:38:06,26.0,159108,大唐互娱,北京棋开德胜科技有限公司,150-500人,朝阳区,本科,不需要融资,"移动互联网,游戏",116.414402,40.043555,全职,5-10年
417,4274739,Javascript 工程师 Node.js方向,上海,2018-04-28 09:52:31,13.2,159038,蜂雀网络,上海蜂雀网络科技有限公司,15-50人,闵行区,本科,未融资,"游戏,企业服务",121.381709,31.112813,全职,1-3年
418,4391764,node.js架构师,北京,2018-04-26 10:23:34,21.0,1575,百度,百度在线网络技术（北京）有限公司,2000人以上,海淀区,本科,不需要融资,"移动互联网,数据服务",116.301396,40.050909,全职,5-10年
419,3646188,NODE.JS游戏服务器开发,广州,2018-04-18 18:24:06,16.8,265914,优视电子,广州优视电子有限责任公司,15-50人,天河区,大专,未融资,"移动互联网,游戏",,,全职,1-3年
420,4397001,node.js区块链开发工程师,广州,2018-04-24 11:53:52,22.0,361589,天朗青清,北京天朗青清文化传播有限公司,15-50人,天河区,本科,未融资,"移动互联网,金融",113.326919,23.121304,全职,1年以下
421,4238243,Node.js/Html5前端开发工程师（广州）,广州,2018-04-27 11:19:45,21.0,195436,Finogeeks,珠海凡泰极客科技有限责任公司,50-150人,天河区,本科,A轮,"金融,社交网络",113.321822,23.118572,全职,3-5年
422,3675908,Node.js游戏服务端程序员（新人）,深圳,2018-04-26 15:31:58,4.2,183399,Apogames,深圳市爱谱海网络有限公司,少于15人,南山区,不限,天使轮,游戏,113.944613,22.540971,全职,不限
423,4484186,Node.js全栈工程师,杭州,2018-04-26 09:36:35,15.2,282603,捷富,浙江捷富信息科技有限公司,50-150人,余杭区,大专,未融资,"移动互联网,金融",120.00487,30.292227,全职,1-3年
424,4488756,Node.js游戏服务器开发工程师,上海,2018-04-26 16:22:34,14.0,348413,土拨鼠,上海土拨鼠网络科技有限公司,150-500人,闵行区,大专,不需要融资,"移动互联网,教育",121.360514,31.124351,全职,1-3年
425,2972986,node.js游戏程序员,上海,2018-04-10 18:13:28,4.8,47387,lightime,上海光时信息技术有限公司,15-50人,普陀区,大专,未融资,游戏,121.390262,31.235716,全职,不限
426,4246926,Node.js全栈开发高级工程师,南京,2018-04-16 19:38:11,19.0,102982,久康云,久康云健康科技股份有限公司,150-500人,雨花台区,本科,上市公司,"移动互联网,医疗健康",118.76095,31.97642,全职,1-3年
427,2239803,Web前端高级工程师 [Node.js方向],北京,2018-04-27 10:57:50,21.0,129,陌陌,北京陌陌科技有限公司,500-2000人,朝阳区,本科,上市公司,社交网络,115.99339,39.99426,全职,1-3年
428,4253548,Node.js全栈工程师,北京,2018-04-16 15:06:20,31.0,339770,优澜科技,北京优澜科技有限公司,15-50人,海淀区,本科,未融资,移动互联网,116.320043,39.96574,全职,5-10年
429,4181048,Node.js Web前端开发工程师,北京,2018-04-12 14:26:27,22.8,63302,美科科技-Microduino,美科科技（北京）有限公司,50-150人,海淀区,本科,A轮,硬件,116.354905,40.042578,全职,3-5年
430,2309189,Node.js 全栈开发,南京,2018-04-23 09:06:23,11.2,1327,应酷,南京应酷文化传播有限公司,少于15人,浦口区,不限,未融资,"移动互联网,企业服务",118.641293,32.037117,全职,1-3年
431,3436185,Node.js工程师（大前端部）,上海,2018-04-23 11:03:53,24.0,51480,饿了么,拉扎斯网络科技（上海）有限公司,2000人以上,普陀区,本科,D轮及以上,移动互联网,121.381451,31.232973,全职,不限
432,4347590,【校招】游戏服务器开发工程师node.js,北京,2018-04-23 15:28:33,17.0,318262,ME2ZEN,北京明途真科技有限公司,50-150人,朝阳区,本科,不需要融资,游戏,116.433706,39.921442,全职,应届毕业生
433,4465233,Node.js全栈工程师,北京,2018-04-23 16:32:32,39.0,167475,见微数据,北京自回归信息科技有限公司,15-50人,朝阳区,本科,天使轮,企业服务,116.491369,39.912352,全职,3-5年
434,4441412,node.js全栈工程师,北京,2018-04-18 13:39:36,14.0,108634,赛四达,北京赛四达科技股份有限公司,50-150人,朝阳区,大专,上市公司,移动互联网,116.504908,39.98336,全职,1-3年
435,4368818,Node.js前端工程师,北京,2018-04-03 17:26:59,19.0,357635,晓币科技,北京晓币科技有限公司,少于15人,朝阳区,本科,天使轮,移动互联网,116.470515,39.913285,全职,3-5年
436,1131161,后端node.js开发工程师（python ruby）,北京,2018-04-28 10:09:47,24.8,98197,Moka,北京希瑞亚斯科技有限公司,50-150人,海淀区,本科,A轮,企业服务,116.313161,39.984635,全职,不限
437,4486147,web前端开发工程师（node.js）,北京,2018-04-26 11:49:38,19.0,42226,慧科讯业,慧科讯业（北京）网络科技有限公司,500-2000人,朝阳区,本科,未融资,文化娱乐,116.45697,39.96243,全职,1-3年
438,4250788,Node.JS开发 (Java and .Net background),上海,2018-04-13 13:28:24,16.8,104862,PwC,普华永道信息技术（上海）有限公司,500-2000人,浦东新区,本科,未融资,"移动互联网,金融",121.60148145,31.20663464,全职,3-5年
439,4354765,Java 转 Node.js 后端工程师,西安,2018-03-30 22:01:08,6.2,59738,本初网络,陕西本初网络科技有限公司,15-50人,雁塔区,不限,未融资,"移动互联网,企业服务",108.903112,34.240343,全职,不限
440,3983406,C PHP Python node.js实习生新手,长沙,2018-04-11 15:12:09,2.8,306856,兜乐科技,福州兜乐网络科技有限公司,50-150人,芙蓉区,大专,不需要融资,"移动互联网,游戏",113.004275,28.194685,实习,不限
441,4322737,JS后端开发工程师(node.js),上海,2018-04-27 10:07:16,12.0,170974,上海悟途信息科技有限公司,上海悟途信息科技有限公司,15-50人,长宁区,本科,天使轮,移动互联网,121.353229,31.221083,全职,1-3年
442,4063208,Node.js实习J10710,上海,2018-04-25 11:53:07,2.8,165,UCloud,上海优刻得信息科技有限公司,500-2000人,杨浦区,本科,D轮及以上,"数据服务,企业服务",0.0,0.0,实习,不限
