,职位编码,职位名称,所在城市,发布日期,薪资待遇(k),公司编码,公司名称,公司全称,公司规模,所在区域,最低学历,融资状态,公司类型,经度,纬度,全职/实习,工作经验
0,4389534,数据挖掘,北京,2018-04-28 13:49:52,21.0,110502,洋钱罐,北京瓴岳信息技术有限公司,150-500人,朝阳区,本科,不需要融资,"移动互联网,金融",116.460733,39.929643,全职,1-3年
1,4056728,数据挖掘工程师,北京,2018-04-25 11:19:14,24.0,109,马蜂窝,北京蚂蜂窝网络科技有限公司,500-2000人,朝阳区,本科,D轮及以上,"移动互联网,旅游",,,全职,1-3年
2,4325901,数据挖掘,西安,2018-04-26 14:24:21,14.0,20955,Yeahmobi,西安点告网络科技有限公司,150-500人,雁塔区,本科,上市公司,移动互联网,108.907091,34.239199,全职,3-5年
3,4457486,数据挖掘,杭州,2018-04-28 13:20:03,38.0,256558,备胎控股集团,浙江备胎网络科技有限公司,2000人以上,拱墅区,本科,B轮,"移动互联网,金融",120.118342,30.336031,全职,3-5年
4,4292209,数据挖掘,北京,2018-04-27 17:00:40,26.0,65482,云漾科技,北京云漾信息科技有限公司,150-500人,昌平区,硕士,不需要融资,"移动互联网,企业服务",116.348162,40.080092,全职,3-5年
5,4414864,数据挖掘,北京,2018-04-26 19:31:33,28.0,82991,数美,北京数美时代科技有限公司,150-500人,朝阳区,本科,B轮,"企业服务,数据服务",116.465953,40.021083,全职,1-3年
6,2836397,数据挖掘,北京,2018-04-30 00:16:16,19.0,139078,唯医网,北京欧应信息技术有限公司,150-500人,朝阳区,硕士,B轮,"移动互联网,医疗健康",115.994034,39.993442,全职,3-5年
7,2078720,数据挖掘工程师,杭州,2018-04-28 10:12:53,28.0,2380,浙江执御信息技术有限公司,浙江执御信息技术有限公司,2000人以上,拱墅区,本科,B轮,"移动互联网,数据服务",120.11374999,30.33331001,全职,1-3年
8,4403509,数据挖掘师,广州,2018-04-27 17:12:46,24.0,35776,寄锦教育,广州寄锦教育科技有限公司,150-500人,天河区,本科,不需要融资,教育,113.333276,23.132749,全职,3-5年
9,1866362,数据挖掘,北京,2018-04-27 16:24:25,38.0,50604,roobo,北京智能管家科技有限公司,150-500人,东城区,本科,B轮,移动互联网,116.433221,39.920718,全职,3-5年
10,4398066,数据挖掘,北京,2018-04-28 09:30:37,26.0,27129,巧达数据,巧达科技（北京）有限公司,50-150人,海淀区,硕士,B轮,"企业服务,数据服务",116.311797,39.983663,全职,3-5年
11,4251149,数据挖掘工程师,北京,2018-04-28 10:53:53,19.0,118933,HIGO,北京乐呵互动信息技术有限公司,50-150人,朝阳区,本科,B轮,电子商务,116.993595,39.993662,全职,1-3年
12,4426271,数据挖掘,杭州,2018-04-28 10:01:54,10.8,272040,霖梓网络,杭州霖梓网络科技有限公司,150-500人,滨江区,本科,A轮,"移动互联网,金融",120.160786,30.184456,全职,3-5年
13,3884045,数据挖掘/分析,北京,2018-04-28 18:20:45,22.8,41878,商询科技,北京商询科技有限公司,50-150人,朝阳区,硕士,A轮,"企业服务,数据服务",116.455703,39.924317,全职,3-5年
14,3714815,数据挖掘,北京,2018-04-25 10:16:03,22.8,50702,美团点评,北京三快在线科技有限公司,2000人以上,朝阳区,本科,D轮及以上,"移动互联网,O2O",116.486654,40.007208,全职,3-5年
15,2472525,数据挖掘,杭州,2018-04-27 09:48:37,28.0,2380,浙江执御信息技术有限公司,浙江执御信息技术有限公司,2000人以上,拱墅区,硕士,B轮,"移动互联网,数据服务",120.113688,30.332881,全职,不限
16,3927257,数据挖掘工程师,杭州,2018-04-26 19:31:33,28.0,82991,数美,北京数美时代科技有限公司,150-500人,余杭区,本科,B轮,"企业服务,数据服务",119.97175,30.334556,全职,1-3年
17,4395664,数据挖掘/机器学习,北京,2018-04-28 13:49:52,21.0,110502,洋钱罐,北京瓴岳信息技术有限公司,150-500人,朝阳区,本科,不需要融资,"移动互联网,金融",116.460733,39.929643,全职,1-3年
18,4286293,数据挖掘/数据分析,北京,2018-04-28 18:20:45,22.8,41878,商询科技,北京商询科技有限公司,50-150人,朝阳区,本科,A轮,"企业服务,数据服务",116.455703,39.924317,全职,3-5年
19,4392300,数据挖掘,北京,2018-04-27 16:24:25,35.0,50604,roobo,北京智能管家科技有限公司,150-500人,东城区,本科,B轮,移动互联网,116.433221,39.920718,全职,1-3年
20,3274779,数据挖掘/模型开发工程师,北京,2018-04-29 23:09:26,21.0,219252,融慧金科,融慧金科金融服务外包（北京）有限公司,50-150人,朝阳区,本科,A轮,"金融,数据服务",116.477076,39.91244,全职,1-3年
21,3891154,数据挖掘工程师,北京,2018-04-28 13:33:52,19.0,57049,InnoTREE,北京因果树网络科技有限公司,50-150人,海淀区,本科,B轮,金融,116.306683,39.984791,全职,3-5年
22,4217576,数据挖掘工程师 (MJ000420),南京,2018-04-26 11:04:22,18.0,6102,YOHO!,南京新与力文化传播有限公司,500-2000人,建邺区,不限,D轮及以上,"电子商务,文化娱乐",0.0,0.0,全职,3-5年
23,4203086,数据挖掘工程师,北京,2018-04-26 11:00:29,12.0,123070,零秒科技,北京零秒科技有限公司,15-50人,海淀区,本科,A轮,"移动互联网,企业服务",116.308446,40.055569,全职,1-3年
24,635342,数据挖掘,北京,2018-04-27 20:45:03,26.0,534,京东金融,京东金融,2000人以上,朝阳区,本科,上市公司,金融,116.38971277,39.99811635,全职,5-10年
25,4318613,数据挖掘,上海,2018-04-24 10:10:02,24.0,251737,享换机,晋松（上海）网络信息技术有限公司,50-150人,杨浦区,本科,A轮,"移动互联网,金融",121.51243,31.304638,全职,3-5年
26,3948326,数据挖掘工程师,北京,2018-04-27 11:06:18,28.0,929,最右,北京小川在线网络技术有限公司,150-500人,海淀区,本科,B轮,移动互联网,116.368056,39.980092,全职,1-3年
27,596198,数据挖掘,北京,2018-04-28 09:46:24,26.0,31173,悠易,悠易互通（北京）广告有限公司,150-500人,朝阳区,本科,C轮,广告营销,116.459324,39.918852,全职,不限
28,3750209,数据挖掘工程师,北京,2018-04-27 21:46:03,20.8,68719,安心医生,北京惠福康信息咨询有限公司,50-150人,朝阳区,本科,B轮,移动互联网,116.442184,39.923132,全职,5-10年
29,4232640,数据挖掘工程师,北京,2018-04-28 15:14:07,21.0,136978,玖富集团,玖富金科控股集团有限责任公司,2000人以上,朝阳区,本科,C轮,金融,116.480792,39.99613,全职,3-5年
30,4391997,数据挖掘工程师,北京,2018-04-28 13:49:52,21.0,110502,洋钱罐,北京瓴岳信息技术有限公司,150-500人,朝阳区,本科,不需要融资,"移动互联网,金融",116.460733,39.929643,全职,1-3年
31,3847053,数据挖掘工程师,北京,2018-04-26 19:31:35,28.0,82991,数美,北京数美时代科技有限公司,150-500人,朝阳区,本科,B轮,"企业服务,数据服务",116.465953,40.021083,全职,1-3年
32,2161830,数据挖掘工程师,北京,2018-04-28 13:33:53,31.0,57049,InnoTREE,北京因果树网络科技有限公司,50-150人,海淀区,本科,B轮,金融,116.30668252,39.98479142,全职,3-5年
33,2603441,数据挖掘工程师,北京,2018-04-28 11:01:53,28.0,3038,Gridsum 国双,北京国双科技有限公司,500-2000人,海淀区,本科,上市公司,"数据服务,企业服务",116.33175,39.97599007,全职,3-5年
34,4353793,数据挖掘工程师,深圳,2018-04-28 09:40:14,17.8,155450,十色信息科技,深圳市十色信息科技有限公司,15-50人,福田区,本科,未融资,"电子商务,移动互联网",114.023168,22.531527,全职,1-3年
35,4100685,数据挖掘工程师,苏州,2018-04-23 09:17:29,15.8,155938,苏州锦佰安,苏州锦佰安信息技术有限公司,15-50人,工业园区,本科,天使轮,信息安全,120.733523,31.254644,全职,3-5年
36,3770497,数据挖掘工程师,深圳,2018-04-29 11:11:34,14.0,54631,丝路天地,深圳丝路天地电子商务有限公司,50-150人,南山区,本科,A轮,旅游,113.914678,22.514453,全职,3-5年
37,3932273,数据挖掘工程师-真格基金投资企业（忆年）,北京,2018-04-28 22:35:14,34.0,23702,真格基金,北京真格天成投资管理有限公司,50-150人,东城区,本科,不需要融资,金融,116.431523,39.910745,全职,3-5年
38,4031496,数据挖掘工程师,北京,2018-04-28 13:02:28,28.0,16869,朗播网,北京博智天下信息技术有限公司,150-500人,海淀区,本科,B轮,教育,116.31287,40.03445,全职,3-5年
39,3641457,数据挖掘工程师,厦门,2018-04-24 17:52:17,21.0,19281,欢乐逛,厦门欢乐逛科技股份有限公司,150-500人,思明区,本科,上市公司,"电子商务,企业服务",118.19703,24.48833,全职,不限
40,3330342,数据挖掘工程师,北京,2018-04-28 10:30:22,35.0,29795,罗辑思维,北京思维造物信息科技有限公司,150-500人,朝阳区,本科,B轮,"移动互联网,文化娱乐",115.99339,39.99426,全职,不限
41,4460515,数据挖掘工程师（增长）,北京,2018-04-29 03:06:41,35.0,1880,快手,北京达佳互联信息技术有限公司,500-2000人,海淀区,本科,D轮及以上,移动互联网,116.316508,39.984066,全职,3-5年
42,3680992,数据挖掘工程师,北京,2018-04-29 01:21:47,29.0,7835,金山办公软件,北京金山软件有限公司,2000人以上,海淀区,本科,上市公司,移动互联网,116.32274,40.036741,全职,3-5年
43,1320087,数据挖掘,北京,2018-04-25 09:43:52,14.8,40924,挖酒网,北京挖玖电子商务有限公司,150-500人,东城区,本科,B轮,电子商务,116.40873,39.955321,全职,1年以下
44,4501497,数据挖掘工程师,北京,2018-04-28 18:45:17,28.0,5706,洋葱数学,光合新知（北京）科技有限公司,150-500人,朝阳区,不限,C轮,"移动互联网,教育",116.500139,39.991999,全职,3-5年
45,4288140,数据挖掘工程师,北京,2018-04-27 16:28:03,28.0,10723,酷划在线,北京酷划在线网络技术有限公司,50-150人,海淀区,本科,不需要融资,移动互联网,116.355305,40.009084,全职,3-5年
46,4058963,数据挖掘工程师,北京,2018-04-21 18:05:59,28.0,1880,快手,北京达佳互联信息技术有限公司,500-2000人,海淀区,本科,D轮及以上,移动互联网,116.331194,39.993965,全职,3-5年
47,4157227,数据挖掘与量化分析师,北京,2018-04-28 09:20:53,28.0,279939,蔷薇控股,蔷薇控股股份有限公司,150-500人,朝阳区,硕士,不需要融资,"企业服务,数据服务",116.491719,39.996532,全职,3-5年
48,3602727,数据挖掘工程师,北京,2018-04-27 21:46:03,16.4,68719,安心医生,北京惠福康信息咨询有限公司,50-150人,朝阳区,本科,B轮,移动互联网,116.442184,39.923132,全职,3-5年
49,4488801,数据挖掘工程师,北京,2018-04-27 19:11:46,38.0,82991,数美,北京数美时代科技有限公司,150-500人,朝阳区,本科,B轮,"企业服务,数据服务",116.465999,40.021827,全职,1-3年
50,4204132,数据挖掘,成都,2018-04-27 17:36:42,17.8,118031,柠檬科技,成都柠檬时光科技有限公司,150-500人,武侯区,本科,天使轮,金融,104.06722,30.63165,全职,3-5年
51,3950924,数据挖掘工程师,北京,2018-04-26 16:24:16,31.0,172285,猎户星空,北京猎户星空科技有限公司,150-500人,朝阳区,本科,A轮,"移动互联网,硬件",116.458741,39.932851,全职,不限
52,4347615,数据挖掘工程师,北京,2018-04-26 11:35:04,31.0,166345,绿湾,杭州绿湾网络科技有限公司,150-500人,海淀区,本科,B轮,"企业服务,数据服务",116.359972,40.039972,全职,3-5年
53,2232250,数据挖掘工程师,北京,2018-04-28 13:33:52,30.2,57049,InnoTREE,北京因果树网络科技有限公司,50-150人,海淀区,本科,B轮,金融,116.30678995,39.98443439,全职,3-5年
54,4029251,数据挖掘工程师,北京,2018-04-28 10:30:01,10.8,21567,安智,北京力天无限网络技术有限公司,150-500人,海淀区,本科,B轮,移动互联网,116.359972,40.039972,全职,不限
55,3581989,数据挖掘与建模专员,北京,2018-04-28 09:37:41,24.8,3450,北京捷越联合,北京捷越联合信息咨询有限公司,2000人以上,东城区,本科,不需要融资,金融,116.43226115,39.92202918,全职,3-5年
56,2795702,数据挖掘,杭州,2018-04-25 11:21:07,17.0,69641,健培,杭州健培科技有限公司,150-500人,下沙,本科,不需要融资,"移动互联网,医疗健康",,,全职,1-3年
57,4271148,数据挖掘工程师,北京,2018-04-16 16:03:29,26.0,65482,云漾科技,北京云漾信息科技有限公司,150-500人,昌平区,本科,不需要融资,"移动互联网,企业服务",116.348162,40.080092,全职,3-5年
58,3827305,数据挖掘工程师,北京,2018-04-28 18:20:46,22.8,41878,商询科技,北京商询科技有限公司,50-150人,朝阳区,硕士,A轮,"企业服务,数据服务",116.455703,39.924317,全职,3-5年
59,3301094,数据挖掘工程师,上海,2018-04-28 15:14:41,16.8,56746,贝米钱包,上海贝涛金融信息服务有限公司,50-150人,徐汇区,本科,A轮,金融,121.446889,31.204067,全职,1-3年
60,3741965,数据挖掘工程师,北京,2018-04-25 19:23:48,19.0,202067,优信集团,优舫（北京）信息科技有限公司,2000人以上,朝阳区,本科,D轮及以上,"电子商务,移动互联网",116.473585,39.991772,全职,不限
61,4255170,数据挖掘,北京,2018-04-12 14:10:13,28.0,139755,京东商城,北京京东世纪贸易有限公司,2000人以上,大兴区,本科,上市公司,电子商务,116.50601,39.793232,全职,5-10年
62,4443571,算法工程师/数据挖掘工程师,北京,2018-04-28 16:39:59,28.0,210070,深睿医疗,北京深睿博联科技有限责任公司,50-150人,海淀区,硕士,B轮,"移动互联网,医疗健康",116.312183,39.981536,全职,3-5年
63,2479393,数据挖掘,南京,2018-04-16 16:57:52,12.0,1678,华为慧通,华为全资子公司慧通公司,500-2000人,雨花台区,本科,未融资,"企业服务,旅游",118.766195,31.976788,全职,3-5年
64,4114451,数据挖掘开发,上海,2018-04-30 08:40:03,26.0,4670,The NetCircle,人英网络（上海）有限公司,50-150人,普陀区,本科,不需要融资,"社交网络,数据服务",121.43046,31.242819,全职,3-5年
65,2842045,数据挖掘工程师,上海,2018-04-28 09:51:04,17.0,14983,游族网络,上海游族信息技术有限公司,500-2000人,徐汇区,本科,上市公司,"移动互联网,游戏",39.897445,116.331398,全职,3-5年
66,4011058,数据挖掘,北京,2018-04-27 18:24:36,28.0,50702,美团点评,北京三快在线科技有限公司,2000人以上,朝阳区,本科,D轮及以上,"移动互联网,O2O",116.489606,40.007667,全职,3-5年
67,1181475,数据挖掘,北京,2018-04-27 11:15:42,21.0,28393,爱云校,北京修齐治平科技有限公司,500-2000人,朝阳区,本科,C轮,"教育,数据服务",116.47971721,39.99502389,全职,1-3年
68,1984803,网页搜索-数据挖掘,北京,2018-04-28 10:39:31,28.0,1537,搜狗,北京搜狗科技发展有限公司,2000人以上,,硕士,上市公司,"移动互联网,数据服务",116.33254,39.99366006,全职,1-3年
69,4098921,数据挖掘工程师,北京,2018-04-27 16:25:37,29.0,105376,本木医疗,北京怡合春天科技有限公司,50-150人,朝阳区,本科,不需要融资,"移动互联网,O2O",116.44784,39.92022107,全职,3-5年
70,2758324,数据挖掘工程师,杭州,2018-04-28 17:52:59,26.0,165939,橙鹰,杭州橙鹰数据技术有限公司,150-500人,余杭区,本科,不需要融资,数据服务,120.008998,30.279884,全职,3-5年
71,3884033,数据挖掘,北京,2018-04-28 18:20:45,22.8,41878,商询科技,北京商询科技有限公司,50-150人,朝阳区,硕士,A轮,"企业服务,数据服务",116.455703,39.924317,全职,3-5年
72,2268858,数据挖掘,杭州,2018-04-25 14:58:28,21.0,139350,魔蝎科技,杭州魔蝎数据科技有限公司,50-150人,西湖区,本科,B轮,"数据服务,移动互联网",120.067623,30.285134,全职,1-3年
73,3873638,数据挖掘/模型开发工程师,上海,2018-04-29 23:09:26,21.0,219252,融慧金科,融慧金科金融服务外包（北京）有限公司,50-150人,浦东新区,本科,A轮,"金融,数据服务",121.50946,31.238919,全职,1-3年
74,4418246,数据挖掘工程师,北京,2018-04-28 13:10:49,26.0,534,京东金融,京东金融,2000人以上,大兴区,本科,上市公司,金融,116.564383,39.786038,全职,3-5年
75,4175628,数据挖掘工程师 (MJ000413),北京,2018-04-26 11:04:22,19.2,6102,YOHO!,南京新与力文化传播有限公司,500-2000人,朝阳区,不限,D轮及以上,"电子商务,文化娱乐",0.0,0.0,全职,不限
76,3962655,数据挖掘工程师,长沙,2018-04-28 11:55:14,12.0,7382,中和农信,中和农信项目管理有限公司,2000人以上,岳麓区,本科,不需要融资,"移动互联网,金融",112.876209,28.228419,全职,3-5年
77,4328050,数据挖掘工程师,北京,2018-04-27 10:57:50,28.0,129,陌陌,北京陌陌科技有限公司,500-2000人,朝阳区,不限,上市公司,社交网络,115.99339,39.99426,全职,1-3年
78,4450659,数据挖掘工程师 (MJ000781),广州,2018-04-25 09:34:56,21.0,49579,欢聚时代（YY Inc）,广州华多网络科技有限公司,2000人以上,番禺区,本科,上市公司,移动互联网,113.348011,23.007841,全职,1-3年
79,4455252,数据挖掘工程师,深圳,2018-04-24 14:19:00,21.0,160065,小库科技,深圳小库科技有限公司,50-150人,南山区,本科,A轮,移动互联网,113.944749,22.575165,全职,1-3年
80,4497349,数据挖掘工程师,广州,2018-04-28 10:13:00,14.0,134745,探迹,广州探迹科技有限公司,50-150人,番禺区,本科,B轮,"数据服务,企业服务",113.386397,23.0566,全职,3-5年
81,4104682,数据挖掘工程师,杭州,2018-04-28 09:37:43,24.0,8169,点我达,点我达网络科技有限公司,500-2000人,下城区,本科,D轮及以上,O2O,120.16579198,30.31569396,全职,3-5年
82,4113665,数据挖掘工程师,上海,2018-04-28 17:50:25,28.0,1738,有鱼金融科技,上海彩亿信息技术有限公司,500-2000人,徐汇区,本科,B轮,"移动互联网,金融",121.40437233,31.16440487,全职,5-10年
83,3865597,数据挖掘工程师,北京,2018-04-28 13:26:56,33.0,284128,NewsJet,北京智分科技有限公司,50-150人,海淀区,本科,不需要融资,移动互联网,116.351631,39.977163,全职,1-3年
84,4253323,数据挖掘,上海,2018-04-28 11:37:26,26.0,143863,聚泛科技,上海聚泛信息科技有限公司,50-150人,徐汇区,本科,A轮,"金融,移动互联网",121.442914,31.172111,全职,3-5年
85,3752952,数据挖掘工程师,杭州,2018-04-28 10:30:08,28.0,93448,览众数据,杭州览众数据科技有限公司,50-150人,滨江区,硕士,B轮,"电子商务,数据服务",120.224077,30.208963,全职,3-5年
86,1823207,数据挖掘工程师,北京,2018-04-27 11:15:42,28.0,28393,爱云校,北京修齐治平科技有限公司,500-2000人,朝阳区,本科,C轮,"教育,数据服务",116.47971721,39.99502389,全职,3-5年
87,3793613,数据挖掘,杭州,2018-04-27 10:25:16,19.0,148393,万家乐科技,杭州万家乐网络科技有限公司,150-500人,西湖区,本科,不需要融资,"移动互联网,金融",120.124799,30.273009,全职,3-5年
88,4150982,数据挖掘工程师,上海,2018-04-24 15:41:18,24.0,37850,GeexFinance,即科金融信息服务（上海）有限公司,150-500人,杨浦区,博士,A轮,金融,121.509865,31.30946,全职,1-3年
89,2758328,数据挖掘专家,杭州,2018-04-28 17:52:59,26.0,165939,橙鹰,杭州橙鹰数据技术有限公司,150-500人,余杭区,硕士,不需要融资,数据服务,120.008998,30.279884,全职,3-5年
90,4043884,数据挖掘工程师,北京,2018-04-28 09:48:47,31.0,3786,宜信,普信恒业科技发展（北京）有限公司,2000人以上,朝阳区,硕士,上市公司,金融,115.99339,39.99426,全职,3-5年
91,3581917,数据挖掘与建模专员,北京,2018-04-28 09:37:41,21.0,3450,北京捷越联合,北京捷越联合信息咨询有限公司,2000人以上,东城区,本科,不需要融资,金融,116.43226115,39.92202918,全职,1-3年
92,4078804,数据挖掘工程师,杭州,2018-04-28 17:56:42,19.0,4840,光云科技,杭州光云科技股份有限公司,500-2000人,滨江区,本科,C轮,"电子商务,数据服务",120.20163,30.20211,全职,3-5年
93,3549885,数据挖掘,北京,2018-04-28 17:26:29,28.0,7182,尚德机构,北京尚德在线教育科技有限公司,2000人以上,朝阳区,硕士,上市公司,教育,116.469744,40.018761,全职,3-5年
94,3839893,数据挖掘工程师,北京,2018-04-28 11:06:33,35.0,46399,会分期,会找房（北京）网络技术有限公司,150-500人,海淀区,本科,C轮,移动互联网、金融,116.301362,40.054996,全职,3-5年
95,4018670,数据挖掘工程师,北京,2018-04-27 20:45:00,28.0,534,京东金融,京东金融,2000人以上,大兴区,硕士,上市公司,金融,116.56438326,39.78603815,全职,3-5年
96,3764368,数据挖掘工程师,北京,2018-04-27 10:38:19,33.0,142041,奇虎360金融,上海淇毓信息科技有限公司,500-2000人,朝阳区,本科,未融资,"移动互联网,金融",116.4901,39.982669,全职,3-5年
97,3038919,数据挖掘工程师,北京,2018-04-26 17:49:12,21.0,142470,蓦然认知科技,北京蓦然认知科技有限公司,50-150人,海淀区,本科,A轮,移动互联网,116.339504,39.998399,全职,1-3年
98,4014929,数据挖掘工程师,北京,2018-04-26 10:37:19,33.0,172285,猎户星空,北京猎户星空科技有限公司,150-500人,朝阳区,本科,A轮,"移动互联网,硬件",116.458741,39.932851,全职,1-3年
99,4179164,数据挖掘工程师,杭州,2018-04-25 15:05:35,28.0,229678,奇点云,杭州比智科技有限公司,50-150人,余杭区,本科,A轮,移动互联网、O2O,120.003852,30.291585,全职,不限
100,4142085,数据挖掘工程师,北京,2018-04-24 14:20:50,19.0,285069,乐聘网络科技,河北乐聘网络科技有限公司,150-500人,朝阳区,本科,不需要融资,"移动互联网,广告营销",0.0,0.0,全职,3-5年
101,4229375,数据挖掘工程师,成都,2018-04-23 14:37:40,11.2,95229,四川长虹电器股份有限公司,四川长虹电器股份有限公司,2000人以上,高新区,本科,上市公司,硬件,104.063426,30.541304,全职,1-3年
102,1258997,数据挖掘工程师,北京,2018-04-20 16:56:42,28.0,91,阿里巴巴—高德,高德软件有限公司,2000人以上,朝阳区,本科,上市公司,移动互联网,116.30545593,39.98216279,全职,3-5年
103,2531930,数据挖掘,上海,2018-04-02 17:37:44,19.0,32799,快牛金科,上海淡红金融科技有限公司,500-2000人,长宁区,硕士,B轮,金融,121.36025,31.2232,全职,3-5年
104,4009843,数据挖掘工程师,北京,2018-04-28 15:56:52,28.0,84814,医渡云（北京）技术有限公司,医渡云（北京）技术有限公司,150-500人,海淀区,本科,B轮,"O2O,医疗健康",116.366019,39.982583,全职,3-5年
105,2765850,数据挖掘实习生,北京,2018-04-27 10:57:51,3.4,129,陌陌,北京陌陌科技有限公司,500-2000人,朝阳区,本科,上市公司,社交网络,115.99339,39.99426,实习,不限
106,3219946,数据挖掘工程师,上海,2018-04-23 11:14:19,17.6,22321,晶赞科技Zamplus,上海晶赞科技发展有限公司,150-500人,闸北区,本科,D轮及以上,"数据服务,文化娱乐",121.44872,31.283477,全职,1-3年
107,3313089,高级数据挖掘,上海,2018-04-28 21:27:31,21.0,50702,美团点评,北京三快在线科技有限公司,2000人以上,长宁区,本科,D轮及以上,"移动互联网,O2O",121.424432,31.212374,全职,3-5年
108,4020407,数据挖掘工程师,武汉,2018-04-26 17:16:04,24.0,7835,金山办公软件,北京金山软件有限公司,2000人以上,东湖新技术开发区,本科,上市公司,移动互联网,114.42532,30.456379,全职,5-10年
109,2693573,搜狗明医-数据挖掘工程师,北京,2018-04-28 10:39:29,28.0,1537,搜狗,北京搜狗科技发展有限公司,2000人以上,海淀区,本科,上市公司,"移动互联网,数据服务",116.33254,39.99366006,全职,1-3年
110,2679562,数据挖掘工程师,北京,2018-04-27 20:44:58,28.0,534,京东金融,京东金融,2000人以上,大兴区,本科,上市公司,金融,116.56784934,39.79105081,全职,3-5年
111,4450540,数据挖掘工程师,深圳,2018-04-27 19:27:14,21.0,61723,游密,上海游密信息科技有限公司,50-150人,南山区,本科,A轮,"移动互联网,社交网络",113.94622,22.54817,全职,3-5年
112,4323681,数据挖掘工程师,北京,2018-04-27 19:24:47,22.8,10369,完美世界,完美世界（北京）软件科技发展有限公司,2000人以上,朝阳区,本科,上市公司,"移动互联网,游戏",116.42886,40.005201,全职,1-3年
113,3773740,数据挖掘工程师,北京,2018-04-27 10:38:18,33.0,142041,奇虎360金融,上海淇毓信息科技有限公司,500-2000人,朝阳区,不限,未融资,"移动互联网,金融",116.4901,39.982669,全职,3-5年
114,3403603,数据挖掘负责人,北京,2018-04-28 13:33:53,48.0,57049,InnoTREE,北京因果树网络科技有限公司,50-150人,海淀区,本科,B轮,金融,116.306683,39.984791,全职,5-10年
115,4090881,高级数据产品经理-数据挖掘方向,北京,2018-04-28 09:57:11,28.0,62,字节跳动,北京字节跳动科技有限公司,2000人以上,海淀区,本科,C轮,"移动互联网,数据服务",39.971268,39.971268,全职,3-5年
116,4071928,数据挖掘工程师,北京,2018-04-26 11:14:14,28.0,17751,人人车,北京善义善美科技有限公司,2000人以上,朝阳区,硕士,D轮及以上,O2O,116.440967,40.041928,全职,3-5年
117,1041707,数据挖掘研发工程师,北京,2018-04-25 18:28:45,28.0,16417,酷云互动,北京酷云互动科技有限公司,150-500人,东城区,本科,C轮,"数据服务,广告营销",116.421931,39.94823409,全职,3-5年
118,4051374,数据挖掘工程师,广州,2018-04-25 14:54:45,19.0,314386,Edison Inc,北京易思易度科技有限公司广州分公司,50-150人,海珠区,本科,B轮,"移动互联网,数据服务",113.250826,23.095789,全职,1-3年
119,3251068,数据挖掘工程师,北京,2018-04-28 17:47:14,28.0,9251,美柚,厦门美柚信息科技有限公司,500-2000人,朝阳区,本科,D轮及以上,移动互联网,116.516231,39.936985,全职,3-5年
120,4044959,数据挖掘工程师,北京,2018-04-27 10:57:51,28.0,129,陌陌,北京陌陌科技有限公司,500-2000人,朝阳区,本科,上市公司,社交网络,115.99339,39.99426,全职,1-3年
121,3749106,数据挖掘工程师,北京,2018-04-27 10:38:18,33.0,142041,奇虎360金融,上海淇毓信息科技有限公司,500-2000人,朝阳区,本科,未融资,"移动互联网,金融",116.4901,39.982669,全职,3-5年
122,4429776,数据挖掘/机器学习算法,北京,2018-04-16 18:34:11,39.8,50702,美团点评,北京三快在线科技有限公司,2000人以上,朝阳区,硕士,D轮及以上,"移动互联网,O2O",,,全职,3-5年
123,3654345,数据挖掘岗,北京,2018-04-27 15:41:50,38.0,75313,金利恒,北京金利恒兴投资管理有限公司,500-2000人,朝阳区,本科,未融资,其他,116.456616,39.932784,全职,3-5年
124,3397893,数据挖掘实习生,北京,2018-04-26 19:31:34,4.2,82991,数美,北京数美时代科技有限公司,150-500人,朝阳区,本科,B轮,"企业服务,数据服务",116.465953,40.021083,实习,应届毕业生
125,4338054,数据挖掘,北京,2018-04-26 11:29:09,21.0,23291,美图公司,厦门美图之家科技有限公司,500-2000人,海淀区,本科,上市公司,"移动互联网,硬件",116.330291,39.993117,全职,1-3年
126,4038107,数据挖掘工程师,北京,2018-04-25 20:30:24,21.6,6702,Zenjoy,北京创智优品科技有限公司,150-500人,东城区,本科,不需要融资,"移动互联网,游戏",116.4334,39.92111,全职,不限
127,2709200,数据挖掘工程师,北京,2018-04-23 18:40:49,14.0,73043,百融金服,百融（北京）金融信息服务股份有限公司,500-2000人,海淀区,本科,B轮,"金融,数据服务",116.326841,39.983319,全职,1-3年
128,3395151,智能语音-数据挖掘研究员,北京,2018-04-28 10:39:33,28.0,1537,搜狗,北京搜狗科技发展有限公司,2000人以上,海淀区,本科,上市公司,"移动互联网,数据服务",116.33254,39.99366006,全职,3-5年
129,2225573,数据挖掘工程师,深圳,2018-04-26 11:10:42,28.0,135243,试金石信用,试金石信用服务有限公司,50-150人,南山区,本科,不需要融资,"数据服务,移动互联网",113.916355,22.491449,全职,3-5年
130,3702699,数据挖掘工程师（珠海急聘）,广州,2018-04-23 10:08:06,9.8,212875,精点数据,广东精点数据科技股份有限公司,150-500人,天河区,本科,不需要融资,"移动互联网,数据服务",113.34454,23.140379,全职,1-3年
131,4501239,数据挖掘实习生,北京,2018-04-28 17:45:36,7.0,29795,罗辑思维,北京思维造物信息科技有限公司,150-500人,朝阳区,本科,B轮,"移动互联网,文化娱乐",115.99339,39.99426,全职,不限
132,2944834,数据挖掘工程师,北京,2018-04-28 16:57:20,28.0,149208,田米科技,北京田米科技有限公司,2000人以上,海淀区,本科,D轮及以上,移动互联网,116.337479,40.026677,全职,不限
133,3575805,数据挖掘工程师,北京,2018-04-28 16:06:10,21.0,7835,金山办公软件,北京金山软件有限公司,2000人以上,海淀区,本科,上市公司,移动互联网,115.99339,39.99426,全职,1-3年
134,4224053,数据挖掘工程师,深圳,2018-04-28 13:21:01,19.0,917,极光,深圳市和讯华谷信息技术有限公司,150-500人,南山区,本科,D轮及以上,"移动互联网,数据服务",113.907458,22.550007,全职,1-3年
135,449812,数据挖掘工程师,北京,2018-04-27 10:57:51,28.0,129,陌陌,北京陌陌科技有限公司,500-2000人,朝阳区,本科,上市公司,社交网络,116.4791,39.99522,全职,1-3年
136,4482034,数据挖掘-金融事业部,北京,2018-04-28 10:01:26,28.0,1970,去哪儿网,北京趣拿软件科技有限公司,2000人以上,海淀区,硕士,不需要融资,移动互联网,116.305723,39.977523,全职,3-5年
137,4138978,数据挖掘工程师,北京,2018-04-28 09:57:11,26.0,62,字节跳动,北京字节跳动科技有限公司,2000人以上,海淀区,本科,C轮,"移动互联网,数据服务",39.977067,39.977067,全职,1-3年
138,4152438,数据挖掘工程师,北京,2018-04-28 09:34:17,19.0,4686,芥末堆,颉墨（北京）科技有限公司,50-150人,海淀区,本科,B轮,"移动互联网,教育",116.354315,40.009618,全职,1-3年
139,4380380,数据挖掘工程师,北京,2018-04-27 19:50:16,36.0,133382,百乘金控,北京百乘科技有限公司,500-2000人,朝阳区,本科,上市公司,金融,116.387716,39.999053,全职,3-5年
140,4290769,数据挖掘工程师,北京,2018-04-27 10:28:26,38.0,21732,FitTime睿健时代,北京飞拓互联科技有限公司,150-500人,朝阳区,本科,C轮,"移动互联网,社交网络",116.488426,40.000182,全职,1-3年
141,4229100,数据挖掘工程师,北京,2018-04-08 17:32:42,21.0,12557,百分点,北京百分点信息科技有限公司,500-2000人,朝阳区,硕士,D轮及以上,数据服务,116.388093,40.000288,全职,1-3年
142,4229688,数据挖掘工程师,上海,2018-04-26 09:53:38,17.0,6044,拍拍贷,上海拍拍贷金融信息服务有限公司,2000人以上,浦东新区,不限,上市公司,金融,0.0,0.0,全职,1-3年
143,3981944,数据挖掘工程师,珠海,2018-04-25 09:52:09,19.0,7835,金山办公软件,北京金山软件有限公司,2000人以上,,本科,上市公司,移动互联网,113.601205,22.34793,全职,3-5年
144,3497982,数据挖掘专家,杭州,2018-04-17 20:59:34,26.0,165939,橙鹰,杭州橙鹰数据技术有限公司,150-500人,余杭区,硕士,不需要融资,数据服务,120.008998,30.279884,全职,3-5年
145,4481099,数据挖掘工程师-（全球化增长）,北京,2018-04-29 03:06:41,38.0,1880,快手,北京达佳互联信息技术有限公司,500-2000人,海淀区,本科,D轮及以上,移动互联网,116.316508,39.984066,全职,不限
146,3978614,【社招】【搜狐大数据中心】数据挖掘/策略高级研发工程师,北京,2018-04-28 11:59:43,28.0,106303,搜狐集团,北京搜狐新媒体信息技术有限公司,2000人以上,海淀区,本科,上市公司,"移动互联网,广告营销",0.0,0.0,全职,1-3年
147,3627794,数据挖掘,北京,2018-04-27 16:42:28,28.0,18139,京东集团,北京京东世纪贸易有限公司,2000人以上,朝阳区,本科,上市公司,"电子商务,数据服务",116.38799,39.999469,全职,3-5年
148,4004420,数据挖掘,深圳,2018-04-27 15:29:44,19.0,16831,武汉佰钧成技术有限公司,武汉佰钧成技术有限责任公司,2000人以上,龙华新区,大专,不需要融资,移动互联网,0.0,0.0,全职,5-10年
149,3962427,数据挖掘工程师,北京,2018-04-26 08:43:42,21.0,151381,中诚信征信,中诚信征信有限公司,150-500人,东城区,本科,不需要融资,"移动互联网,金融",116.420489,39.921853,全职,1-3年
150,3587023,数据挖掘工程师,北京,2018-04-28 09:57:11,28.0,62,字节跳动,北京字节跳动科技有限公司,2000人以上,海淀区,本科,C轮,"移动互联网,数据服务",39.971268,39.971268,全职,1-3年
151,3938470,数据挖掘,杭州,2018-04-17 11:03:52,16.8,272040,霖梓网络,杭州霖梓网络科技有限公司,150-500人,滨江区,本科,A轮,"移动互联网,金融",120.160786,30.184456,全职,1-3年
152,4161126,数据挖掘工程师,北京,2018-04-28 11:58:04,14.0,141955,嘀嗒出行,拼途（北京）信息技术有限公司,150-500人,朝阳区,本科,D轮及以上,"移动互联网,O2O",0.0,0.0,全职,1-3年
153,3100302,数据挖掘工程师,北京,2018-04-26 11:08:47,26.0,329,网易,网易（杭州）有限公司,2000人以上,海淀区,硕士,上市公司,"电子商务,移动互联网",115.99339,39.99426,全职,3-5年
154,4438898,数据挖掘师岗,北京,2018-04-18 09:38:30,21.0,18139,京东集团,北京京东世纪贸易有限公司,2000人以上,通州区,本科,上市公司,"电子商务,数据服务",0.0,0.0,全职,3-5年
155,4031827,数据挖掘工程师,北京,2018-04-27 18:29:42,21.0,29496,闪银奇异,北京闪银奇异科技有限公司,500-2000人,朝阳区,不限,D轮及以上,"移动互联网,金融",116.983011,36.612889,全职,1-3年
156,3983552,数据挖掘工程师,上海,2018-04-27 15:45:51,16.8,40729,Rela热拉-多元女性社区,上海初生网络科技有限公司,50-150人,黄浦区,本科,B轮,"移动互联网,社交网络",0.0,0.0,全职,1-3年
157,4278403,数据挖掘工程师,杭州,2018-04-27 11:37:53,19.0,26517,小影APP,杭州趣维科技有限公司,150-500人,西湖区,本科,B轮,"移动互联网,文化娱乐",120.123836,30.272873,全职,1-3年
158,2983824,数据挖掘工程师,深圳,2018-04-28 11:02:34,28.0,19875,vivo,维沃移动通信有限公司,2000人以上,福田区,本科,未融资,移动互联网,113.993578,22.99368,全职,3-5年
159,3948312,高级数据挖掘工程师,北京,2018-04-27 11:06:18,56.0,929,最右,北京小川在线网络技术有限公司,150-500人,海淀区,本科,B轮,移动互联网,116.368056,39.980092,全职,3-5年
160,4366630,数据挖掘工程师,广州,2018-04-27 09:49:02,17.0,20473,广州棒谷科技股份有限公司,广州棒谷科技股份有限公司,2000人以上,白云区,本科,不需要融资,电子商务,113.271506,23.175202,全职,3-5年
161,4068321,数据挖掘工程师,北京,2018-04-27 09:47:05,14.0,29337,和信贷,和信电子商务有限公司,150-500人,朝阳区,硕士,上市公司,金融,116.47094,39.90763,全职,3-5年
162,4452328,数据挖掘工程师,北京,2018-04-23 09:48:02,38.0,1880,快手,北京达佳互联信息技术有限公司,500-2000人,海淀区,硕士,D轮及以上,移动互联网,116.338762,39.999491,全职,1-3年
163,4262750,高级数据挖掘工程师,北京,2018-04-28 14:50:55,26.0,136978,玖富集团,玖富金科控股集团有限责任公司,2000人以上,朝阳区,本科,C轮,金融,116.480792,39.99613,全职,3-5年
164,4485474,数据挖掘工程师,广州,2018-04-28 10:57:16,21.0,49579,欢聚时代（YY Inc）,广州华多网络科技有限公司,2000人以上,番禺区,本科,上市公司,移动互联网,113.349039,23.007554,全职,1-3年
165,3891034,数据挖掘工程师,北京,2018-04-26 18:04:22,28.0,18139,京东集团,北京京东世纪贸易有限公司,2000人以上,朝阳区,本科,上市公司,"电子商务,数据服务",115.99339,39.99426,全职,3-5年
166,1966481,数据挖掘,哈尔滨,2018-04-28 08:36:48,6.8,133412,宏力达科技,上海宏力达信息技术股份有限公司哈尔滨软件研发中心,50-150人,南岗区,大专,不需要融资,"电子商务,移动互联网",126.6883511,45.7664949,全职,3-5年
167,4419448,数据挖掘工程师,深圳,2018-04-24 14:19:01,21.0,160065,小库科技,深圳小库科技有限公司,50-150人,南山区,本科,A轮,移动互联网,113.944749,22.575165,全职,1-3年
168,4184367,数据挖掘工程师,北京,2018-04-03 12:35:34,22.0,8103,汽车之家,北京车之家信息技术有限公司,2000人以上,海淀区,本科,上市公司,"移动互联网,文化娱乐",116.312255,39.979648,全职,3-5年
169,2711645,信息流-数据挖掘研究员,北京,2018-04-28 10:39:29,21.0,1537,搜狗,北京搜狗科技发展有限公司,2000人以上,海淀区,本科,上市公司,"移动互联网,数据服务",116.33254,39.99366006,全职,3-5年
170,3519850,数据挖掘工程师,北京,2018-04-25 17:44:57,35.0,25592,新浪网,新浪网技术（中国）有限公司,2000人以上,海淀区,本科,上市公司,文化娱乐,116.27596971,40.04193985,全职,1-3年
171,3824148,数据挖掘工程师,北京,2018-04-25 15:16:29,29.0,329,网易,网易（杭州）有限公司,2000人以上,海淀区,硕士,上市公司,"电子商务,移动互联网",116.275949,40.042894,全职,3-5年
172,4327347,数据挖掘工程师,北京,2018-04-28 09:39:29,9.6,173801,龙源通惠,北京龙源通惠投资集团有限公司,50-150人,朝阳区,本科,未融资,教育,116.510689,39.904364,全职,1-3年
173,4114521,数据挖掘工程师--北京,北京,2018-04-27 11:18:12,28.0,62831,明略数据,北京明略软件系统有限公司,150-500人,海淀区,本科,C轮,数据服务,0.0,0.0,全职,3-5年
174,4392917,数据挖掘工程师,佛山,2018-04-10 09:18:14,19.0,149167,美云智数,深圳美云智数科技有限公司,500-2000人,顺德区,本科,不需要融资,"企业服务,数据服务",113.219574,22.934207,全职,1-3年
175,4013106,数据挖掘工程师,上海,2018-04-26 08:47:43,14.0,112099,天翼征信有限公司,天翼征信有限公司,50-150人,虹口区,本科,不需要融资,"电子商务,移动互联网",121.486394,31.248034,全职,1-3年
176,3747168,数据挖掘工程师,北京,2018-04-21 19:33:28,35.0,1880,快手,北京达佳互联信息技术有限公司,500-2000人,海淀区,本科,D轮及以上,移动互联网,116.316508,39.984066,全职,3-5年
177,4376361,数据挖掘工程师,深圳,2018-04-28 17:54:56,22.0,175085,海南新浪爱问普惠科技有限公司,海南新浪爱问普惠科技有限公司,50-150人,南山区,本科,未融资,金融,113.937903,22.545151,全职,5-10年
178,4390499,数据挖掘工程师/leader--北京,北京,2018-04-26 20:37:05,28.0,23291,美图公司,厦门美图之家科技有限公司,500-2000人,海淀区,不限,上市公司,"移动互联网,硬件",39.897445,116.331398,全职,3-5年
179,1270785,数据挖掘,上海,2018-04-20 16:17:40,10.8,8581,1号店,纽海信息技术(上海)有限公司,2000人以上,浦东新区,本科,D轮及以上,移动互联网,121.58218999,31.20126986,全职,1-3年
180,4068013,数据挖掘工程师,深圳,2018-04-11 20:21:08,24.0,160065,小库科技,深圳小库科技有限公司,50-150人,南山区,本科,A轮,移动互联网,113.944749,22.575165,全职,1-3年
181,4478638,数据挖掘/机器学习工程师,北京,2018-04-25 11:21:58,45.0,62831,明略数据,北京明略软件系统有限公司,150-500人,海淀区,本科,C轮,数据服务,116.330614,39.995963,全职,不限
182,3284227,数据挖掘工程师,北京,2018-04-25 09:36:02,28.0,25592,新浪网,新浪网技术（中国）有限公司,2000人以上,海淀区,本科,上市公司,文化娱乐,116.276316,40.041543,全职,1-3年
183,4445195,数据挖掘leader,北京,2018-04-18 18:16:36,38.0,8103,汽车之家,北京车之家信息技术有限公司,2000人以上,海淀区,本科,上市公司,"移动互联网,文化娱乐",116.311989,39.979473,全职,5-10年
184,4438083,数据挖掘工程师,深圳,2018-04-17 20:08:17,19.0,140014,平安人寿,中国平安人寿保险股份有限公司,2000人以上,福田区,本科,上市公司,金融,114.055755,22.533344,全职,3-5年
185,4227082,数据挖掘工程师/算法工程师,杭州,2018-04-28 17:56:41,19.0,4840,光云科技,杭州光云科技股份有限公司,500-2000人,滨江区,本科,C轮,"电子商务,数据服务",120.20163,30.20211,全职,3-5年
186,4310551,数据挖掘工程师（中台技术）,北京,2018-04-28 10:04:30,21.0,41823,58到家,北京五八到家信息技术有限公司,2000人以上,朝阳区,本科,A轮,"O2O,生活服务",116.416728,40.039781,全职,3-5年
187,3845207,数据挖掘,上海,2018-04-19 19:07:17,21.0,4670,The NetCircle,人英网络（上海）有限公司,50-150人,普陀区,本科,不需要融资,"社交网络,数据服务",120.993464,30.994061,全职,3-5年
188,4252849,数据挖掘,上海,2018-04-28 11:37:26,17.0,143863,聚泛科技,上海聚泛信息科技有限公司,50-150人,徐汇区,本科,A轮,"金融,移动互联网",121.442914,31.172111,全职,1-3年
189,2575906,搜狗问问-数据挖掘研究员,北京,2018-04-28 10:39:33,28.0,1537,搜狗,北京搜狗科技发展有限公司,2000人以上,海淀区,硕士,上市公司,"移动互联网,数据服务",116.33254,39.99366006,全职,1-3年
190,3903086,数据挖掘工程师,深圳,2018-04-27 14:24:17,26.0,25576,团贷网,广东俊特团贷网络信息服务股份有限公司,2000人以上,南山区,本科,C轮,"移动互联网,金融",113.950586,22.554548,全职,1-3年
191,1638580,数据挖掘开发工程师,北京,2018-04-27 10:53:29,21.0,3038,Gridsum 国双,北京国双科技有限公司,500-2000人,海淀区,本科,上市公司,"数据服务,企业服务",116.332441,39.976021,全职,3-5年
192,2131734,数据挖掘工程师,南京,2018-04-27 09:56:29,21.0,31945,孩子王,孩子王儿童用品股份有限公司,2000人以上,江宁区,本科,上市公司,生活服务,118.88908,32.010019,全职,3-5年
193,4269630,数据挖掘,成都,2018-04-26 10:34:12,24.8,6868,tap4fun,成都尼毕鲁科技股份有限公司,150-500人,高新区,不限,不需要融资,"移动互联网,游戏",104.069711,30.54825,全职,不限
194,4110363,用户增长实习生-数据挖掘方向,北京,2018-04-25 15:16:26,4.4,329,网易,网易（杭州）有限公司,2000人以上,海淀区,硕士,上市公司,"电子商务,移动互联网",115.99339,39.99426,实习,应届毕业生
195,4072278,数据挖掘工程师+北京,北京,2018-04-27 11:18:13,28.0,62831,明略数据,北京明略软件系统有限公司,150-500人,海淀区,本科,C轮,数据服务,0.0,0.0,全职,不限
196,4334549,数据挖掘工程师,武汉,2018-04-24 18:24:20,19.0,181025,Today今天连锁便利,武汉今天梦想商贸有限公司,500-2000人,硚口区,本科,B轮,生活服务,114.355664,30.536123,全职,3-5年
197,3734750,数据挖掘工程师-厦门,厦门,2018-04-23 18:27:37,14.0,23291,美图公司,厦门美图之家科技有限公司,500-2000人,思明区,本科,上市公司,"移动互联网,硬件",39.897445,116.331398,全职,1-3年
198,4002154,机器学习/数据挖掘工程师,武汉,2018-04-29 01:21:46,21.0,7835,金山办公软件,北京金山软件有限公司,2000人以上,洪山区,本科,上市公司,移动互联网,114.42532,30.456379,全职,1-3年
199,4310387,数据挖掘工程师,北京,2018-04-28 13:58:10,28.0,520,小米,北京小米科技有限责任公司,2000人以上,海淀区,本科,D轮及以上,移动互联网,116.328617,40.045934,全职,3-5年
200,3751935,数据挖掘工程师,北京,2018-04-28 11:30:27,19.0,5142,人人网,北京千橡网景科技发展有限公司,2000人以上,朝阳区,本科,上市公司,"社交网络,金融",116.49696,39.97638006,全职,1-3年
201,4318059,数据挖掘工程师,北京,2018-04-27 15:10:49,26.0,29496,闪银奇异,北京闪银奇异科技有限公司,500-2000人,朝阳区,本科,D轮及以上,"移动互联网,金融",0.0,0.0,全职,1-3年
202,4339714,数据挖掘工程师,北京,2018-04-26 09:45:28,25.2,24561,国美互联网,国美在线电子商务有限公司,2000人以上,朝阳区,本科,上市公司,电子商务,39.897445,116.331398,全职,3-5年
203,4396730,数据挖掘工程师,深圳,2018-04-25 14:27:39,14.0,60434,加油宝,加油宝金融科技服务（深圳）有限公司,150-500人,南山区,硕士,不需要融资,金融,113.993578,22.99368,全职,1-3年
204,3801882,数据挖掘开发,上海,2018-04-19 19:07:16,26.0,4670,The NetCircle,人英网络（上海）有限公司,50-150人,普陀区,本科,不需要融资,"社交网络,数据服务",120.993464,30.994061,全职,3-5年
205,3653736,数据挖掘工程师,上海,2018-04-02 17:37:44,22.0,32799,快牛金科,上海淡红金融科技有限公司,500-2000人,长宁区,硕士,B轮,金融,121.359894,31.221871,全职,3-5年
206,3700682,数据挖掘/算法工程师,上海,2018-04-28 18:33:19,21.0,22851,洋码头,上海洋码头网络技术有限公司,500-2000人,静安区,本科,C轮,"移动互联网,电子商务",121.438449,31.290987,全职,3-5年
207,4061908,数据挖掘经理,深圳,2018-04-28 18:04:38,17.8,79761,达飞金控,深圳达飞金融控股有限公司,2000人以上,南山区,本科,不需要融资,"移动互联网,金融",113.915457,22.481322,全职,3-5年
208,3741689,数据挖掘工程师,北京,2018-04-28 09:08:11,19.0,275062,联通大数据,联通大数据有限公司,2000人以上,东城区,本科,不需要融资,数据服务,116.428235,39.907018,全职,3-5年
209,2960555,自然语言处理/数据挖掘工程师,北京,2018-04-27 12:19:45,28.0,4510,春雨移动健康,北京春雨天下软件有限公司,150-500人,海淀区,硕士,C轮,移动互联网,116.351825,40.00853,全职,3-5年
210,4028379,数据挖掘顾问,北京,2018-04-27 11:15:51,24.0,18453,中体彩科技发展有限公司,中体彩科技发展有限公司,150-500人,朝阳区,本科,不需要融资,"移动互联网,电子商务",116.460229,39.873956,全职,5-10年
211,2719639,数据挖掘专家,杭州,2018-04-17 21:00:03,26.0,165939,橙鹰,杭州橙鹰数据技术有限公司,150-500人,余杭区,硕士,不需要融资,数据服务,120.008998,30.279884,全职,3-5年
212,4404196,数据挖掘工程师,上海,2018-04-28 18:26:21,14.0,36009,途虎养车网,上海阑途信息技术有限公司,2000人以上,闵行区,本科,D轮及以上,移动互联网,121.398332,31.131918,全职,不限
213,3727470,数据挖掘工程师,武汉,2018-04-28 14:01:52,14.0,115706,忆年,武汉市追忆那年网络科技有限公司,50-150人,洪山区,不限,A轮,"移动互联网,社交网络",114.418082,30.466992,全职,不限
214,4432443,高级数据挖掘工程师,上海,2018-04-28 09:51:04,21.0,14983,游族网络,上海游族信息技术有限公司,500-2000人,徐汇区,不限,上市公司,"移动互联网,游戏",39.897445,116.331398,全职,3-5年
215,3757232,数据挖掘工程师,南京,2018-04-12 16:45:13,28.0,147472,江苏新景祥,江苏新景祥网络科技股份有限公司,2000人以上,鼓楼区,硕士,上市公司,"移动互联网,广告营销",118.731063,32.039029,全职,3-5年
216,4123206,数据挖掘工程师,北京,2018-04-28 14:03:01,38.0,5832,新浪微博,微梦创科网络科技（中国）有限公司,2000人以上,海淀区,硕士,上市公司,移动互联网,116.30920139,39.98291734,全职,3-5年
217,3983733,数据挖掘工程师,上海,2018-04-28 11:01:52,19.0,3038,Gridsum 国双,北京国双科技有限公司,500-2000人,静安区,本科,上市公司,"数据服务,企业服务",121.449682,31.225579,全职,1-3年
218,3253580,数据挖掘专家,北京,2018-04-27 10:15:16,24.0,28014,永洪科技,北京永洪商智科技有限公司,150-500人,朝阳区,本科,C轮,企业服务、数据服务,116.452067,39.914005,全职,5-10年
219,4009247,数据挖掘工程师/NLP高级工程师,深圳,2018-04-27 09:54:19,31.0,87029,有鱼智能科技,深圳市有鱼智能科技有限公司,150-500人,福田区,本科,上市公司,"移动互联网,金融",114.04544,22.54069,全职,1-3年
220,4126354,数据挖掘工程师,上海,2018-04-20 11:05:40,29.0,1499,学霸君,上海谦问万答吧云计算科技有限公司,150-500人,杨浦区,本科,C轮,"移动互联网,教育",121.51123519,31.30683942,全职,3-5年
221,3802382,资深数据挖掘工程师,北京,2018-04-28 10:08:44,42.0,34573,省钱快报,北京九州云动科技有限公司,50-150人,东城区,本科,B轮,"移动互联网,电子商务",116.41189961,39.94779526,全职,3-5年
222,4326531,数据挖掘工程师-POI方向(J171017015),北京,2018-04-27 11:03:20,31.0,2474,滴滴出行,北京嘀嘀无限科技发展有限公司,2000人以上,海淀区,本科,不需要融资,移动互联网,40.04683,40.04683,全职,1-3年
223,3840234,数据挖掘工程师,武汉,2018-04-26 10:50:13,21.0,89908,灯塔财经,灯塔财经信息有限公司,15-50人,东湖新技术开发区,本科,不需要融资,"移动互联网,金融",113.993591,29.993679,全职,3-5年
224,3330278,数据挖掘工程师,深圳,2018-04-25 22:16:33,21.0,140014,平安人寿,中国平安人寿保险股份有限公司,2000人以上,福田区,本科,上市公司,金融,114.068923,22.539291,全职,3-5年
225,3261422,高级数据挖掘工程师,杭州,2018-04-28 17:52:59,26.0,165939,橙鹰,杭州橙鹰数据技术有限公司,150-500人,余杭区,本科,不需要融资,数据服务,120.008998,30.279884,全职,3-5年
226,4151523,数据挖掘工程师,北京,2018-04-03 16:43:33,14.0,8861,妙计旅行,北京汇行科技有限公司,150-500人,东城区,本科,B轮,旅游,116.41498,39.948005,全职,1-3年
227,4472798,数据挖掘工程师,南京,2018-04-28 17:27:40,13.6,23344,汇通达,汇通达网络有限公司,500-2000人,玄武区,本科,D轮及以上,"电子商务,O2O",118.87465,32.0392,全职,1-3年
228,4381434,数据挖掘工程师,北京,2018-04-28 10:28:30,19.0,32867,云丁,云丁网络技术（北京）有限公司,150-500人,昌平区,本科,C轮,硬件,116.347903,40.080118,全职,3-5年
229,3834507,大数据分析师/数据挖掘工程师,长沙,2018-04-28 08:53:49,14.0,139603,阡寻,长沙阡寻信息科技有限公司,15-50人,岳麓区,本科,A轮,数据服务,112.882369,28.230937,全职,1-3年
230,4290736,数据挖掘初级工程师,北京,2018-04-27 10:34:10,38.0,21732,FitTime睿健时代,北京飞拓互联科技有限公司,150-500人,朝阳区,本科,C轮,"移动互联网,社交网络",116.488426,40.000182,全职,1-3年
231,3565204,数据挖掘工程师,北京,2018-04-27 10:11:29,28.2,1650,联想集团,联想（北京）有限公司,2000人以上,海淀区,本科,上市公司,"移动互联网,数据服务",116.29846,40.0534,全职,5-10年
232,3893459,算法-数据挖掘,北京,2018-04-26 20:13:55,49.0,17751,人人车,北京善义善美科技有限公司,2000人以上,朝阳区,硕士,D轮及以上,O2O,116.44040535,40.04284308,全职,3-5年
233,4418807,数据挖掘工程师/专家,北京,2018-04-25 10:07:10,28.0,107423,瓜子二手车直卖网,车好多旧机动车经纪(北京)有限公司,2000人以上,海淀区,本科,C轮,O2O,116.299936,40.043116,全职,3-5年
234,4299657,数据挖掘工程师（互金方向）,杭州,2018-04-24 14:40:56,28.0,211621,顶象,北京顶象技术有限公司,50-150人,余杭区,本科,A轮,"信息安全,企业服务",120.017624,30.280055,全职,3-5年
235,4308076,高级数据挖掘工程师,北京,2018-04-28 15:14:08,28.0,136978,玖富集团,玖富金科控股集团有限责任公司,2000人以上,朝阳区,本科,C轮,金融,116.481135,39.996731,全职,3-5年
236,4142676,机器学习/数据挖掘工程师/专家,杭州,2018-04-28 10:12:52,28.0,2380,浙江执御信息技术有限公司,浙江执御信息技术有限公司,2000人以上,拱墅区,硕士,B轮,"移动互联网,数据服务",120.11362,30.33344,全职,3-5年
237,4446605,资深数据挖掘-EWT,杭州,2018-04-25 14:17:44,24.8,9327,铭师堂,杭州铭师堂教育科技发展有限公司,500-2000人,拱墅区,本科,不需要融资,"移动互联网,教育",0.0,0.0,全职,3-5年
238,3207951,数据挖掘,广州,2018-04-25 08:48:46,22.0,1175,灵机文化,广东灵机文化传播有限公司,150-500人,天河区,本科,不需要融资,"移动互联网,电子商务",113.382986,23.119591,全职,1-3年
239,4052573,数据挖掘方向,北京,2018-04-24 14:48:36,28.0,50702,美团点评,北京三快在线科技有限公司,2000人以上,朝阳区,本科,D轮及以上,"移动互联网,O2O",121.417969,31.217836,全职,3-5年
240,4385709,数据挖掘,杭州,2018-04-17 17:33:04,21.0,8985,丽子美妆,杭州徐娜拉电子商务有限公司,150-500人,江干区,硕士,A轮,"移动互联网,电子商务",120.21562,30.24635,全职,3-5年
241,4476471,数据挖掘&amp;人工智能工程师,北京,2018-04-28 10:56:04,25.2,81107,一亩田,北京一人一亩田网络科技有限公司,150-500人,海淀区,本科,C轮,"移动互联网,电子商务",116.359972,40.039972,全职,1-3年
242,4020406,数据挖掘工程师,深圳,2018-04-28 09:27:31,19.0,95529,云天励飞,深圳云天励飞技术有限公司,150-500人,福田区,本科,A轮,移动互联网,114.094401,22.540685,全职,1-3年
243,4370977,数据挖掘工程师,北京,2018-04-27 13:44:02,26.0,8103,汽车之家,北京车之家信息技术有限公司,2000人以上,海淀区,本科,上市公司,"移动互联网,文化娱乐",116.311989,39.979473,全职,3-5年
244,4288305,数据挖掘工程师/专家,北京,2018-04-24 14:44:26,35.0,107423,瓜子二手车直卖网,车好多旧机动车经纪(北京)有限公司,2000人以上,海淀区,本科,C轮,O2O,116.29993611,40.04311563,全职,1-3年
245,4073918,数据挖掘经理,北京,2018-04-24 11:18:10,24.0,1650,联想集团,联想（北京）有限公司,2000人以上,海淀区,本科,上市公司,"移动互联网,数据服务",115.99339,39.99426,全职,5-10年
246,4437584,数据挖掘专家(J180117010),北京,2018-04-23 11:53:06,38.0,2474,滴滴出行,北京嘀嘀无限科技发展有限公司,2000人以上,海淀区,本科,不需要融资,移动互联网,40.04683,40.04683,全职,5-10年
247,2244493,数据挖掘工程师,北京,2018-04-08 14:05:02,19.0,25592,新浪网,新浪网技术（中国）有限公司,2000人以上,海淀区,本科,上市公司,文化娱乐,116.27596971,40.04193985,全职,3-5年
248,4102483,数据挖掘工程师,广州,2018-04-28 17:38:51,12.0,658,三七互娱,三七互娱（上海）科技有限公司,2000人以上,天河区,本科,上市公司,游戏,112.993461,22.994261,全职,应届毕业生
249,3438959,数据挖掘工程师,上海,2018-04-28 15:13:44,21.0,5918,驴妈妈旅游网,上海景域文化传播股份有限公司,2000人以上,普陀区,本科,D轮及以上,"电子商务,旅游",121.390262,31.235716,全职,3-5年
250,4063985,数据挖掘经理,北京,2018-04-27 20:45:00,28.0,534,京东金融,京东金融,2000人以上,大兴区,硕士,上市公司,金融,116.56438326,39.78603815,全职,3-5年
251,4208021,数据挖掘工程师--消费金融事业部,北京,2018-04-16 09:16:29,28.0,201747,百信银行,中信百信银行股份有限公司,150-500人,朝阳区,本科,不需要融资,"金融,移动互联网",116.404094,39.977963,全职,不限
252,3968126,数据挖掘工程师,上海,2018-04-02 17:37:44,21.0,32799,快牛金科,上海淡红金融科技有限公司,500-2000人,长宁区,硕士,B轮,金融,121.359894,31.221871,全职,1-3年
253,4353265,PTBU-数据挖掘工程师,广州,2018-04-27 15:45:10,31.0,336,酷狗音乐,广州酷狗计算机科技有限公司,500-2000人,天河区,本科,不需要融资,"移动互联网,文化娱乐",112.993461,22.994261,全职,5-10年
254,4074355,数据挖掘专家,杭州,2018-04-27 11:38:57,35.0,329,网易,网易（杭州）有限公司,2000人以上,滨江区,本科,上市公司,"电子商务,移动互联网",120.192295,30.188393,全职,5-10年
255,4088885,数据挖掘经理,北京,2018-04-24 11:18:08,21.0,1650,联想集团,联想（北京）有限公司,2000人以上,海淀区,本科,上市公司,"移动互联网,数据服务",115.99339,39.99426,全职,5-10年
256,4447451,数据挖掘,上海,2018-04-19 10:42:43,42.0,39497,易鑫集团,北京看看车科技有限公司,2000人以上,静安区,硕士,上市公司,企业服务,121.452581,31.226442,全职,3-5年
257,3520770,数据挖掘,上海,2018-04-11 15:03:11,26.0,143863,聚泛科技,上海聚泛信息科技有限公司,50-150人,徐汇区,硕士,A轮,"金融,移动互联网",121.442914,31.172111,全职,3-5年
258,4048485,数据挖掘工程师,广州,2018-04-10 14:18:45,14.0,50784,蓝盾信息安全技术股份有限公司,蓝盾信息安全技术股份有限公司,500-2000人,天河区,本科,上市公司,信息安全,113.37394,23.11910001,全职,1-3年
259,3988759,数据挖掘工程师,深圳,2018-04-28 18:04:39,14.0,79761,达飞金控,深圳达飞金融控股有限公司,2000人以上,南山区,本科,不需要融资,"移动互联网,金融",113.915457,22.481322,全职,1-3年
260,2109643,垂直搜索-数据挖掘研究员,北京,2018-04-28 10:39:33,19.0,1537,搜狗,北京搜狗科技发展有限公司,2000人以上,海淀区,本科,上市公司,"移动互联网,数据服务",116.33254,39.99366006,全职,1-3年
261,3535992,数据挖掘工程师,北京,2018-04-25 15:47:14,18.2,136443,马上金融,马上消费金融股份有限公司,2000人以上,朝阳区,硕士,不需要融资,"金融,移动互联网",116.488635,40.003335,全职,3-5年
262,3766678,数据挖掘实习生,北京,2018-04-29 11:18:40,2.8,5706,洋葱数学,光合新知（北京）科技有限公司,150-500人,朝阳区,本科,C轮,"移动互联网,教育",116.500139,39.991999,实习,应届毕业生
263,4100342,数据挖掘工程师,北京,2018-04-28 09:59:14,28.0,55377,特斯联,特斯联（北京）科技有限公司,150-500人,朝阳区,本科,B轮,"移动互联网,硬件",116.457332,39.948467,全职,3-5年
264,3497261,数据挖掘工程师,北京,2018-04-26 11:14:14,35.0,17751,人人车,北京善义善美科技有限公司,2000人以上,朝阳区,本科,D轮及以上,O2O,116.44040535,40.04284308,全职,1-3年
265,4349797,资深算法／数据挖掘工程师,北京,2018-04-25 15:16:30,31.0,329,网易,网易（杭州）有限公司,2000人以上,海淀区,本科,上市公司,"电子商务,移动互联网",115.99339,39.99426,全职,3-5年
266,4480014,数据挖掘工程师岗,深圳,2018-04-25 14:18:34,21.0,140014,平安人寿,中国平安人寿保险股份有限公司,2000人以上,福田区,本科,上市公司,金融,114.055755,22.533344,全职,3-5年
267,3881012,数据挖掘工程师,广州,2018-04-28 23:56:59,21.0,7520,广东三维家信息科技有限公司,广东三维家信息科技有限公司,150-500人,天河区,本科,A轮,"移动互联网,硬件",113.414,23.170774,全职,1-3年
268,4058342,数据挖掘工程师,北京,2018-04-23 12:08:46,21.0,18139,京东集团,北京京东世纪贸易有限公司,2000人以上,朝阳区,本科,上市公司,"电子商务,数据服务",115.99339,39.99426,全职,3-5年
269,3193650,数据挖掘工程师,深圳,2018-04-11 20:21:09,21.0,160065,小库科技,深圳小库科技有限公司,50-150人,南山区,本科,A轮,移动互联网,113.944749,22.575165,全职,1-3年
270,3691255,数据挖掘工程师,上海,2018-04-27 10:11:29,19.0,1650,联想集团,联想（北京）有限公司,2000人以上,浦东新区,本科,上市公司,"移动互联网,数据服务",121.584399,31.205673,全职,3-5年
271,4052718,数据挖掘工程师,北京,2018-04-08 12:45:37,12.0,238933,科达股份,科达集团股份有限公司,2000人以上,朝阳区,本科,上市公司,广告营销,116.453041,39.907926,全职,1-3年
272,4336699,数据挖掘工程师,北京,2018-04-28 18:27:04,32.0,307176,鼎阅传媒,北京鼎阅广告传媒有限责任公司,150-500人,海淀区,大专,不需要融资,移动互联网,116.356091,40.046785,全职,3-5年
273,4278240,中级数据挖掘工程师,北京,2018-04-28 10:44:29,22.8,43055,轻松筹,北京轻松筹网络科技有限公司,150-500人,东城区,本科,C轮,"移动互联网,金融",116.42454227,39.94877813,全职,3-5年
274,3864928,AI 数据挖掘工程师,武汉,2018-04-28 09:35:57,11.2,265439,魅瞳科技,武汉魅瞳科技有限公司,15-50人,东湖新技术开发区,本科,天使轮,数据服务,114.406404,30.479206,全职,3-5年
275,3865190,数据挖掘工程师-北京,北京,2018-04-27 13:49:40,15.2,110890,邦盛科技,浙江邦盛科技有限公司,150-500人,朝阳区,本科,B轮,"信息安全,金融",0.0,0.0,全职,1-3年
276,4410840,数据挖掘岗,深圳,2018-04-20 10:06:19,42.0,146293,闻善科技,深圳闻善科技有限公司,50-150人,罗湖区,本科,不需要融资,"移动互联网,硬件",114.105252,22.55669,全职,3-5年
277,1544904,数据挖掘,深圳,2018-04-27 15:17:53,35.0,3058,无秘,深圳无觅科技有限公司,150-500人,南山区,硕士,B轮,"移动互联网,金融",113.95183069,22.55326867,全职,3-5年
278,3936188,自然语言处理工程师/数据挖掘工程师,北京,2018-04-27 11:39:47,28.0,7835,金山办公软件,北京金山软件有限公司,2000人以上,海淀区,本科,上市公司,移动互联网,116.32274,40.036741,全职,3-5年
279,2504664,数据挖掘开发工程师,北京,2018-04-27 11:15:42,28.0,28393,爱云校,北京修齐治平科技有限公司,500-2000人,朝阳区,本科,C轮,"教育,数据服务",116.47971721,39.99502389,全职,3-5年
280,4029327,数据挖掘实习生,北京,2018-04-23 15:38:09,5.6,1331,多盟,多盟睿达科技（中国）有限公司,500-2000人,朝阳区,本科,不需要融资,"移动互联网,广告营销",116.494416,39.990538,全职,不限
281,4457219,数据挖掘工程师,深圳,2018-04-20 15:25:50,28.0,19875,vivo,维沃移动通信有限公司,2000人以上,福田区,本科,未融资,移动互联网,39.897445,116.331398,全职,3-5年
282,4257429,数据挖掘工程师,长沙,2018-04-19 09:16:33,10.8,210433,思利他,湖南思利他网络科技有限公司,15-50人,岳麓区,大专,未融资,数据服务,112.924691,28.230214,全职,3-5年
283,3484056,数据挖掘工程师,广州,2018-04-16 13:54:47,14.0,50784,蓝盾信息安全技术股份有限公司,蓝盾信息安全技术股份有限公司,500-2000人,天河区,本科,上市公司,信息安全,113.3739248,23.11938799,全职,1-3年
284,3995829,数据挖掘实习生,北京,2018-04-29 11:18:40,4.2,5706,洋葱数学,光合新知（北京）科技有限公司,150-500人,朝阳区,本科,C轮,"移动互联网,教育",116.500139,39.991999,实习,应届毕业生
285,4022906,数据挖掘工程师,杭州,2018-04-28 10:28:22,12.0,87226,哲信,杭州哲信信息技术有限公司,150-500人,拱墅区,本科,上市公司,移动互联网,120.10742,30.29961,全职,1-3年
286,3641381,数据挖掘工程师,杭州,2018-04-28 09:49:40,7.0,51512,东信北邮,杭州东信北邮信息技术有限公司,500-2000人,西湖区,硕士,未融资,"移动互联网,其他",120.130203,30.259324,全职,1-3年
287,4461693,数据挖掘工程师--金融行业,北京,2018-04-27 11:18:11,21.0,62831,明略数据,北京明略软件系统有限公司,150-500人,海淀区,本科,C轮,数据服务,0.0,0.0,全职,5-10年
288,4042482,高级数据挖掘工程师,北京,2018-04-24 10:15:48,24.0,11739,随行付支付有限公司,随行付支付有限公司,500-2000人,石景山区,本科,上市公司,金融,115.99339,39.99426,全职,3-5年
289,4459579,推荐算法/数据挖掘,厦门,2018-04-20 22:04:22,14.0,298737,拾数科技,厦门拾数科技有限公司,少于15人,湖里区,本科,天使轮,"移动互联网,数据服务",0.0,0.0,全职,3-5年
290,4037732,数据挖掘工程师,北京,2018-04-18 17:33:45,35.0,107435,熊猫直播,上海熊猫互娱文化有限公司北京分公司,500-2000人,朝阳区,本科,未融资,"移动互联网,文化娱乐",116.48016,39.9969,全职,3-5年
291,430760,数据挖掘工程师,深圳,2018-04-28 09:21:56,29.0,15265,我来贷WeLab,深圳卫盈智信科技有限公司,500-2000人,南山区,本科,B轮,金融,113.94211986,22.5090705,全职,3-5年
292,3983300,数据挖掘&amp;算法工程师,深圳,2018-04-27 10:44:18,21.0,293478,深湾创投,深圳市深湾创新投资管理有限公司,15-50人,南山区,硕士,未融资,医疗健康,0.0,0.0,全职,3-5年
293,3853285,数据挖掘工程师/专家,北京,2018-04-25 14:16:30,42.0,285057,糖豆,小糖互联（北京）网络科技有限公司,50-150人,海淀区,本科,B轮,"社交网络,文化娱乐",116.35446,39.9881,全职,3-5年
294,3417630,数据挖掘,合肥,2018-04-17 11:23:12,7.6,41479,天源迪科,合肥天源迪科信息技术有限公司,500-2000人,高新区,本科,上市公司,"移动互联网,数据服务",117.144361,31.835965,全职,3-5年
295,4102722,数据挖掘工程师,北京,2018-04-25 10:12:01,28.0,4188,INK 银客集团,银客未来科技（北京）有限公司,500-2000人,海淀区,本科,C轮,"移动互联网,金融",0.0,0.0,全职,3-5年
296,4442970,数据挖掘工程师,深圳,2018-04-18 15:30:53,21.0,83025,环球易购,深圳市环球易购电子商务有限公司,2000人以上,南山区,本科,上市公司,电子商务,113.923018,22.51581,全职,3-5年
297,4481845,数据挖掘实习生（应往届）,无锡,2018-04-29 14:36:00,4.8,233304,燃网络,南京网燃网络科技有限公司,少于15人,崇安区,大专,未融资,"移动互联网,游戏",120.307543,31.571228,全职,1年以下
298,2893975,数据挖掘工程师,北京,2018-04-28 12:29:54,24.8,18165,新东方教育行业研究院,北京点石经纬科技有限公司,150-500人,海淀区,硕士,B轮,"移动互联网,教育",116.312696,39.980267,全职,1-3年
299,2731008,数据挖掘开发工程师,北京,2018-04-27 11:39:47,21.0,7835,金山办公软件,北京金山软件有限公司,2000人以上,海淀区,不限,上市公司,移动互联网,116.32274,40.036741,全职,不限
300,3978744,数据挖掘工程师,北京,2018-04-24 14:44:26,19.0,107423,瓜子二手车直卖网,车好多旧机动车经纪(北京)有限公司,2000人以上,海淀区,硕士,C轮,O2O,116.29993611,40.04311563,全职,应届毕业生
301,4106509,数据挖掘专家,杭州,2018-04-12 15:27:34,26.0,165939,橙鹰,杭州橙鹰数据技术有限公司,150-500人,余杭区,硕士,不需要融资,数据服务,120.009041,30.279938,全职,1-3年
302,4259353,数据挖掘/机器学习/算法/运筹优化技术专家,北京,2018-04-29 11:19:04,52.0,50702,美团点评,北京三快在线科技有限公司,2000人以上,朝阳区,本科,D轮及以上,"移动互联网,O2O",116.48001,39.997249,全职,5-10年
303,3992648,数据挖掘工程师（北京）,北京,2018-04-27 09:54:19,31.0,87029,有鱼智能科技,深圳市有鱼智能科技有限公司,150-500人,朝阳区,本科,上市公司,"移动互联网,金融",116.481047,39.996779,全职,1-3年
304,2902948,数据挖掘,东莞,2018-04-25 14:58:03,7.6,180060,东莞美宜佳,东莞市糖酒集团美宜佳便利店有限公司,500-2000人,东莞市市辖区,大专,不需要融资,其他,113.745011,23.024888,全职,1-3年
305,3649987,数据挖掘工程师,北京,2018-04-25 10:12:01,29.0,4188,INK 银客集团,银客未来科技（北京）有限公司,500-2000人,海淀区,本科,C轮,"移动互联网,金融",116.356033,40.046578,全职,3-5年
306,4325172,数据挖掘负责人,北京,2018-04-23 14:32:54,58.0,3522,易宝支付,易宝支付有限公司,500-2000人,朝阳区,硕士,D轮及以上,"移动互联网,金融",39.897445,116.331398,全职,5-10年
307,4094033,数据挖掘工程师,北京,2018-04-28 17:56:31,28.0,36031,一起科技,上海一起作业信息科技有限公司,500-2000人,朝阳区,本科,D轮及以上,"移动互联网,教育",116.48597,40.000355,全职,不限
308,2870025,数据挖掘工程师,北京,2018-04-28 15:42:34,42.0,121879,讯铭,天津讯铭科技发展股份有限公司,150-500人,朝阳区,本科,C轮,"移动互联网,电子商务",116.432958,39.922368,全职,5-10年
309,4325879,数据挖掘工程师（西安）,西安,2018-04-27 11:18:13,21.0,62831,明略数据,北京明略软件系统有限公司,150-500人,未央区,本科,C轮,数据服务,108.940142,34.317829,全职,3-5年
310,3954556,数据挖掘工程师,北京,2018-04-27 11:01:47,35.0,29151,Yi+,北京陌上花科技有限公司,50-150人,海淀区,本科,B轮,移动互联网,116.313649,39.978272,全职,3-5年
311,4411398,数据挖掘工程师或专家（上海）,上海,2018-04-26 17:22:20,21.0,24748,平安科技,平安科技（深圳）有限公司,2000人以上,浦东新区,硕士,不需要融资,金融,121.99341,30.994275,全职,不限
312,2843445,数据挖掘工程师,上海,2018-04-26 16:56:40,31.0,26962,上海你我贷互联网金融信息服务,上海你我贷互联网金融信息服务有限公司,2000人以上,浦东新区,本科,未融资,金融,121.53432,31.21679986,全职,3-5年
313,4265810,数据挖掘研究员,北京,2018-04-19 15:04:08,38.0,341348,孚臻咨询,北京孚臻咨询顾问有限公司,少于15人,海淀区,硕士,不需要融资,不限,116.317971,39.975484,全职,3-5年
314,4446056,高级数据挖掘工程师,深圳,2018-04-28 08:44:11,28.0,286431,AfterShip,AFTERSHIP LIMITED,50-150人,南山区,本科,A轮,"电子商务,企业服务",113.945036,22.528953,全职,3-5年
315,4433379,高级数据挖掘工程师,北京,2018-04-27 21:46:03,21.6,68719,安心医生,北京惠福康信息咨询有限公司,50-150人,朝阳区,本科,B轮,移动互联网,116.442184,39.923132,全职,3-5年
316,3568461,（高级）数据挖掘工程师,上海,2018-04-26 13:26:39,35.0,83866,华院数据,华院数据技术（上海）有限公司,500-2000人,杨浦区,硕士,C轮,"企业服务,数据服务",39.897445,116.331398,全职,1-3年
317,1813885,数据挖掘,北京,2018-04-27 09:03:14,11.4,23727,知网,同方知网（北京）技术有限公司,2000人以上,海淀区,硕士,上市公司,"移动互联网,电子商务",116.35652,40.04463006,全职,不限
318,2669822,数据研究院-数据挖掘工程师,深圳,2018-04-28 16:05:04,22.4,84086,笨鸟社交,厦门笨鸟电子商务有限公司,150-500人,南山区,硕士,B轮,企业服务,113.952408,22.536127,全职,3-5年
319,4224045,高级数据挖掘主管,深圳,2018-04-28 13:21:02,33.0,917,极光,深圳市和讯华谷信息技术有限公司,150-500人,南山区,本科,D轮及以上,"移动互联网,数据服务",113.907458,22.550007,全职,5-10年
320,4318842,数据挖掘工程师,广州,2018-04-28 11:20:03,17.0,17863,骑鹅旅行,广州市骑鹅游信息技术咨询服务有限公司,50-150人,海珠区,本科,A轮,"旅游,数据服务",113.317388,23.083801,全职,不限
321,4037560,中级数据挖掘工程师,南京,2018-04-27 10:12:34,14.0,32179,南京领添,南京领添信息技术有限公司,500-2000人,雨花台区,本科,C轮,"移动互联网,电子商务",118.75546,31.973879,全职,1-3年
322,3012187,数据挖掘工程师/DMP 产品经理,深圳,2018-04-28 15:14:40,15.2,8332,任子行,任子行网络技术股份有限公司,500-2000人,南山区,本科,上市公司,移动互联网,113.908136,22.550041,全职,3-5年
323,3839473,高级数据挖掘工程师,北京,2018-04-28 10:37:32,28.0,107423,瓜子二手车直卖网,车好多旧机动车经纪(北京)有限公司,2000人以上,海淀区,本科,C轮,O2O,116.29905,40.042709,全职,1-3年
324,4416938,数据挖掘工程师,北京,2018-04-27 10:17:37,24.8,91680,诺信创联,北京诺信创联科技有限公司,15-50人,朝阳区,本科,A轮,"移动互联网,医疗健康",116.43332,39.953219,全职,1-3年
325,4489938,数据挖掘工程师,北京,2018-04-26 17:56:50,17.0,143607,福佑卡车,北京福佑在线信息技术有限公司,150-500人,海淀区,本科,C轮,O2O,116.32092,39.976698,全职,1-3年
326,4429270,数据挖掘工程师,上海,2018-04-16 17:42:38,15.2,137619,睿畜科技,上海睿畜电子科技有限公司,15-50人,嘉定区,硕士,天使轮,"数据服务,硬件",121.25297,31.40746,全职,1-3年
327,3336047,数据挖掘工程师,北京,2018-04-03 18:23:06,28.0,18139,京东集团,北京京东世纪贸易有限公司,2000人以上,大兴区,本科,上市公司,"电子商务,数据服务",116.513019,39.797041,全职,5-10年
328,1209377,数据挖掘工程师,深圳,2018-04-28 18:38:14,16.0,102366,星医科技,深圳星医科技有限公司,50-150人,福田区,硕士,A轮,"数据服务,移动互联网",,,全职,不限
329,3702777,数据挖掘工程师,广州,2018-04-28 15:50:27,19.0,68025,广州思迈特,广州思迈特软件有限公司,150-500人,天河区,硕士,不需要融资,"企业服务,数据服务",113.410427,23.172312,全职,1-3年
330,4462893,高级数据挖掘.,上海,2018-04-26 09:45:14,28.0,50702,美团点评,北京三快在线科技有限公司,2000人以上,长宁区,本科,D轮及以上,"移动互联网,O2O",,,全职,3-5年
331,4042084,数据挖掘实习生,天津,2018-04-03 16:44:33,3.8,8861,妙计旅行,北京汇行科技有限公司,150-500人,滨海新区,本科,B轮,旅游,117.679773,38.996628,兼职,1年以下
332,3916907,数据挖掘工程师（Base深圳）,广州,2018-04-28 11:02:33,35.0,19875,vivo,维沃移动通信有限公司,2000人以上,天河区,本科,未融资,移动互联网,113.321504,23.131135,全职,3-5年
333,4317468,数据挖掘工程师,北京,2018-04-26 19:50:25,22.8,274701,高济医疗,高济（天津）投资有限公司,150-500人,东城区,本科,不需要融资,"医疗健康,数据服务",116.386993,39.969106,全职,5-10年
334,4283709,数据挖掘开发工程师,北京,2018-04-26 15:59:44,21.0,129801,言之有物科技,北京言之有物科技有限公司,50-150人,朝阳区,本科,A轮,"移动互联网,电子商务",0.0,0.0,全职,1-3年
335,3842170,数据挖掘工程师-语音识别,北京,2018-04-26 10:45:34,28.0,136443,马上金融,马上消费金融股份有限公司,2000人以上,朝阳区,本科,不需要融资,"金融,移动互联网",116.47826581,39.91290348,全职,3-5年
336,4400606,高级数据挖掘工程师,上海,2018-04-23 11:14:19,24.0,22321,晶赞科技Zamplus,上海晶赞科技发展有限公司,150-500人,闸北区,本科,D轮及以上,"数据服务,文化娱乐",121.44872,31.283477,全职,3-5年
337,4431503,数据挖掘,杭州,2018-04-23 11:05:15,21.0,51188,NALA,杭州徐娜拉电子商务有限公司,150-500人,江干区,本科,A轮,电子商务,120.215912,30.246248,全职,3-5年
338,1760669,数据挖掘,上海,2018-04-09 17:04:19,21.0,7531,北风网,上海育创网络科技有限公司,150-500人,浦东新区,本科,B轮,"教育,数据服务",,,全职,1-3年
339,4200020,高级数据挖掘工程师,北京,2018-04-08 17:16:45,28.0,6996,智融集团,北京智融时代科技有限公司,150-500人,海淀区,本科,C轮,金融,116.345834,39.977454,全职,3-5年
340,3777383,数据挖掘工程师,武汉,2018-04-27 14:33:43,14.0,35996,顺丰科技有限公司,顺丰科技有限公司,500-2000人,江夏区,本科,不需要融资,"移动互联网,电子商务",114.424741,30.456176,全职,3-5年
341,3987985,数据挖掘工程师,北京,2018-04-27 09:31:15,33.0,123562,北京云锋投资,北京瑞东环球投资咨询有限公司,150-500人,朝阳区,本科,上市公司,"移动互联网,金融",116.432958,39.922368,全职,不限
342,3660201,中级数据挖掘工程师,上海,2018-04-26 10:43:45,24.0,262289,上海晋景数据,上海晋景数据科技有限公司,少于15人,静安区,本科,不需要融资,"数据服务,移动互联网",121.437096,31.292379,全职,1-3年
343,3264842,数据挖掘专家,上海,2018-04-26 09:37:29,31.0,28243,阅文集团,上海阅文信息技术有限公司,500-2000人,浦东新区,本科,上市公司,移动互联网,121.99341,30.994275,全职,5-10年
344,3196844,搜狐媒体-集团商业部-数据挖掘工程师,北京,2018-04-17 10:55:05,24.0,106303,搜狐集团,北京搜狐新媒体信息技术有限公司,2000人以上,海淀区,本科,上市公司,"移动互联网,广告营销",116.325402,39.983335,全职,3-5年
345,3984532,算法工程师-数据挖掘,北京,2018-04-01 21:12:12,21.0,18139,京东集团,北京京东世纪贸易有限公司,2000人以上,大兴区,本科,上市公司,"电子商务,数据服务",116.513019,39.797041,全职,3-5年
346,3158655,数据挖掘工程师,上海,2018-04-28 12:17:25,17.0,119645,一条视频,上海一条网络科技有限公司,150-500人,徐汇区,本科,C轮,电子商务,121.395334,31.160489,全职,1-3年
347,3587022,资深数据挖掘工程师,北京,2018-04-28 09:57:13,35.0,62,字节跳动,北京字节跳动科技有限公司,2000人以上,海淀区,本科,C轮,"移动互联网,数据服务",39.971268,39.971268,全职,不限
348,3314503,【实习生】NLP/数据挖掘/算法,北京,2018-04-27 12:19:45,3.8,4510,春雨移动健康,北京春雨天下软件有限公司,150-500人,海淀区,硕士,C轮,移动互联网,116.351825,40.00853,实习,应届毕业生
349,3825979,数据挖掘工程师,北京,2018-04-27 10:14:27,28.0,69932,花椒直播,北京密境和风科技有限公司,150-500人,朝阳区,本科,不需要融资,"移动互联网,社交网络",116.490794,39.982777,全职,3-5年
350,4050230,数据挖掘工程师（北京）,深圳,2018-04-26 11:10:43,28.0,135243,试金石信用,试金石信用服务有限公司,50-150人,南山区,本科,不需要融资,"数据服务,移动互联网",113.994059,22.993238,全职,3-5年
351,3757226,数据挖掘实习生,南京,2018-04-12 16:45:13,11.2,147472,江苏新景祥,江苏新景祥网络科技股份有限公司,2000人以上,鼓楼区,硕士,上市公司,"移动互联网,广告营销",118.731063,32.039029,全职,1年以下
352,2459879,数据挖掘工程师,杭州,2018-04-12 13:56:25,21.0,329,网易,网易（杭州）有限公司,2000人以上,,本科,上市公司,"电子商务,移动互联网",120.192299,30.187977,全职,3-5年
353,4488037,数据挖掘工程师,北京,2018-04-26 15:29:00,35.0,170733,芸品绿,杭州芸品绿信息科技有限公司,50-150人,朝阳区,硕士,天使轮,信息安全,116.492332,39.97626,全职,3-5年
354,4439984,数据挖掘工程师,北京,2018-04-18 10:58:11,17.0,43914,荣大科技,北京荣大科技有限公司,50-150人,西城区,本科,不需要融资,"移动互联网,数据服务",116.359518,39.936298,全职,3-5年
355,3497285,数据挖掘实习生,北京,2018-04-26 11:14:13,4.2,17751,人人车,北京善义善美科技有限公司,2000人以上,朝阳区,本科,D轮及以上,O2O,116.44040535,40.04284308,全职,不限
356,4462672,LBS数据挖掘工程师,上海,2018-04-23 10:19:11,19.0,185078,深兰科技,深兰科技（上海）有限公司,150-500人,长宁区,博士,B轮,"硬件,移动互联网",121.415794,31.220116,全职,应届毕业生
357,4293133,数据挖掘工程师,上海,2018-04-21 22:51:36,21.0,49653,人人视频,上海众多美网络科技有限公司,150-500人,杨浦区,本科,B轮,"移动互联网,文化娱乐",121.508267,31.30881,全职,1-3年
358,3262074,高级数据挖掘专家,杭州,2018-04-28 17:52:59,26.0,165939,橙鹰,杭州橙鹰数据技术有限公司,150-500人,余杭区,硕士,不需要融资,数据服务,120.008998,30.279884,全职,5-10年
359,4217143,数据挖掘工程师,深圳,2018-04-27 17:16:22,21.0,1868,平安产险,中国平安财产保险股份有限公司,2000人以上,福田区,本科,上市公司,"移动互联网,金融",114.055755,22.533344,全职,1-3年
360,4150935,高级数据挖掘工程师,成都,2018-04-25 13:17:22,35.0,18139,京东集团,北京京东世纪贸易有限公司,2000人以上,武侯区,本科,上市公司,"电子商务,数据服务",103.976124,30.63196,全职,3-5年
361,4356303,中级数据挖掘与模型分析师,上海,2018-04-27 15:47:37,22.2,73604,萨摩耶金服,深圳萨摩耶互联网金融服务有限公司,150-500人,浦东新区,本科,B轮,金融,121.559524,31.157714,全职,3-5年
362,4449093,数据挖掘工程师,北京,2018-04-23 10:19:11,29.0,170070,好贷网,北京心向优势信息技术有限公司,500-2000人,东城区,本科,C轮,"移动互联网,金融",0.0,0.0,全职,不限
363,4459328,高级数据挖掘工程师,深圳,2018-04-28 11:12:45,21.0,110293,友宝,深圳友宝科斯科技有限公司,500-2000人,南山区,本科,上市公司,"O2O,移动互联网",113.932742,22.540955,全职,3-5年
364,4434795,资深数据挖掘工程师 (MJ000027),深圳,2018-04-26 15:47:12,28.0,117189,追一科技,深圳追一科技有限公司,150-500人,南山区,本科,B轮,"移动互联网,企业服务",113.946882,22.546157,全职,3-5年
365,4419067,资深数据挖掘工程师（KKL）,杭州,2018-04-25 14:17:45,24.8,9327,铭师堂,杭州铭师堂教育科技发展有限公司,500-2000人,拱墅区,本科,不需要融资,"移动互联网,教育",120.141387,30.320581,全职,3-5年
366,4149731,数据挖掘工程师,成都,2018-04-24 15:31:12,9.6,221256,宜贷网,上海易贷网金融信息服务有限公司四川分公司,150-500人,锦江区,大专,A轮,"移动互联网,金融",0.0,0.0,全职,1-3年
367,4461577,数据挖掘工程师,深圳,2018-04-22 15:26:54,12.0,20409,TP-LINK,普联技术有限公司,2000人以上,南山区,本科,不需要融资,硬件,113.94467,22.54453,全职,不限
368,4121535,(资深)数据挖掘工程师,杭州,2018-04-17 14:58:44,24.8,165939,橙鹰,杭州橙鹰数据技术有限公司,150-500人,余杭区,硕士,不需要融资,数据服务,120.008998,30.279884,全职,1-3年
369,4390449,数据挖掘开发工程师（偏工程）,深圳,2018-04-28 11:07:19,21.0,76066,晶泰科技,深圳晶泰科技有限公司,50-150人,福田区,硕士,B轮,"企业服务,医疗健康",114.022503,22.53472,全职,3-5年
370,2440129,高级算法与数据挖掘工程师,深圳,2018-04-27 15:12:19,35.0,3058,无秘,深圳无觅科技有限公司,150-500人,南山区,本科,B轮,"移动互联网,金融",113.951704,22.553815,全职,3-5年
371,4050265,数据挖掘工程师（北京）,北京,2018-04-26 11:10:43,28.0,135243,试金石信用,试金石信用服务有限公司,50-150人,西城区,本科,不需要融资,"数据服务,移动互联网",116.375225,39.896565,全职,3-5年
372,3469320,数据挖掘工程师,厦门,2018-04-25 08:50:19,11.2,205510,外贸牛,厦门谷道集团有限公司,50-150人,湖里区,大专,未融资,"电子商务,移动互联网",118.158796,24.526926,全职,3-5年
373,3423427,高级数据挖掘工程师,北京,2018-04-24 14:18:46,35.0,929,最右,北京小川在线网络技术有限公司,150-500人,海淀区,本科,B轮,移动互联网,116.368056,39.980092,全职,3-5年
374,4261935,数据挖掘工程师,北京,2018-04-16 13:49:33,24.0,113895,互动科技,北京互动金服科技有限公司,50-150人,朝阳区,本科,不需要融资,"移动互联网,O2O",116.474751,40.012258,全职,3-5年
375,2511860,数据挖掘,北京,2018-04-23 12:07:35,19.0,18139,京东集团,北京京东世纪贸易有限公司,2000人以上,大兴区,本科,上市公司,"电子商务,数据服务",116.56784934,39.79105081,全职,3-5年
376,4181138,数据挖掘工程师,北京,2018-04-03 17:10:34,28.0,50702,美团点评,北京三快在线科技有限公司,2000人以上,朝阳区,本科,D轮及以上,"移动互联网,O2O",116.488126,40.008776,全职,5-10年
377,3942303,数据挖掘工程师(上海),上海,2018-04-28 13:21:01,21.0,917,极光,深圳市和讯华谷信息技术有限公司,150-500人,普陀区,本科,D轮及以上,"移动互联网,数据服务",121.419056,31.254915,全职,1-3年
378,4346033,阿里影业-资深数据挖掘,北京,2018-04-28 09:54:59,31.0,95523,阿里影业,中联盛世文化（北京）有限公司,2000人以上,朝阳区,不限,上市公司,"移动互联网,文化娱乐",0.0,0.0,全职,不限
379,3480370,（高级）数据挖掘工程师,杭州,2018-04-17 20:59:38,26.0,165939,橙鹰,杭州橙鹰数据技术有限公司,150-500人,余杭区,不限,不需要融资,数据服务,120.008998,30.279884,全职,不限
380,4199798,数据挖掘/建模工程师,南宁,2018-04-13 09:59:02,8.8,225097,米嗦科技,南宁米嗦网络科技有限公司,15-50人,西乡塘区,大专,天使轮,"移动互联网,数据服务",108.275222,22.873421,全职,1-3年
381,3766934,资深数据挖掘工程师/算法专家,北京,2018-04-28 09:48:48,38.0,3786,宜信,普信恒业科技发展（北京）有限公司,2000人以上,朝阳区,硕士,上市公司,金融,115.99339,39.99426,全职,5-10年
382,4440454,数据挖掘工程师（成都）,成都,2018-04-27 09:53:04,16.8,267423,君合创胜,南京君合创胜数据科技有限责任公司,500-2000人,青羊区,本科,不需要融资,"企业服务,移动互联网",104.006648,30.67027,全职,5-10年
383,4448886,数据挖掘专家,北京,2018-04-19 12:34:23,36.0,1970,去哪儿网,北京趣拿软件科技有限公司,2000人以上,海淀区,本科,不需要融资,移动互联网,115.99339,39.99426,全职,3-5年
384,4433047,数据挖掘工程师--北京,北京,2018-04-17 11:50:15,28.0,23291,美图公司,厦门美图之家科技有限公司,500-2000人,海淀区,不限,上市公司,"移动互联网,硬件",39.897445,116.331398,全职,3-5年
385,2662507,高级数据挖掘工程师,深圳,2018-04-28 10:43:53,22.8,38075,招联金融,招联消费金融有限公司,500-2000人,南山区,本科,不需要融资,金融,113.942084,22.548687,全职,5-10年
386,4179579,数据挖掘工程师,北京,2018-04-20 09:38:49,21.0,436,360,奇虎360科技有限公司,2000人以上,朝阳区,本科,上市公司,"移动互联网,游戏",116.49010985,39.98352985,全职,3-5年
387,2671102,数据挖掘工程师,北京,2018-04-19 17:53:41,49.0,98015,和远互联网,湖北和远气体股份有限公司,500-2000人,朝阳区,本科,不需要融资,"移动互联网,电子商务",116.47241757,39.91296219,全职,3-5年
388,3068242,java工程师-----数据挖掘方向,北京,2018-04-28 09:55:53,19.0,56363,安易信,北京安易信科技有限公司,50-150人,海淀区,本科,上市公司,"金融,数据服务",116.351057,39.977249,全职,1-3年
389,3984912,数据挖掘工程师-互联网平台事业部,深圳,2018-04-28 09:29:18,17.0,29682,人人聚财,深圳市人人聚财金融信息服务有限公司,2000人以上,南山区,本科,A轮,金融,113.939728,22.525353,全职,3-5年
390,3600763,数据挖掘技术专家,北京,2018-04-29 11:19:04,38.0,50702,美团点评,北京三快在线科技有限公司,2000人以上,朝阳区,本科,D轮及以上,"移动互联网,O2O",116.48001,39.997249,全职,3-5年
391,4362625,商品数据挖掘专家,成都,2018-04-27 16:48:04,29.0,72555,多点Dmall,多点生活（中国）网络科技有限公司,500-2000人,高新区,本科,A轮,"电子商务,O2O",104.067234,30.548863,全职,5-10年
392,4462936,数据挖掘专家-广告,杭州,2018-04-23 10:41:28,21.0,202323,阿里巴巴-B类事业群,阿里巴巴（中国）网络技术有限公司,2000人以上,滨江区,本科,上市公司,"移动互联网,电子商务",120.190216,30.18963,全职,3-5年
393,4425142,数据挖掘/机器学习工程师-小米金融,北京,2018-04-28 15:29:22,28.0,520,小米,北京小米科技有限责任公司,2000人以上,海淀区,本科,D轮及以上,移动互联网,116.335185,40.027999,全职,3-5年
394,3507797,高级数据挖掘工程师,北京,2018-04-28 14:29:41,28.0,102322,百度外卖,北京小度信息科技有限公司,2000人以上,海淀区,本科,不需要融资,"移动互联网,O2O",116.308659,40.039285,全职,3-5年
395,3647720,高级数据挖掘工程师,北京,2018-04-28 11:30:28,21.0,5142,人人网,北京千橡网景科技发展有限公司,2000人以上,朝阳区,本科,上市公司,"社交网络,金融",116.49696,39.97638006,全职,5-10年
396,3640203,数据挖掘分析,厦门,2018-04-28 09:26:22,11.2,26742,趣游（厦门）科技有限公司,趣游（厦门）科技有限公司,150-500人,湖里区,硕士,不需要融资,移动互联网,118.138084,24.516323,全职,不限
397,4135659,数据挖掘架构师,北京,2018-04-27 17:45:19,42.0,49187,惠民网,中商惠民（北京）电子商务有限公司,2000人以上,朝阳区,本科,B轮,电子商务,116.46661024,40.01816005,全职,5-10年
398,3073797,数据挖掘工程师,北京,2018-04-26 15:27:34,14.0,108759,有书,北京万维之道信息技术有限公司,150-500人,朝阳区,本科,A轮,"移动互联网,文化娱乐",116.489053,39.99902,全职,1-3年
399,3467249,数据挖掘工程师,北京,2018-04-13 17:52:46,19.0,86110,首汽约车,首约科技（北京）有限公司,2000人以上,东城区,本科,B轮,"移动互联网,O2O",116.432749,39.920177,全职,3-5年
400,4364335,数据挖掘经理,北京,2018-04-28 14:13:31,21.0,106303,搜狐集团,北京搜狐新媒体信息技术有限公司,2000人以上,海淀区,本科,上市公司,"移动互联网,广告营销",0.0,0.0,全职,5-10年
401,4224046,高级数据挖掘工程师,深圳,2018-04-28 13:21:02,28.0,917,极光,深圳市和讯华谷信息技术有限公司,150-500人,南山区,本科,D轮及以上,"移动互联网,数据服务",113.907458,22.550007,全职,3-5年
402,4081465,数据挖掘专家-风控,北京,2018-04-28 10:31:16,35.0,62,字节跳动,北京字节跳动科技有限公司,2000人以上,海淀区,本科,C轮,"移动互联网,数据服务",39.977067,39.977067,全职,3-5年
403,4227904,数据挖掘工程师,成都,2018-04-24 09:21:54,21.0,213786,咪咕,咪咕文化科技有限公司,2000人以上,高新区,本科,不需要融资,"移动互联网,文化娱乐",104.047146,30.58144,全职,3-5年
404,4066558,数据挖掘算法工程师,深圳,2018-04-28 12:04:03,21.0,124262,Minieye,深圳佑驾创新科技有限公司,50-150人,南山区,本科,A轮,"硬件,其他",113.952408,22.536121,全职,3-5年
405,3937585,数据挖掘工程师/专家,成都,2018-04-24 14:22:05,28.0,50702,美团点评,北京三快在线科技有限公司,2000人以上,高新区,本科,D轮及以上,"移动互联网,O2O",104.059446,30.633018,全职,3-5年
406,4440770,数据挖掘工程师,北京,2018-04-18 11:50:33,28.0,62,字节跳动,北京字节跳动科技有限公司,2000人以上,海淀区,本科,C轮,"移动互联网,数据服务",39.971268,39.971268,全职,1-3年
407,4142602,数据挖掘工程师-小爱音箱,北京,2018-04-28 15:29:21,28.0,520,小米,北京小米科技有限责任公司,2000人以上,海淀区,本科,D轮及以上,移动互联网,116.332861,40.040791,全职,1-3年
408,4164084,数据挖掘,深圳,2018-04-27 17:38:26,14.0,195697,华盛通,深圳市时代华盛网络科技有限公司,50-150人,南山区,本科,不需要融资,"金融,移动互联网",113.932749,22.541047,全职,3-5年
409,4295768,资深数据挖掘与模型师,上海,2018-04-27 15:47:37,24.0,73604,萨摩耶金服,深圳萨摩耶互联网金融服务有限公司,150-500人,浦东新区,本科,B轮,金融,121.559524,31.157714,全职,3-5年
410,4411386,数据挖掘工程师或专家（北京）,北京,2018-04-26 17:22:20,21.0,24748,平安科技,平安科技（深圳）有限公司,2000人以上,朝阳区,硕士,不需要融资,金融,116.459244,39.949945,全职,不限
411,3415275,资深数据挖掘工程师,杭州,2018-04-25 10:04:16,21.0,329,网易,网易（杭州）有限公司,2000人以上,滨江区,本科,上市公司,"电子商务,移动互联网",120.192295,30.188393,全职,3-5年
412,4397897,数据挖掘工程师,成都,2018-04-10 16:36:52,19.0,270514,中清云联,四川中清科华云联科技有限公司,50-150人,高新区,本科,不需要融资,医疗健康,104.073219,30.602148,全职,3-5年
413,4212935,数据挖掘工程师,长春,2018-04-03 15:45:09,13.2,91069,同方知网吉林省分公司,同方知网（北京）技术有限公司吉林省分公司,2000人以上,经济开发区,本科,不需要融资,教育,125.309357,43.822862,全职,1-3年
414,4329578,高级数据分析师/数据挖掘工程师,北京,2018-03-30 16:26:28,14.0,286452,今晨盛辉,北京今晨盛辉信息技术有限公司,50-150人,朝阳区,本科,不需要融资,金融,116.492054,39.996385,全职,3-5年
415,4128293,高级数据挖掘工程师,上海,2018-04-28 17:50:25,31.0,1738,有鱼金融科技,上海彩亿信息技术有限公司,500-2000人,徐汇区,本科,B轮,"移动互联网,金融",121.40437233,31.16440487,全职,5-10年
416,4354106,数据挖掘与算法工程师,深圳,2018-04-28 17:04:01,31.0,104457,聚讯达,深圳市聚讯达科技股份有限公司,500-2000人,宝安区,本科,B轮,"移动互联网,其他",113.88166,22.56353,全职,3-5年
417,4049215,资深数据挖掘工程师,杭州,2018-04-28 09:47:44,19.0,114335,袋鼠云,杭州玳数科技有限公司,50-150人,西湖区,硕士,A轮,数据服务,120.06712,30.289997,全职,3-5年
418,4058441,数据挖掘工程师,上海,2018-04-26 18:00:59,21.0,18139,京东集团,北京京东世纪贸易有限公司,2000人以上,长宁区,本科,上市公司,"电子商务,数据服务",0.0,0.0,全职,3-5年
419,4095123,数据挖掘专家,北京,2018-04-19 15:33:08,24.0,53284,车联天下,北京车联天下信息技术有限公司,150-500人,朝阳区,本科,B轮,"移动互联网,O2O",0.0,0.0,全职,3-5年
420,4169914,数据挖掘工程师,北京,2018-04-03 17:10:35,28.0,50702,美团点评,北京三快在线科技有限公司,2000人以上,朝阳区,本科,D轮及以上,"移动互联网,O2O",116.488126,40.008776,全职,5-10年
421,4411375,数据挖掘工程师或专家（深圳）,深圳,2018-04-26 17:22:20,21.0,24748,平安科技,平安科技（深圳）有限公司,2000人以上,福田区,硕士,不需要融资,金融,113.993578,22.99368,全职,不限
422,4444747,资深数据挖掘师,北京,2018-04-18 17:41:51,42.0,342330,博乐才富,深圳市博乐才富企业管理有限公司,15-50人,海淀区,本科,不需要融资,"企业服务,其他",116.329892,39.971829,全职,5-10年
423,3985190,数据挖掘师,北京,2018-04-11 12:42:29,24.0,1575,百度,百度在线网络技术（北京）有限公司,2000人以上,海淀区,本科,不需要融资,"移动互联网,数据服务",116.273399,40.043429,全职,1-3年
424,4485702,数据挖掘专家-SH,上海,2018-04-28 14:44:30,23.6,254581,小黑鱼科技有限公司,小黑鱼科技有限公司,150-500人,浦东新区,本科,未融资,"移动互联网,金融",0.0,0.0,全职,3-5年
425,4037676,高级数据挖掘工程师,南京,2018-04-27 10:12:33,14.0,32179,南京领添,南京领添信息技术有限公司,500-2000人,雨花台区,本科,C轮,"移动互联网,电子商务",118.75546,31.973879,全职,1-3年
426,3296739,数据挖掘工程师,北京,2018-04-01 15:29:31,21.0,33016,Eyespage,页码（北京）科技有限公司,50-150人,朝阳区,本科,A轮,移动互联网,116.47598,39.99859,全职,3-5年
427,4020296,手游数据挖掘师,杭州,2018-04-28 16:14:47,10.8,289100,藤木网络,杭州藤木网络科技有限公司,50-150人,滨江区,本科,天使轮,游戏,0.0,0.0,全职,3-5年
428,1930380,高级数据挖掘工程师,深圳,2018-04-25 19:56:39,28.0,6927,OPPO,广东欧珀移动通信有限公司,2000人以上,南山区,本科,不需要融资,移动互联网,113.993578,22.99368,全职,3-5年
429,4308562,数据挖掘工程师,北京,2018-04-24 14:10:40,14.0,118384,旭东数字影像,深圳市旭东数字医学影像技术有限公司,50-150人,海淀区,硕士,A轮,医疗健康,0.0,0.0,全职,1年以下
430,4039922,数据挖掘专家,北京,2018-04-23 12:00:51,33.0,72106,蛋壳公寓,紫梧桐（北京）资产管理有限公司,2000人以上,东城区,本科,B轮,O2O,116.430795,39.923886,全职,5-10年
431,4437210,(资深)数据挖掘工程师,杭州,2018-04-17 17:47:20,19.0,165939,橙鹰,杭州橙鹰数据技术有限公司,150-500人,余杭区,本科,不需要融资,数据服务,120.018621,30.281507,全职,不限
432,4356300,初级数据挖掘与模型分析师,上海,2018-04-27 15:47:37,12.8,73604,萨摩耶金服,深圳萨摩耶互联网金融服务有限公司,150-500人,浦东新区,本科,B轮,金融,121.559524,31.157714,全职,1-3年
433,2818368,数据挖掘工程师,杭州,2018-04-27 13:49:41,4.8,110890,邦盛科技,浙江邦盛科技有限公司,150-500人,西湖区,本科,B轮,"信息安全,金融",0.0,0.0,实习,应届毕业生
434,4290792,数据挖掘高级工程师,北京,2018-04-27 10:35:08,48.0,21732,FitTime睿健时代,北京飞拓互联科技有限公司,150-500人,朝阳区,本科,C轮,"移动互联网,社交网络",116.488426,40.000182,全职,3-5年
435,2531857,资深数据挖掘工程师,北京,2018-04-27 10:37:11,38.0,50702,美团点评,北京三快在线科技有限公司,2000人以上,,本科,D轮及以上,"移动互联网,O2O",116.48762151,40.00609607,全职,3-5年
436,4156508,数据挖掘师,武汉,2018-04-23 16:36:05,6.6,2238,九州通医药集团股份有限公司,九州通医药集团股份有限公司,2000人以上,汉阳区,硕士,上市公司,电子商务,114.201851,30.545591,全职,1-3年
437,3702137,数据挖掘专家,杭州,2018-04-23 10:09:36,36.0,234170,嘉侑财富互联网金融,上海嘉侑股权投资基金管理有限公司杭州分公司,500-2000人,西湖区,本科,不需要融资,"移动互联网,金融",120.137204,30.273066,全职,5-10年
438,3808562,数据挖掘工程师,兰州,2018-04-20 14:33:16,8.8,39599,大方电子,兰州大方电子有限责任公司,50-150人,七里河区,大专,A轮,"企业服务,信息安全",103.790972,36.062874,全职,应届毕业生
439,4492186,数据挖掘工程师,重庆,2018-04-27 11:01:51,7.0,373554,药智网,重庆康洲大数据有限公司,150-500人,南岸区,本科,未融资,"移动互联网,医疗健康",106.638702,29.48794,全职,1-3年
440,1459921,数据挖掘工程师,上海,2018-04-22 14:54:28,21.0,97882,达观数据,达而观信息科技（上海）有限公司,50-150人,浦东新区,本科,A轮,移动互联网,121.60245,31.199732,全职,1-3年
441,3499646,数据挖掘工程师（lsht）,北京,2018-04-02 11:02:28,24.0,329,网易,网易（杭州）有限公司,2000人以上,海淀区,硕士,上市公司,"电子商务,移动互联网",116.275959,40.042831,全职,1-3年
442,2770809,NLP/数据挖掘工程师,北京,2018-04-27 11:04:10,15.0,6364,新华网,新华网股份有限公司,500-2000人,西城区,硕士,上市公司,"移动互联网,文化娱乐",116.359914,39.900372,全职,3-5年
443,4445586,高级数据挖掘工程师,上海,2018-04-26 16:15:12,22.0,1403,爱回收,上海悦易网络信息技术有限公司,500-2000人,杨浦区,本科,D轮及以上,"电子商务,O2O",121.99341,30.994275,全职,3-5年
444,3214084,数据挖掘工程师,上海,2018-04-27 10:45:40,28.0,70160,上元教育集团,苏州市捷梯培训学校,500-2000人,浦东新区,硕士,不需要融资,教育,121.517921,31.243016,全职,3-5年
445,4285567,搜狐媒体-集团商业部-数据挖掘工程师,北京,2018-04-17 10:55:03,21.0,106303,搜狐集团,北京搜狐新媒体信息技术有限公司,2000人以上,海淀区,本科,上市公司,"移动互联网,广告营销",,,全职,3-5年
446,3945175,数据挖掘工程师 （全职/实习）,北京,2018-04-29 23:09:27,21.0,219252,融慧金科,融慧金科金融服务外包（北京）有限公司,50-150人,朝阳区,本科,A轮,"金融,数据服务",116.477076,39.91244,全职,1-3年
447,3660218,初级数据挖掘工程师,上海,2018-04-26 10:43:45,19.0,262289,上海晋景数据,上海晋景数据科技有限公司,少于15人,静安区,本科,不需要融资,"数据服务,移动互联网",121.437096,31.292379,全职,1-3年
448,3903218,数据挖掘工程师,北京,2018-04-02 20:01:18,21.0,436,360,奇虎360科技有限公司,2000人以上,朝阳区,本科,上市公司,"移动互联网,游戏",116.491128,39.983132,全职,3-5年
449,4211819,数据挖掘,北京,2018-04-28 10:55:36,40.0,3564,同程艺龙,同程网络科技股份有限公司,2000人以上,朝阳区,本科,D轮及以上,"旅游,电子商务",116.494359,39.976656,全职,3-5年
450,2714580,资深数据挖掘工程师/专家,北京,2018-04-29 11:19:05,35.0,50702,美团点评,北京三快在线科技有限公司,2000人以上,朝阳区,本科,D轮及以上,"移动互联网,O2O",116.48001,39.99724905,全职,3-5年
451,3784145,金融数据挖掘/模型开发研究员,北京,2018-04-29 23:09:27,21.0,219252,融慧金科,融慧金科金融服务外包（北京）有限公司,50-150人,朝阳区,本科,A轮,"金融,数据服务",116.477076,39.91244,全职,不限
452,4031888,数据挖掘工程师,北京,2018-04-27 18:29:42,26.0,29496,闪银奇异,北京闪银奇异科技有限公司,500-2000人,朝阳区,本科,D轮及以上,"移动互联网,金融",116.983011,36.612889,全职,1-3年
453,4074649,数据挖掘工程师,深圳,2018-04-26 11:17:08,35.0,303711,朗牧泽,深圳朗牧泽信息技术有限公司,50-150人,福田区,本科,未融资,"移动互联网,金融",114.056521,22.5272,全职,3-5年
454,3504279,数据挖掘工程师（中高级）,北京,2018-04-26 11:14:14,19.0,17751,人人车,北京善义善美科技有限公司,2000人以上,朝阳区,本科,D轮及以上,O2O,116.44040535,40.04284308,全职,1-3年
455,3828546,数据挖掘工程师,北京,2018-04-25 16:48:52,21.0,113856,作业帮,小船出海教育科技（北京）有限公司,500-2000人,海淀区,本科,C轮,"移动互联网,教育",116.303062,40.044203,全职,3-5年
456,4476428,文本分析与数据挖掘工程师-国际化,北京,2018-04-24 20:59:55,28.0,62,字节跳动,北京字节跳动科技有限公司,2000人以上,海淀区,本科,C轮,"移动互联网,数据服务",116.332602,39.971268,全职,3-5年
457,3293808,游戏数据挖掘及处理,重庆,2018-04-30 09:14:55,9.8,167239,重庆采田信息科技有限公司,重庆采田信息科技有限公司,15-50人,渝北区,本科,不需要融资,"移动互联网,游戏",106.528508,29.609326,全职,1-3年
458,4102274,数据挖掘工程师,深圳,2018-04-28 18:06:27,21.0,13809,随手科技,深圳市随手科技有限公司,500-2000人,南山区,本科,C轮,"移动互联网,金融",113.954951,22.533911,全职,3-5年
459,4405532,数据挖掘工程师,北京,2018-04-11 16:56:39,31.0,53398,小年糕,北京小年糕互联网技术有限公司,50-150人,海淀区,本科,B轮,移动互联网,116.370369,39.982578,全职,1-3年
460,3444130,高级数据挖掘,深圳,2018-04-27 15:12:25,35.0,3058,无秘,深圳无觅科技有限公司,150-500人,南山区,本科,B轮,"移动互联网,金融",113.952085,22.553261,全职,3-5年
461,4112957,数据挖掘工程师,北京,2018-04-27 10:08:58,19.0,278580,去哪儿网-保险金融,北京十一贝科技有限公司,50-150人,海淀区,本科,不需要融资,移动互联网,116.37255,40.036379,全职,1-3年
462,3979699,数据挖掘工程师,北京,2018-04-26 09:51:03,22.8,3024,第一车网,北京阳光第一车网科技有限公司,150-500人,东城区,本科,B轮,"移动互联网,电子商务",116.432224,39.921837,全职,3-5年
463,4331600,数据挖掘工程师,佛山,2018-04-24 11:10:18,19.0,169210,凤凰金服-,深圳市金石互联网金融服务有限公司,150-500人,顺德区,本科,不需要融资,"金融,生活服务",113.268233,22.923501,全职,1-3年
464,3558370,数据挖掘工程师,北京,2018-04-23 10:29:47,21.0,3294,太合娱乐,北京太合娱乐文化发展股份有限公司,150-500人,朝阳区,本科,C轮,"移动互联网 ,文化娱乐",116.496204,39.94929,全职,不限
465,2629659,资深数据挖掘工程师/专家,北京,2018-04-27 10:37:11,35.0,50702,美团点评,北京三快在线科技有限公司,2000人以上,朝阳区,本科,D轮及以上,"移动互联网,O2O",116.48762151,40.00609607,全职,3-5年
466,4337032,数据挖掘工程师,上海,2018-04-24 20:13:21,28.0,62,字节跳动,北京字节跳动科技有限公司,2000人以上,徐汇区,本科,C轮,"移动互联网,数据服务",31.153208,31.153208,全职,3-5年
467,4403616,数据挖掘,深圳,2018-04-28 19:55:02,28.0,3058,无秘,深圳无觅科技有限公司,150-500人,南山区,本科,B轮,"移动互联网,金融",113.950732,22.553181,全职,1-3年
468,4009204,数据挖掘/数据分析,北京,2018-04-27 10:04:17,24.8,29496,闪银奇异,北京闪银奇异科技有限公司,500-2000人,朝阳区,硕士,D轮及以上,"移动互联网,金融",116.466601,39.93431,全职,3-5年
469,4053254,【校招】数据挖掘,北京,2018-04-25 20:30:24,14.0,6702,Zenjoy,北京创智优品科技有限公司,150-500人,东城区,本科,不需要融资,"移动互联网,游戏",116.4334,39.92111,全职,应届毕业生
470,3615931,数据挖掘工程师,重庆,2018-04-28 14:07:40,11.2,103732,智慧思特大数据,重庆智慧思特大数据有限公司,50-150人,南岸区,本科,不需要融资,数据服务,106.544859,29.512438,全职,3-5年
471,3891943,数据挖掘技术经理,上海,2018-04-28 10:37:56,38.0,6796,招商银行信用卡中心,招商银行股份有限公司信用卡中心,2000人以上,浦东新区,本科,上市公司,"移动互联网,金融",121.673868,31.247248,全职,5-10年
472,4309203,数据挖掘工程师,深圳,2018-04-28 09:36:53,17.0,82377,菁优网,深圳市菁优智慧教育股份有限公司,150-500人,南山区,本科,上市公司,"移动互联网,教育",113.952564,22.537896,全职,1-3年
473,4493183,数据挖掘工程师,上海,2018-04-27 13:33:05,28.0,138975,广东橙材,广东橙材电子商务有限公司,50-150人,浦东新区,本科,未融资,电子商务,121.535223,31.212751,全职,3-5年
474,4427076,数据挖掘高级工程师/技术专家,杭州,2018-04-26 15:34:01,31.0,41984,爱财集团,爱财科技有限公司,500-2000人,余杭区,本科,C轮,金融,119.992469,30.277021,全职,3-5年
475,3893534,数据挖掘讲师,北京,2018-04-29 10:26:09,22.8,114259,北京八维研修学院,北京八维研修学院,2000人以上,海淀区,不限,未融资,教育,116.29868,40.04151,全职,3-5年
476,4137514,高级数据挖掘工程师（北京）,北京,2018-04-27 14:51:15,16.8,29824,众安保险,众安在线财产保险股份有限公司,2000人以上,西城区,不限,上市公司,金融,116.357909,39.91774006,全职,3-5年
477,4413707,数据挖掘工程师,南京,2018-04-26 13:36:44,20.8,143808,知风科技,南京知风之自网络科技有限公司,50-150人,建邺区,本科,未融资,"移动互联网,金融",118.737101,31.98382,全职,3-5年
478,2953479,数据挖掘工程师,杭州,2018-04-12 14:46:46,14.0,17049,诚道科技,杭州诚道科技股份有限公司,150-500人,滨江区,本科,上市公司,"移动互联网,数据服务",120.21269,30.21231,全职,1-3年
479,1081455,数据挖掘实习生,北京,2018-04-03 16:48:55,4.2,8861,妙计旅行,北京汇行科技有限公司,150-500人,东城区,本科,B轮,旅游,116.41498,39.94801007,实习,不限
480,4462041,资深数据挖掘工程师/数据挖掘专家,上海,2018-04-23 04:40:07,36.0,50702,美团点评,北京三快在线科技有限公司,2000人以上,长宁区,硕士,D轮及以上,"移动互联网,O2O",121.424432,31.212374,全职,5-10年
481,4152996,数据挖掘专家,上海,2018-04-24 17:19:24,29.0,112839,精锐教育,上海精学锐信息科技有限公司,2000人以上,普陀区,本科,上市公司,"移动互联网,教育",121.432711,31.245585,全职,3-5年
482,2944939,数据挖掘与分析工程师,北京,2018-04-08 15:27:25,28.0,127298,好啦科技,北京好啦科技有限公司,15-50人,海淀区,本科,A轮,"数据服务,医疗健康",116.309853,40.053719,全职,3-5年
483,4398629,数据挖掘技术专家,深圳,2018-04-18 09:42:47,47.0,2352,鹏元征信有限公司,鹏元征信有限公司,150-500人,福田区,硕士,不需要融资,"金融,数据服务",113.993578,22.99368,全职,5-10年
484,4076748,数据挖掘工程师,上海,2018-04-02 10:43:13,31.0,114739,游卡桌游,杭州游卡网络技术有限公司,500-2000人,浦东新区,本科,不需要融资,"游戏,移动互联网",121.603256,31.200735,全职,3-5年
485,3707166,数据挖掘工程师,上海,2018-04-28 10:49:55,29.0,35422,京东,京东商城,2000人以上,长宁区,本科,上市公司,电子商务,121.360459,31.221087,全职,1-3年
486,2178492,数据挖掘分析师,杭州,2018-04-27 13:58:53,21.0,71931,车国,浙江车国网络科技有限公司,2000人以上,江干区,本科,不需要融资,"移动互联网,O2O",120.210847,30.240921,全职,3-5年
487,2718962,数据挖掘高级工程师,北京,2018-04-25 15:47:14,21.0,136443,马上金融,马上消费金融股份有限公司,2000人以上,朝阳区,硕士,不需要融资,"金融,移动互联网",116.488635,40.003335,全职,3-5年
488,2679102,数据平台部-数据挖掘工程师,上海,2018-04-25 11:53:06,10.8,165,UCloud,上海优刻得信息科技有限公司,500-2000人,杨浦区,本科,D轮及以上,"数据服务,企业服务",121.541848,31.276406,全职,1-3年
489,1855452,高级算法与数据挖掘工程师,深圳,2018-04-23 18:33:30,35.0,3058,无秘,深圳无觅科技有限公司,150-500人,,本科,B轮,"移动互联网,金融",113.95183069,22.55326867,全职,3-5年
490,4400077,数据挖掘专家,北京,2018-04-23 13:19:09,36.0,194937,品友互动,北京品友互动信息技术股份公司,500-2000人,朝阳区,本科,D轮及以上,"移动互联网,广告营销",116.462408,39.894783,全职,5-10年
491,4305815,数据挖掘工程师-商业化-（北京）,北京,2018-04-23 10:08:57,28.0,23291,美图公司,厦门美图之家科技有限公司,500-2000人,海淀区,本科,上市公司,"移动互联网,硬件",116.332289,39.993798,全职,3-5年
492,4327145,资深数据挖掘工程师,深圳,2018-04-27 09:19:14,38.0,49650,深圳市福客餐饮管理服务有限公司,长城宽带网络服务有限公司深圳分公司,2000人以上,南山区,本科,上市公司,"数据服务,其他",113.946766,22.542017,全职,3-5年
493,4393941,资深数据挖掘工程师,上海,2018-04-23 10:50:49,17.8,95490,小葫芦,上海六界信息技术有限公司,50-150人,徐汇区,本科,不需要融资,"移动互联网,社交网络",121.415311,31.17278,全职,3-5年
494,3872120,数据挖掘工程师,北京,2018-04-17 11:20:33,15.2,19601,雅乐美森,北京雅乐美森科技有限公司,15-50人,海淀区,硕士,天使轮,"移动互联网,硬件",116.329299,39.995312,全职,不限
495,3660993,资深数据挖掘工程师,上海,2018-04-27 17:23:50,28.0,50702,美团点评,北京三快在线科技有限公司,2000人以上,长宁区,硕士,D轮及以上,"移动互联网,O2O",121.424432,31.212374,全职,3-5年
496,3552647,集团总部-大数据中心-数据挖掘/策略高级研发工程师,北京,2018-04-17 10:55:04,31.0,106303,搜狐集团,北京搜狐新媒体信息技术有限公司,2000人以上,海淀区,本科,上市公司,"移动互联网,广告营销",116.325403,39.983335,全职,3-5年
497,2743942,高级数据挖掘工程师,杭州,2018-04-10 10:15:02,28.0,329,网易,网易（杭州）有限公司,2000人以上,滨江区,硕士,上市公司,"电子商务,移动互联网",120.192295,30.188393,全职,3-5年
498,4046544,资深数据挖掘工程师,上海,2018-04-09 11:15:49,24.0,314057,五维引力,五维引力（上海）数据服务有限公司,15-50人,浦东新区,本科,A轮,移动互联网,121.60289,31.200925,全职,3-5年
499,2715949,数据挖掘&amp;算法工程师,上海,2018-04-25 12:00:09,22.8,30830,哔哩哔哩,上海幻电信息科技有限公司,2000人以上,浦东新区,本科,上市公司,"移动互联网,文化娱乐",121.99341,30.994275,全职,1-3年
500,4181228,数据挖掘师,武汉,2018-04-09 14:10:46,6.8,2238,九州通医药集团股份有限公司,九州通医药集团股份有限公司,2000人以上,汉阳区,硕士,上市公司,电子商务,114.194649,30.549633,全职,不限
501,1883657,数据挖掘,杭州,2018-04-09 07:31:39,12.0,6448,莲子数据,杭州朋越网络科技有限公司,50-150人,西湖区,本科,A轮,"移动互联网,数据服务",120.131492,30.277743,全职,1-3年
502,3442003,高级数据挖掘,深圳,2018-04-26 09:53:07,35.0,3058,无秘,深圳无觅科技有限公司,150-500人,南山区,本科,B轮,"移动互联网,金融",113.951595,22.553903,全职,3-5年
503,4306690,数据挖掘算法工程师,北京,2018-04-24 16:10:49,28.0,36162,作业盒子,北京作业盒子科技有限公司,500-2000人,朝阳区,本科,C轮,"移动互联网,教育",116.480284,39.996202,全职,3-5年
504,4282750,数据挖掘算法工程师,北京,2018-04-24 17:36:39,16.8,8861,妙计旅行,北京汇行科技有限公司,150-500人,东城区,本科,B轮,旅游,116.41498,39.948005,全职,1-3年
505,4445368,数据挖掘实习生,广州,2018-04-18 18:38:09,2.8,336,酷狗音乐,广州酷狗计算机科技有限公司,500-2000人,天河区,本科,不需要融资,"移动互联网,文化娱乐",112.993461,22.994261,实习,应届毕业生
506,3584358,高级软件开发/数据挖掘工程师,北京,2018-04-27 11:04:10,20.8,6364,新华网,新华网股份有限公司,500-2000人,西城区,硕士,上市公司,"移动互联网,文化娱乐",116.35983,39.900428,全职,不限
507,3282075,数据挖掘,北京,2018-04-23 10:39:19,28.0,1575,百度,百度在线网络技术（北京）有限公司,2000人以上,海淀区,本科,不需要融资,"移动互联网,数据服务",116.301396,40.050909,全职,3-5年
508,3918486,数据挖掘工程师,北京,2018-04-12 10:58:49,28.0,146098,北京极速云,北京极速云科技发展有限公司,50-150人,朝阳区,本科,B轮,"金融,移动互联网",116.467227,39.997759,全职,3-5年
509,3271276,数据挖掘工程师,北京,2018-03-30 11:22:55,21.0,24561,国美互联网,国美在线电子商务有限公司,2000人以上,朝阳区,本科,上市公司,电子商务,116.466458,39.959036,全职,1-3年
510,2214377,数据挖掘高级工程师/专家,北京,2018-04-27 10:37:11,35.0,50702,美团点评,北京三快在线科技有限公司,2000人以上,朝阳区,本科,D轮及以上,"移动互联网,O2O",116.48762151,40.00609607,全职,3-5年
511,2618395,资深数据挖掘工程师-网易美学,杭州,2018-04-25 10:04:15,24.0,329,网易,网易（杭州）有限公司,2000人以上,滨江区,本科,上市公司,"电子商务,移动互联网",120.192081,30.187665,全职,3-5年
512,4011515,数据挖掘工程师,广州,2018-04-25 10:39:21,19.0,589,多益网络,广州多益网络股份有限公司,500-2000人,萝岗区,本科,不需要融资,"移动互联网,游戏",113.505122,23.161058,全职,1-3年
513,3135498,数据挖掘工程师（济南）,济南,2018-04-12 14:46:06,11.2,17049,诚道科技,杭州诚道科技股份有限公司,150-500人,天桥区,本科,上市公司,"移动互联网,数据服务",116.987492,36.678016,全职,不限
514,4330724,数据分析师/数据挖掘工程师-Java,北京,2018-04-28 21:04:25,17.8,93936,生命奇点,生命奇点（北京）科技有限公司,50-150人,海淀区,本科,A轮,"医疗健康,数据服务",,,全职,不限
515,4354827,数据挖掘工程师,北京,2018-04-28 16:00:25,35.0,3564,同程艺龙,同程网络科技股份有限公司,2000人以上,朝阳区,本科,D轮及以上,"旅游,电子商务",116.495469,39.976718,全职,3-5年
516,4384308,数据挖掘工程师,北京,2018-04-27 10:09:16,5.8,107423,瓜子二手车直卖网,车好多旧机动车经纪(北京)有限公司,2000人以上,海淀区,本科,C轮,O2O,116.299936,40.043116,实习,应届毕业生
517,3363429,高级数据挖掘师,广州,2018-04-27 11:18:19,21.0,63431,绿瘦,绿瘦国际集团,2000人以上,荔湾区,本科,不需要融资,电子商务,113.227396,23.054469,全职,3-5年
518,4147974,数据挖掘工程师,成都,2018-04-24 09:43:41,14.0,199953,成都肆零肆,成都市肆零肆网络科技有限公司,15-50人,武侯区,本科,未融资,"信息安全,数据服务",104.041018,30.625682,全职,1-3年
519,4041893,数据挖掘工程师--工程架构方向,深圳,2018-04-17 11:58:22,21.0,284998,WeSure微保,微民保险代理有限公司,150-500人,南山区,本科,不需要融资,"金融,移动互联网",113.932749,22.541047,全职,3-5年
520,4147684,机器学习/数据挖掘研发工程师,北京,2018-04-28 10:55:11,5.8,7182,尚德机构,北京尚德在线教育科技有限公司,2000人以上,朝阳区,本科,上市公司,教育,115.99339,39.99426,实习,应届毕业生
521,2885618,数据挖掘工程师,北京,2018-04-27 17:40:33,21.6,436,360,奇虎360科技有限公司,2000人以上,朝阳区,本科,上市公司,"移动互联网,游戏",116.49131503,39.96517336,全职,3-5年
522,4132354,数据挖掘工程师,广州,2018-04-27 09:32:23,11.4,141141,广州六合信息科技股份有限公司,广州六合信息科技股份有限公司,50-150人,越秀区,本科,上市公司,"移动互联网,信息安全",113.28002,23.122393,全职,1-3年
523,3675526,数据挖掘算法工程师,广州,2018-04-26 17:12:29,10.8,53634,广东智源,广东智源信息技术有限公司,50-150人,越秀区,本科,不需要融资,"移动互联网,企业服务",113.27388,23.14427,全职,不限
524,939442,数据挖掘工程师,上海,2018-04-25 17:47:29,21.0,70718,返利网,上海中彦信息科技有限公司,500-2000人,徐汇区,本科,C轮,电子商务,121.44239517,35.61082316,全职,3-5年
525,3652639,高级数据挖掘专家,北京,2018-04-25 10:16:04,36.0,50702,美团点评,北京三快在线科技有限公司,2000人以上,朝阳区,本科,D轮及以上,"移动互联网,O2O",116.486654,40.007208,全职,5-10年
526,4259869,数据挖掘工程师,北京,2018-04-08 10:16:37,35.0,329,网易,网易（杭州）有限公司,2000人以上,海淀区,硕士,上市公司,"电子商务,移动互联网",116.326157,39.962377,全职,3-5年
527,4126997,数据挖掘,杭州,2018-04-28 20:16:06,14.0,542,婚礼纪,杭州火烧云科技有限公司,150-500人,西湖区,本科,C轮,"移动互联网,O2O",120.11254999,30.28765003,全职,1-3年
528,4157749,数据挖掘工程师,北京,2018-04-13 14:14:36,34.0,18797,中国医学论坛报、CMT,中国医学论坛报社,50-150人,西城区,本科,未融资,"医疗健康,移动互联网",116.392581,39.941432,全职,3-5年
529,2417856,数据挖掘工程师,成都,2018-04-28 09:55:57,7.0,33646,久远银海,四川久远银海软件股份有限公司,500-2000人,锦江区,本科,上市公司,"移动互联网,硬件",0.0,0.0,全职,1-3年
530,2427915,数据挖掘算法工程师,北京,2018-04-28 17:56:30,21.0,36031,一起科技,上海一起作业信息科技有限公司,500-2000人,朝阳区,本科,D轮及以上,"移动互联网,教育",116.486293,40.00038905,全职,1-3年
531,3351924,资深数据挖掘师,成都,2018-04-26 10:34:11,26.0,6868,tap4fun,成都尼毕鲁科技股份有限公司,150-500人,高新区,本科,不需要融资,"移动互联网,游戏",104.069711,30.54825,全职,3-5年
532,4237247,数据挖掘工程师,北京,2018-04-25 14:52:40,28.0,270895,北京数知,北京数知科技有限公司,15-50人,海淀区,本科,不需要融资,"数据服务,金融",116.369184,39.980027,全职,3-5年
533,4370171,高级数据挖掘工程师,深圳,2018-04-28 09:54:47,28.0,106150,南方银谷,南方银谷科技有限公司,150-500人,南山区,大专,D轮及以上,"移动互联网,数据服务",113.950586,22.554548,全职,1-3年
534,4156312,数据挖掘工程师,北京,2018-04-23 16:40:22,42.0,520,小米,北京小米科技有限责任公司,2000人以上,海淀区,硕士,D轮及以上,移动互联网,116.332861,40.040791,全职,3-5年
535,4400072,资深数据挖掘工程师,北京,2018-04-23 13:19:09,28.0,194937,品友互动,北京品友互动信息技术股份公司,500-2000人,朝阳区,硕士,D轮及以上,"移动互联网,广告营销",116.462408,39.894783,全职,1-3年
536,3256949,数据挖掘专家(系统、算法),杭州,2018-04-29 17:47:03,21.0,205716,潘帕斯,杭州潘帕斯信息服务有限公司,50-150人,滨江区,硕士,天使轮,"金融,数据服务",120.211816,30.20856,全职,3-5年
537,4440768,资深数据挖掘工程师,北京,2018-04-18 11:50:33,45.0,62,字节跳动,北京字节跳动科技有限公司,2000人以上,海淀区,本科,C轮,"移动互联网,数据服务",39.971268,39.971268,全职,3-5年
538,2975383,资深数据挖掘工程师,北京,2018-04-27 17:40:33,31.8,436,360,奇虎360科技有限公司,2000人以上,朝阳区,本科,上市公司,"移动互联网,游戏",116.49131503,39.96517336,全职,3-5年
539,4100458,数据挖掘工程师,武汉,2018-04-26 15:57:55,14.0,35996,顺丰科技有限公司,顺丰科技有限公司,500-2000人,东湖新技术开发区,本科,不需要融资,"移动互联网,电子商务",114.424741,30.456176,全职,3-5年
540,4049588,高级数据挖掘工程师,北京,2018-04-24 14:48:35,28.0,50702,美团点评,北京三快在线科技有限公司,2000人以上,朝阳区,本科,D轮及以上,"移动互联网,O2O",121.417969,31.217836,全职,3-5年
541,4198686,数据挖掘/建模,郑州,2018-04-26 10:40:00,14.0,230424,软维科技,重庆软维科技有限公司,50-150人,中原区,大专,不需要融资,移动互联网,113.538337,34.804802,全职,5-10年
542,1747326,数据挖掘工程师,上海,2018-04-25 10:01:41,19.0,35713,链家上海研发中心,德佑房地产经纪有限公司,500-2000人,静安区,本科,B轮,企业服务,121.46309716,31.23043373,全职,3-5年
543,4029956,高级数据挖掘工程师/专家,杭州,2018-04-17 18:45:27,24.0,165939,橙鹰,杭州橙鹰数据技术有限公司,150-500人,余杭区,本科,不需要融资,数据服务,120.008998,30.279884,全职,3-5年
544,4135603,数据挖掘工程师,上海,2018-04-17 10:03:46,21.0,251292,晋消,晋商消费金融股份有限公司,150-500人,浦东新区,本科,不需要融资,金融,121.62612,31.21051,全职,不限
545,3545947,数据挖掘工程师,杭州,2018-04-16 17:39:37,24.0,125151,拓云,杭州拓云计算机信息系统有限公司,50-150人,西湖区,本科,未融资,"移动互联网,数据服务",120.122809,30.282327,全职,3-5年
546,4026095,AI Lab-数据挖掘工程师,北京,2018-04-10 22:41:29,21.0,3328,好未来,北京世纪好未来教育科技有限公司,2000人以上,海淀区,本科,上市公司,"移动互联网,教育",116.313701,39.978427,全职,3-5年
547,3743259,数据挖掘工程师,上海,2018-04-24 15:32:44,19.0,175503,上海展盟,上海展盟网络科技有限公司,50-150人,浦东新区,硕士,不需要融资,移动互联网,121.628551,31.205525,全职,3-5年
548,4223201,数据挖掘工程师,北京,2018-03-30 13:45:57,24.0,115879,大唐网络有限公司,大唐网络有限公司,150-500人,海淀区,硕士,不需要融资,移动互联网,0.0,0.0,全职,不限
549,4267820,数据挖掘工程师,杭州,2018-04-27 09:46:59,11.2,36219,半个医生,杭州蕙泉仲康信息技术有限公司,15-50人,西湖区,本科,A轮,"移动互联网,医疗健康",120.146072,30.279249,全职,1-3年
550,4115629,数据分析师/数据挖掘工程师,北京,2018-04-28 21:04:11,17.8,93936,生命奇点,生命奇点（北京）科技有限公司,50-150人,海淀区,本科,A轮,"医疗健康,数据服务",,,全职,不限
551,4203246,数据挖掘/机器学习工程师-小米金融,北京,2018-04-28 15:29:21,26.0,520,小米,北京小米科技有限责任公司,2000人以上,海淀区,本科,D轮及以上,移动互联网,116.335185,40.027999,全职,1-3年
552,4181992,数据挖掘／算法工程师,北京,2018-04-27 15:41:01,21.0,125634,北京数介科技有限公司,北京数介科技有限公司,50-150人,西城区,本科,A轮,数据服务,116.372549,39.954286,全职,3-5年
553,3405401,资深/高级数据挖掘工程师,杭州,2018-04-27 11:57:31,21.0,329,网易,网易（杭州）有限公司,2000人以上,滨江区,本科,上市公司,"电子商务,移动互联网",120.192295,30.188393,全职,1-3年
554,4425819,数据挖掘工程师,武汉,2018-04-25 09:39:32,11.2,332005,东浦信息,武汉东浦信息技术有限公司,500-2000人,武汉经济技术开发区,本科,未融资,"企业服务,信息安全",0.0,0.0,全职,3-5年
555,2688211,数据挖掘高级工程师/技术专家,北京,2018-04-27 10:37:11,35.0,50702,美团点评,北京三快在线科技有限公司,2000人以上,朝阳区,本科,D轮及以上,"移动互联网,O2O",116.48762151,40.00609607,全职,3-5年
556,4106609,数据挖掘工程师,苏州,2018-03-30 09:09:18,14.0,8583,瑞翼,苏州瑞翼信息技术有限公司,150-500人,吴中区,本科,不需要融资,移动互联网,120.732879,31.265064,全职,1-3年
557,4062537,数据挖掘师,成都,2018-04-26 10:34:11,24.8,6868,tap4fun,成都尼毕鲁科技股份有限公司,150-500人,高新区,本科,不需要融资,"移动互联网,游戏",104.069711,30.54825,全职,不限
558,4083733,数据挖掘高级工程师,上海,2018-04-24 20:11:10,28.0,62,字节跳动,北京字节跳动科技有限公司,2000人以上,徐汇区,本科,C轮,"移动互联网,数据服务",31.153208,31.153208,全职,3-5年
559,692457,金融数据挖掘,北京,2018-04-24 17:55:44,28.0,68138,理财魔方,北京口袋财富信息科技有限公司,50-150人,海淀区,硕士,A轮,"移动互联网,金融",0.0,0.0,全职,不限
560,4148022,高级/资深数据挖掘工程师,杭州,2018-04-27 11:57:30,21.0,329,网易,网易（杭州）有限公司,2000人以上,滨江区,硕士,上市公司,"电子商务,移动互联网",120.192295,30.188393,全职,1-3年
561,1890132,数据挖掘,上海,2018-04-27 10:45:13,21.0,24102,Hypers,上海宏路数据技术股份有限公司,50-150人,虹口区,本科,上市公司,移动互联网,121.4894,31.25525987,全职,不限
562,3260213,数据挖掘工程师,广州,2018-04-26 18:05:29,16.8,113374,奥园奥买家,广东奥园奥买家电子商务有限公司,150-500人,番禺区,本科,不需要融资,"O2O,电子商务",113.33401969,22.99426017,全职,3-5年
563,4083292,数据挖掘工程师（2018校招岗）,北京,2018-04-28 17:56:31,21.0,36031,一起科技,上海一起作业信息科技有限公司,500-2000人,朝阳区,本科,D轮及以上,"移动互联网,教育",116.48597,40.000355,全职,应届毕业生
564,3066912,广告数据挖掘工程师,厦门,2018-04-28 17:47:15,21.0,9251,美柚,厦门美柚信息科技有限公司,500-2000人,思明区,本科,D轮及以上,移动互联网,118.17884,24.48956,全职,5-10年
565,4442139,数据挖掘,杭州,2018-04-27 09:41:49,12.0,149714,至讯科技,浙江至讯科技有限公司,50-150人,拱墅区,硕士,不需要融资,数据服务,120.12215,30.320723,全职,1-3年
566,4246565,数据挖掘部负责人,深圳,2018-04-23 17:41:23,33.0,54269,前海信息,深圳前海信息技术有限公司,50-150人,宝安区,本科,天使轮,数据服务,113.927862,22.581931,全职,5-10年
567,3627484,数据挖掘工程师,广州,2018-04-28 11:17:39,10.8,44841,PPmoney互联网金融平台,万惠投资管理有限公司,500-2000人,天河区,硕士,上市公司,金融,113.320868,23.139189,全职,应届毕业生
568,4321276,高级数据挖掘/算法工程师,深圳,2018-04-28 09:51:01,28.0,18139,京东集团,北京京东世纪贸易有限公司,2000人以上,宝安区,本科,上市公司,"电子商务,数据服务",113.886252,22.549339,全职,1-3年
569,4042378,数据挖掘算法专家,北京,2018-04-28 08:52:57,42.0,356,捷通华声,北京捷通华声科技股份有限公司,150-500人,海淀区,硕士,不需要融资,"移动互联网,数据服务",116.29632768,40.05177651,全职,5-10年
570,4405823,数据挖掘架构师-餐饮生态部,北京,2018-04-27 19:14:59,42.0,50702,美团点评,北京三快在线科技有限公司,2000人以上,朝阳区,本科,D轮及以上,"移动互联网,O2O",116.487716,40.008607,全职,5-10年
571,4449052,数据挖掘工程师,上海,2018-04-25 13:38:44,9.6,34482,翼依,上海翼依信息技术有限公司,15-50人,闸北区,本科,A轮,"移动互联网,医疗健康",121.437152,31.292402,全职,1-3年
572,4382705,资深数据挖掘工程师,上海,2018-04-23 10:33:34,17.8,161998,竹筏科技,竹筏科技（北京）有限公司,50-150人,徐汇区,本科,不需要融资,"移动互联网,社交网络",121.415311,31.17278,全职,3-5年
573,1302830,数据挖掘/机器学习工程师,北京,2018-04-20 13:19:12,29.0,436,360,奇虎360科技有限公司,2000人以上,朝阳区,本科,上市公司,"移动互联网,游戏",116.49012,39.98343006,全职,3-5年
574,4404696,数据挖掘高级工程师,北京,2018-04-11 15:57:20,31.0,162269,合思咨询,北京合思信息咨询有限公司,150-500人,朝阳区,硕士,未融资,"移动互联网,电子商务",116.451286,39.91893,全职,3-5年
575,3251330,数据挖掘算法工程师,广州,2018-04-28 17:38:53,19.0,658,三七互娱,三七互娱（上海）科技有限公司,2000人以上,天河区,本科,上市公司,游戏,112.993461,22.994261,全职,1-3年
576,4381064,数据挖掘工程师,杭州,2018-04-25 17:16:14,19.0,360397,浙江绿伽网络技术有限公司,浙江绿伽网络技术有限公司,50-150人,滨江区,本科,不需要融资,"移动互联网,数据服务",120.173484,30.182222,全职,3-5年
577,2937155,数据挖掘工程师,广州,2018-04-24 09:53:56,14.0,69960,广州网迅,广州市网迅信息技术有限公司,50-150人,天河区,本科,不需要融资,"移动互联网,数据服务",113.323288,23.148822,全职,1-3年
578,4003337,数据挖掘,深圳,2018-04-23 18:02:35,21.0,15175,乐信,深圳乐信控股有限公司,2000人以上,南山区,本科,上市公司,移动互联网,113.944704,22.538345,全职,3-5年
579,3314563,数据挖掘工程师,合肥,2018-04-09 09:39:12,17.0,149958,FutureData,安徽富驰信息技术有限公司,15-50人,高新区,硕士,A轮,数据服务,117.136583,31.835695,全职,1-3年
580,3463144,数据挖掘或算法工程师,杭州,2018-04-26 23:36:00,11.2,158493,佰安信息,浙江佰安信息技术有限公司,15-50人,拱墅区,本科,未融资,"信息安全,移动互联网",120.12,30.310567,全职,3-5年
581,4194223,数据挖掘工程师,上海,2018-04-27 14:23:54,10.8,93973,超级导购APP,上海向心云网络科技有限公司,50-150人,浦东新区,本科,A轮,"移动互联网,企业服务",121.5139,31.20503,全职,1-3年
582,4189322,机器学习/数据挖掘工程师,北京,2018-04-23 15:48:35,38.0,176259,中融民信,中融民信资本管理有限公司,2000人以上,朝阳区,本科,未融资,"金融,其他",116.433666,39.923823,全职,5-10年
583,4071572,数据挖掘工程师（美图秀秀）-深圳,深圳,2018-04-23 10:06:36,24.0,23291,美图公司,厦门美图之家科技有限公司,500-2000人,南山区,本科,上市公司,"移动互联网,硬件",39.897445,116.331398,全职,1-3年
584,4463227,数据挖掘工程师,广州,2018-04-28 19:10:33,14.0,14059,租租车,广州力挚网络科技有限公司,500-2000人,天河区,本科,B轮,"旅游,生活服务",113.321106,23.137468,全职,不限
585,4405839,数据挖掘架构师-成都-餐饮生态部,成都,2018-04-27 19:14:59,42.0,50702,美团点评,北京三快在线科技有限公司,2000人以上,高新区,本科,D轮及以上,"移动互联网,O2O",104.056089,30.63969,全职,5-10年
586,4468536,数据挖掘架构师,上海,2018-04-28 16:25:00,21.0,82538,口袋记账,上海奇鸟互联网金融信息服务有限公司,50-150人,浦东新区,本科,A轮,移动互联网,121.625686,31.203324,全职,3-5年
587,3973924,数据挖掘算法工程师,北京,2018-04-28 10:04:26,28.0,3328,好未来,北京世纪好未来教育科技有限公司,2000人以上,海淀区,本科,上市公司,"移动互联网,教育",116.313701,39.978427,全职,3-5年
588,4091557,数据挖掘工程师,北京,2018-04-27 10:08:58,22.0,278580,去哪儿网-保险金融,北京十一贝科技有限公司,50-150人,海淀区,本科,不需要融资,移动互联网,116.37255,40.036379,全职,1-3年
589,3317990,蚂蚁金服-数据挖掘/算法专家-安全基础平台,杭州,2018-04-24 23:19:28,35.0,153849,蚂蚁金服集团,支付宝(杭州)信息技术有限公司,2000人以上,西湖区,本科,B轮,"金融,移动互联网",120.026208,30.279212,全职,3-5年
590,4441416,数据挖掘资深工程师（用户画像方向）,上海,2018-04-23 10:20:37,42.0,4760,唯品会,唯品会（中国）有限公司,2000人以上,闵行区,本科,上市公司,电子商务,0.0,0.0,全职,5-10年
591,4450636,数据挖掘高级工程师,深圳,2018-04-19 15:39:15,29.0,154912,小牛分期,深圳市小牛消费服务有限公司,2000人以上,福田区,本科,不需要融资,金融,0.0,0.0,全职,3-5年
592,4038519,大数据-数据挖掘工程师,北京,2018-04-22 16:32:34,28.0,147548,中信云网,中信云网有限公司,500-2000人,朝阳区,本科,不需要融资,"移动互联网,金融",116.454471,39.947664,全职,3-5年
593,4408606,数据挖掘工程师,武汉,2018-04-12 10:20:51,14.0,363352,汉谷云智,汉谷云智（武汉）科技有限公司,15-50人,洪山区,本科,天使轮,"数据服务,其他",114.336247,30.502447,全职,3-5年
594,3019991,数据挖掘算法工程师,广州,2018-04-19 09:49:32,21.0,20473,广州棒谷科技股份有限公司,广州棒谷科技股份有限公司,2000人以上,白云区,本科,不需要融资,电子商务,113.271506,23.175202,全职,1-3年
595,4334558,数据挖掘科学家,武汉,2018-04-24 18:24:21,19.0,181025,Today今天连锁便利,武汉今天梦想商贸有限公司,500-2000人,硚口区,本科,B轮,生活服务,114.355664,30.536123,全职,3-5年
596,2940160,高级算法与数据挖掘工程师,深圳,2018-04-23 18:33:13,35.0,3058,无秘,深圳无觅科技有限公司,150-500人,南山区,硕士,B轮,"移动互联网,金融",113.951704,22.553815,全职,3-5年
597,3485560,数据挖掘,深圳,2018-04-27 15:36:49,14.0,9149,新浪爱彩,深圳市中网彩网络技术有限公司,50-150人,南山区,本科,A轮,文化娱乐,113.932749,22.541047,全职,3-5年
598,4236122,产品经理（数据挖掘方向）,北京,2018-04-25 21:22:39,20.8,168606,LEANIOT,北京华夏亨元科技有限公司,50-150人,朝阳区,本科,不需要融资,"企业服务,数据服务",0.0,0.0,全职,3-5年
599,3132276,文本图像分析与数据挖掘工程师,上海,2018-04-24 10:14:13,21.0,6542,小红书,行吟信息科技（上海）有限公司,500-2000人,黄浦区,本科,C轮,"生活服务,电子商务",121.4744,31.215118,全职,不限
600,3313090,数据挖掘算法工程师,上海,2018-04-28 21:27:31,21.0,50702,美团点评,北京三快在线科技有限公司,2000人以上,长宁区,本科,D轮及以上,"移动互联网,O2O",121.424432,31.212374,全职,3-5年
601,4271281,数据挖掘工程师,北京,2018-04-27 11:08:42,21.0,436,360,奇虎360科技有限公司,2000人以上,朝阳区,本科,上市公司,"移动互联网,游戏",116.491128,39.98313206,全职,3-5年
602,3162384,数据挖掘架构师,深圳,2018-04-26 09:13:37,28.0,191470,平安讯科,深圳平安讯科技术有限公司,150-500人,南山区,本科,A轮,移动互联网,113.95102,22.543699,全职,5-10年
603,2113031,推荐算法/机器学习/数据挖掘/高级工程师,北京,2018-04-25 15:16:29,35.0,329,网易,网易（杭州）有限公司,2000人以上,,本科,上市公司,"电子商务,移动互联网",116.284081,40.05011506,全职,3-5年
604,4143589,数据挖掘算法工程师-大数据应用方向,北京,2018-04-28 11:58:18,35.0,62,字节跳动,北京字节跳动科技有限公司,2000人以上,海淀区,本科,C轮,"移动互联网,数据服务",116.332602,39.971268,全职,3-5年
605,4438033,数据挖掘工程师,上海,2018-04-17 19:51:41,17.0,332653,悦明生物医药,苏州悦明生物医药有限公司,15-50人,徐汇区,本科,未融资,不限,121.438254,31.168974,全职,1-3年
606,3454914,用户数据挖掘工程师/算法工程师,北京,2018-04-08 14:05:02,18.0,25592,新浪网,新浪网技术（中国）有限公司,2000人以上,海淀区,本科,上市公司,文化娱乐,116.27596971,40.04193985,全职,1-3年
607,3924482,iDST-翻译技术-数据挖掘专家,杭州,2018-04-28 07:40:43,28.0,153849,蚂蚁金服集团,支付宝(杭州)信息技术有限公司,2000人以上,西湖区,本科,B轮,"金融,移动互联网",120.125788,30.272627,全职,3-5年
608,3230365,数据挖掘分析师,广州,2018-04-23 10:08:06,9.8,212875,精点数据,广东精点数据科技股份有限公司,150-500人,天河区,本科,不需要融资,"移动互联网,数据服务",113.34454,23.140379,全职,1-3年
609,4068797,数据挖掘算法工程师,北京,2018-04-21 20:17:27,23.0,255325,币世界,北京币世界网络科技有限公司,50-150人,朝阳区,本科,天使轮,"移动互联网,金融",116.492246,40.005219,全职,3-5年
610,3940445,车联网数据挖掘高级工程师/资深工程师/专家,广州,2018-04-29 19:20:49,25.2,254799,小鹏汽车,广州小鹏汽车科技有限公司,150-500人,黄埔区,本科,A轮,"移动互联网,硬件",113.496556,23.153887,全职,3-5年
611,4493742,数据挖掘工程师,广州,2018-04-27 14:37:08,28.0,809,礼德财富,广州礼德互联网金融信息服务有限公司,150-500人,天河区,本科,天使轮,金融,113.326044,23.117724,全职,3-5年
612,3725601,高级数据挖掘工程师,广州,2018-04-27 18:43:07,35.0,113806,广业开元科技,广东广业开元科技有限公司,50-150人,越秀区,本科,不需要融资,"数据服务,企业服务",113.313418,23.134618,全职,3-5年
613,4252073,数据挖掘工程师,深圳,2018-04-27 14:33:42,21.0,35996,顺丰科技有限公司,顺丰科技有限公司,500-2000人,南山区,本科,不需要融资,"移动互联网,电子商务",113.937987,22.523392,全职,3-5年
614,4103974,数据挖掘开发工程师,北京,2018-04-11 14:55:53,21.0,1575,百度,百度在线网络技术（北京）有限公司,2000人以上,海淀区,硕士,不需要融资,"移动互联网,数据服务",116.301396,40.050909,全职,3-5年
615,3242748,数据挖掘/机器学习/深度学习技术专家,北京,2018-04-09 16:53:33,40.0,50702,美团点评,北京三快在线科技有限公司,2000人以上,朝阳区,本科,D轮及以上,"移动互联网,O2O",116.487139,40.007391,全职,不限
616,3339238,数据挖掘/算法专家-P7-安全智能-蚂蚁金服,北京,2018-04-24 23:19:28,35.0,153849,蚂蚁金服集团,支付宝(杭州)信息技术有限公司,2000人以上,海淀区,本科,B轮,"金融,移动互联网",116.314526,39.982338,全职,3-5年
617,3289857,数据挖掘分析师,北京,2018-04-27 16:22:57,21.0,602,彩虹无线,彩虹无线（北京）新技术有限公司,50-150人,朝阳区,本科,A轮,"移动互联网,数据服务",116.45973,39.955491,全职,5-10年
618,4431893,数据挖掘分析师（广州+珠海+急招）,广州,2018-04-28 10:16:23,7.0,212875,精点数据,广东精点数据科技股份有限公司,150-500人,天河区,本科,不需要融资,"移动互联网,数据服务",113.34454,23.140379,全职,1-3年
619,2484825,瓜子二手车数据挖掘工程师,北京,2018-04-27 19:25:32,28.0,107423,瓜子二手车直卖网,车好多旧机动车经纪(北京)有限公司,2000人以上,,本科,C轮,O2O,116.29844999,40.04261006,全职,3-5年
620,3771816,数据挖掘算法工程师,深圳,2018-04-18 14:32:31,28.0,107664,AKULAKU,岩心科技（深圳）有限公司,150-500人,南山区,本科,B轮,"移动互联网,金融",113.943847,22.529035,全职,3-5年
621,4444064,数据挖掘分析师,北京,2018-04-26 11:49:52,14.0,62,字节跳动,北京字节跳动科技有限公司,2000人以上,海淀区,硕士,C轮,"移动互联网,数据服务",116.332602,39.971268,全职,1-3年
622,4445173,数据挖掘工程师 （移动业务部）,北京,2018-04-18 18:14:09,19.0,8103,汽车之家,北京车之家信息技术有限公司,2000人以上,海淀区,本科,上市公司,"移动互联网,文化娱乐",116.311989,39.979473,全职,1-3年
623,1467767,高级算法与数据挖掘工程师,深圳,2018-04-26 09:53:02,35.0,3058,无秘,深圳无觅科技有限公司,150-500人,南山区,硕士,B轮,"移动互联网,金融",113.95159521,22.55390283,全职,3-5年
624,3702670,数据挖掘,北京,2018-04-19 23:23:37,35.0,18139,京东集团,北京京东世纪贸易有限公司,2000人以上,朝阳区,本科,上市公司,"电子商务,数据服务",116.38799,39.999469,全职,不限
625,3991393,数据挖掘工程师（龙珠直播）,上海,2018-04-23 17:22:41,26.0,17291,PPTV聚力,上海聚力传媒技术有限公司,500-2000人,浦东新区,本科,D轮及以上,文化娱乐,121.531728,31.216657,全职,3-5年
626,4120283,数据挖掘工程师,广州,2018-04-23 10:08:46,14.0,14947,诚毅软件,广州市诚毅科技软件开发有限公司,150-500人,海珠区,本科,不需要融资,企业服务,113.316586,23.08674,全职,3-5年
627,946308,数据挖掘分析工程师,杭州,2018-04-27 13:58:53,19.0,71931,车国,浙江车国网络科技有限公司,2000人以上,江干区,本科,不需要融资,"移动互联网,O2O",120.210847,30.240921,全职,1-3年
628,4373891,数据挖掘工程师,广州,2018-04-04 15:43:59,16.2,49183,佳都科技,佳都新太科技股份有限公司,2000人以上,海珠区,本科,上市公司,移动互联网,113.383211,23.096927,全职,3-5年
629,3139057,数据挖掘工程师,深圳,2018-04-28 16:35:11,24.0,28834,Sunvalley,深圳市泽宝电子商务股份有限公司,500-2000人,龙岗区,本科,D轮及以上,电子商务,114.059443,22.603711,全职,3-5年
630,4436612,数据挖掘算法工程师.,上海,2018-04-26 09:45:15,35.0,50702,美团点评,北京三快在线科技有限公司,2000人以上,长宁区,本科,D轮及以上,"移动互联网,O2O",,,全职,3-5年
631,3730752,蚂蚁金服-数据挖掘专家-安全基础平台,杭州,2018-04-28 07:40:42,28.0,153849,蚂蚁金服集团,支付宝(杭州)信息技术有限公司,2000人以上,西湖区,不限,B轮,"金融,移动互联网",120.125788,30.272627,全职,不限
632,3983021,数据挖掘、机器学习资深工程师,上海,2018-04-28 10:28:31,41.0,1575,百度,百度在线网络技术（北京）有限公司,2000人以上,浦东新区,硕士,不需要融资,"移动互联网,数据服务",121.605797,31.179906,全职,3-5年
633,3036256,机器学习/数据挖掘研发工程师,北京,2018-04-07 11:30:26,26.0,7182,尚德机构,北京尚德在线教育科技有限公司,2000人以上,朝阳区,硕士,上市公司,教育,116.473919,40.019207,全职,不限
634,3472553,数据挖掘工程师,深圳,2018-04-26 17:49:51,19.0,34543,FORMAX金融圈,深圳福迈斯科技有限公司,500-2000人,南山区,本科,A轮,"移动互联网,金融",113.953693,22.535813,全职,3-5年
635,3428049,高级数据挖掘工程师(2345贷款王),上海,2018-04-25 13:09:14,21.0,6082,2345.com,上海二三四五网络科技有限公司,500-2000人,浦东新区,本科,上市公司,"数据服务,移动互联网",121.59765,31.173872,全职,3-5年
636,3604462,高级数据挖掘工程师,北京,2018-04-25 10:12:01,26.0,4188,INK 银客集团,银客未来科技（北京）有限公司,500-2000人,海淀区,本科,C轮,"移动互联网,金融",116.356033,40.046578,全职,5-10年
637,4049867,数据挖掘算法工程师-反作弊方向,北京,2018-04-28 11:58:18,35.0,62,字节跳动,北京字节跳动科技有限公司,2000人以上,海淀区,本科,C轮,"移动互联网,数据服务",116.332602,39.971268,全职,3-5年
638,4236993,数据挖掘算法工程师,北京,2018-04-27 22:49:41,28.0,338067,感易智能,北京感易智能科技有限公司,15-50人,海淀区,硕士,天使轮,"金融,数据服务",116.334763,40.006474,全职,3-5年
639,2116208,数据挖掘,北京,2018-04-25 10:00:34,26.0,1686,爱奇艺,北京爱奇艺科技有限公司,2000人以上,朝阳区,硕士,D轮及以上,"广告营销,文化娱乐",116.63682446,39.98832845,全职,不限
640,4480147,资深数据挖掘 算法工程师,上海,2018-04-25 14:28:10,42.0,202104,趣头条,上海基分文化传播有限公司,500-2000人,浦东新区,硕士,不需要融资,移动互联网,121.624653,31.226515,全职,5-10年
641,1384005,数据挖掘,深圳,2018-04-23 20:54:08,38.0,111563,华通,深圳龙岗区华通实业有限公司,500-2000人,南山区,本科,不需要融资,"移动互联网,电子商务",113.92422043,22.53719021,全职,3-5年
642,3490381,高级算法工程师（数据挖掘）,上海,2018-04-28 00:05:52,30.2,3112,沪江,沪江教育科技（上海）股份有限公司,500-2000人,浦东新区,大专,D轮及以上,"移动互联网,教育",121.603788,31.202542,全职,5-10年
643,3801591,数据挖掘/算法工程师,北京,2018-04-25 16:48:53,19.0,113856,作业帮,小船出海教育科技（北京）有限公司,500-2000人,海淀区,本科,C轮,"移动互联网,教育",116.303062,40.044203,全职,1-3年
644,3747258,产品经理(数据挖掘）,成都,2018-04-25 13:40:20,28.0,42711,BBD,成都数联铭品科技有限公司,150-500人,高新区,本科,C轮,"电子商务,数据服务",103.99341,30.994233,全职,3-5年
645,3393427,资深数据挖掘工程师/专家,北京,2018-04-12 13:55:00,42.0,50702,美团点评,北京三快在线科技有限公司,2000人以上,朝阳区,本科,D轮及以上,"移动互联网,O2O",116.487501,40.008268,全职,5-10年
646,3865945,蚂蚁金服-数据挖掘专家-P7-平台数据技术事业群,杭州,2018-04-24 22:54:00,35.0,153849,蚂蚁金服集团,支付宝(杭州)信息技术有限公司,2000人以上,西湖区,本科,B轮,"金融,移动互联网",120.125788,30.272627,全职,3-5年
647,4284013,数据挖掘/机器学习实习生-SH2921,上海,2018-04-23 13:37:43,4.4,23177,点融,上海点融信息科技有限责任公司,150-500人,黄浦区,硕士,D轮及以上,金融,120.993464,30.994061,实习,应届毕业生
648,3587871,数据挖掘工程师（高级）,深圳,2018-04-27 09:49:56,22.8,13809,随手科技,深圳市随手科技有限公司,500-2000人,南山区,硕士,C轮,"移动互联网,金融",113.993578,22.99368,全职,3-5年
649,3784470,数据挖掘工程师,北京,2018-04-28 15:42:24,42.0,520,小米,北京小米科技有限责任公司,2000人以上,海淀区,本科,D轮及以上,移动互联网,116.33649,40.0298,全职,3-5年
650,4431815,数据挖掘工程师,广州,2018-04-26 14:52:51,21.0,341494,高朋,海南高朋科技有限公司,150-500人,海珠区,硕士,A轮,移动互联网 电子商务,113.323844,23.096432,全职,3-5年
651,3033140,数据挖掘、算法,深圳,2018-04-28 15:39:41,28.0,29866,乐有家,深圳市家家顺物联科技有限公司,50-150人,福田区,本科,不需要融资,"移动互联网,生活服务",113.993578,22.99368,全职,3-5年
652,4414113,数据挖掘（偏算法）,深圳,2018-04-12 18:34:38,28.0,354605,摩若普利,苏州摩若普利信息科技有限公司,50-150人,福田区,硕士,B轮,"移动互联网,数据服务",114.022503,22.53472,全职,3-5年
653,4246640,风险数据挖掘工程师,深圳,2018-04-28 17:56:19,12.0,200377,华策,深圳华策辉弘科技有限公司,50-150人,福田区,本科,未融资,移动互联网,114.063737,22.534231,全职,1-3年
654,3244721,高级数据挖掘算法工程师,杭州,2018-04-27 11:38:58,19.0,329,网易,网易（杭州）有限公司,2000人以上,滨江区,本科,上市公司,"电子商务,移动互联网",120.192295,30.188393,全职,3-5年
655,4470716,数据挖掘经理（福州）,福州,2018-04-27 14:19:23,24.0,306150,国信立联,福建国信立联信息科技有限公司,50-150人,晋安区,本科,未融资,移动互联网,119.325538,26.085653,全职,5-10年
656,4137850,数据挖掘工程师,北京,2018-04-19 15:35:18,28.0,436,360,奇虎360科技有限公司,2000人以上,朝阳区,本科,上市公司,"移动互联网,游戏",116.4901,39.982669,全职,不限
657,3411842,数据挖掘工程师,北京,2018-04-03 18:23:23,28.0,18139,京东集团,北京京东世纪贸易有限公司,2000人以上,大兴区,本科,上市公司,"电子商务,数据服务",116.513019,39.797041,全职,3-5年
658,4044449,高级游戏数据挖掘,上海,2018-04-28 09:51:00,18.2,14983,游族网络,上海游族信息技术有限公司,500-2000人,徐汇区,本科,上市公司,"移动互联网,游戏",39.897445,116.331398,全职,1-3年
659,4237656,产品经理（数据挖掘方向）,北京,2018-04-25 21:22:39,20.8,168606,LEANIOT,北京华夏亨元科技有限公司,50-150人,朝阳区,本科,不需要融资,"企业服务,数据服务",116.47239,40.012268,全职,3-5年
660,4184308,资深数据挖掘工程师/专家-外卖,北京,2018-04-17 10:37:00,28.0,50702,美团点评,北京三快在线科技有限公司,2000人以上,朝阳区,本科,D轮及以上,"移动互联网,O2O",116.48776,40.008007,全职,3-5年
661,3714268,数据挖掘工程师,北京,2018-04-25 18:07:43,25.2,520,小米,北京小米科技有限责任公司,2000人以上,海淀区,本科,D轮及以上,移动互联网,0.0,0.0,全职,不限
662,2814600,人工智能/数据挖掘/机器学习/算法工程师,北京,2018-04-10 10:15:04,35.0,329,网易,网易（杭州）有限公司,2000人以上,海淀区,硕士,上市公司,"电子商务,移动互联网",116.275949,40.042894,全职,3-5年
663,3446623,数据挖掘工程师（算法方向）,北京,2018-04-27 11:04:10,17.0,6364,新华网,新华网股份有限公司,500-2000人,西城区,硕士,上市公司,"移动互联网,文化娱乐",116.359914,39.900372,全职,3-5年
664,3520897,数据挖掘专家-P6/7-支付宝-杭州,杭州,2018-04-24 23:19:29,35.0,153849,蚂蚁金服集团,支付宝(杭州)信息技术有限公司,2000人以上,西湖区,本科,B轮,"金融,移动互联网",120.126046,30.272615,全职,3-5年
665,3901990,2018校招-数据挖掘工程师（可实习）,北京,2018-04-27 18:40:24,3.8,740,时趣social-touch,时趣互动（北京）科技有限公司,500-2000人,朝阳区,本科,D轮及以上,移动互联网,116.492604,39.900132,实习,不限
666,4431322,数据挖掘工程师,成都,2018-04-23 10:12:35,15.2,173918,中兴软创,中兴软创科技股份有限公司,2000人以上,青羊区,本科,上市公司,"移动互联网,企业服务",104.006638,30.66949,全职,5-10年
667,3664278,技术经理(数据挖掘与应用方向),北京,2018-04-28 18:54:27,31.0,3786,宜信,普信恒业科技发展（北京）有限公司,2000人以上,朝阳区,本科,上市公司,金融,116.48057,39.910341,全职,5-10年
668,4100604,数据分析师/数据挖掘工程师,北京,2018-04-28 21:04:20,16.8,93936,生命奇点,生命奇点（北京）科技有限公司,50-150人,海淀区,本科,A轮,"医疗健康,数据服务",116.304668,39.986318,全职,应届毕业生
669,3970890,数据挖掘工程师,北京,2018-04-11 12:42:19,24.0,1575,百度,百度在线网络技术（北京）有限公司,2000人以上,海淀区,本科,不需要融资,"移动互联网,数据服务",116.273399,40.043429,全职,1-3年
670,4331772,数据挖掘工程师（推荐方向）,深圳,2018-04-28 18:49:05,28.0,130397,小步网络,深圳小步网络科技有限公司,15-50人,宝安区,本科,B轮,移动互联网,113.871114,22.563133,全职,3-5年
671,3861191,数据挖掘,广州,2018-04-17 10:40:48,5.6,288768,帛铎,广州帛铎文化传播有限公司,15-50人,天河区,大专,不需要融资,文化娱乐、其他,,,全职,1年以下
672,3718372,算法工程师/数据挖掘,广州,2018-04-28 10:28:26,35.0,5806,舜飞科技,广州舜飞信息科技有限公司,150-500人,天河区,本科,未融资,移动互联网,113.38952242,23.12626667,全职,3-5年
673,3988676,数据挖掘工程师,杭州,2018-04-27 14:01:45,24.0,22013,二维火,杭州迪火科技有限公司,500-2000人,拱墅区,本科,B轮,"移动互联网 ,O2O",120.134254,30.295602,全职,1-3年
674,4483233,数据挖掘算法工程师-国际化,北京,2018-04-25 18:41:16,28.0,62,字节跳动,北京字节跳动科技有限公司,2000人以上,海淀区,本科,C轮,"移动互联网,数据服务",116.332602,39.971268,全职,1-3年
675,2033658,美团外卖智能配送-数据挖掘算法工程师/专家,北京,2018-04-29 11:19:05,38.0,50702,美团点评,北京三快在线科技有限公司,2000人以上,朝阳区,本科,D轮及以上,"移动互联网,O2O",116.48001,39.99724905,全职,1-3年
676,4171197,数据/数据挖掘工程师,北京,2018-04-23 10:06:22,28.0,520,小米,北京小米科技有限责任公司,2000人以上,海淀区,本科,D轮及以上,移动互联网,0.0,0.0,全职,3-5年
677,3511219,数据挖掘专家-P7-安全基础平台蚂蚁金服-杭州上海,杭州,2018-04-24 22:54:00,35.0,153849,蚂蚁金服集团,支付宝(杭州)信息技术有限公司,2000人以上,西湖区,硕士,B轮,"金融,移动互联网",120.126046,30.272615,全职,3-5年
678,1279591,数据挖掘高级架构师,北京,2018-04-27 14:34:52,35.0,37446,APUS Group,北京麒麟合盛科技有限公司,150-500人,朝阳区,硕士,B轮,移动互联网,116.47971721,39.99502389,全职,3-5年
679,3761065,数据挖掘实习工程师,北京,2018-04-24 18:03:24,5.6,212939,一览科技,北京一览科技有限公司,150-500人,朝阳区,不限,B轮,"移动互联网,文化娱乐",116.465892,40.020777,实习,不限
680,3833890,Risk-数据高级科学家(数据挖掘模型开发）-CQ,重庆,2018-04-16 14:59:44,56.0,136443,马上金融,马上消费金融股份有限公司,2000人以上,渝北区,硕士,不需要融资,"金融,移动互联网",106.50082024,29.61695022,全职,5-10年
681,3662090,技术经理(数据挖掘与应用方向),北京,2018-04-28 18:54:28,31.0,3786,宜信,普信恒业科技发展（北京）有限公司,2000人以上,朝阳区,本科,上市公司,金融,116.48057,39.910341,全职,5-10年
682,2314901,数据挖掘高级工程师,成都,2018-04-28 09:25:26,14.0,4184,思特奇Si-tech,北京思特奇信息技术股份有限公司,2000人以上,,本科,上市公司,数据服务,0.0,0.0,全职,3-5年
683,4076654,数据挖掘工程师,成都,2018-04-28 09:20:35,12.0,125138,博雅成信,成都博雅成信科技有限公司,2000人以上,高新区,本科,不需要融资,金融,104.03158,30.60398,全职,1-3年
684,1506655,数据挖掘,北京,2018-04-27 10:35:50,28.0,113697,LinkDoc,零氪信息技术（北京）有限公司,150-500人,,硕士,C轮,"医疗健康,数据服务",,,全职,不限
685,2118166,高级数据挖掘专家,杭州,2018-04-28 10:03:34,24.0,3770,in,杭州九言科技股份有限公司,150-500人,,本科,B轮,"广告营销,移动互联网",120.12500956,30.27303013,全职,不限
686,4182225,数据挖掘算法高级工程师,北京,2018-04-27 09:09:33,28.0,290741,鼎泰泽丰,北京鼎泰泽丰投资管理有限公司,50-150人,丰台区,本科,不需要融资,金融,116.283321,39.828728,全职,5-10年
687,4442039,资深数据挖掘分析师,北京,2018-04-24 15:12:24,28.0,62,字节跳动,北京字节跳动科技有限公司,2000人以上,海淀区,本科,C轮,"移动互联网,数据服务",116.332602,39.971268,全职,3-5年
688,3338208,数据挖掘工程师,成都,2018-04-17 10:48:30,12.0,108003,数联易康科技,成都数联易康科技有限公司,50-150人,高新区,本科,A轮,"数据服务,医疗健康",103.921809,30.753525,全职,3-5年
689,4373695,数据挖掘经理,深圳,2018-04-09 13:52:43,15.2,285456,WIMI LENDING++,深圳微米信息服务有限公司,15-50人,南山区,本科,天使轮,"移动互联网,金融",113.944718,22.54615,全职,1-3年
690,4161421,数据挖掘算法工程师,北京,2018-04-03 17:10:34,28.0,50702,美团点评,北京三快在线科技有限公司,2000人以上,朝阳区,本科,D轮及以上,"移动互联网,O2O",116.488126,40.008776,全职,5-10年
691,3069359,数据挖掘/算法专家-P7-菜鸟-北京/杭州,北京,2018-04-24 23:19:28,35.0,153849,蚂蚁金服集团,支付宝(杭州)信息技术有限公司,2000人以上,朝阳区,本科,B轮,"金融,移动互联网",116.473565,39.903578,全职,3-5年
692,3833875,Risk-数据高级科学家（数据挖掘模型开发）-SZ,深圳,2018-04-16 14:59:44,56.0,136443,马上金融,马上消费金融股份有限公司,2000人以上,福田区,硕士,不需要融资,"金融,移动互联网",114.046099,22.509506,全职,5-10年
693,2625608,高级数据挖掘工程师,成都,2018-04-28 09:20:35,24.0,125138,博雅成信,成都博雅成信科技有限公司,2000人以上,高新区,本科,不需要融资,金融,104.03158,30.60398,全职,3-5年
694,176966,数据挖掘,北京,2018-04-27 09:03:15,10.8,23727,知网,同方知网（北京）技术有限公司,2000人以上,海淀区,硕士,上市公司,"移动互联网,电子商务",116.35521891,40.04895147,全职,不限
695,4408476,数据挖掘工程师/高级数据挖掘工程师,广州,2018-04-25 11:32:08,19.0,47782,虎彩,虎彩印艺股份有限公司,2000人以上,天河区,本科,上市公司,"企业服务,分类信息",113.374917,23.131905,全职,5-10年
696,4215031,数据挖掘工程师,武汉,2018-04-23 16:10:02,9.6,168120,北京资采,北京资采信息技术有限公司,50-150人,江汉区,本科,上市公司,"数据服务,广告营销",114.241692,30.624677,全职,1-3年
697,4310312,数据挖掘工程师,广州,2018-04-08 09:23:24,8.2,151260,锦诚科技,广州锦诚信息科技有限公司,15-50人,天河区,不限,未融资,"移动互联网,信息安全",113.389572,23.126407,全职,1-3年
698,3832746,LBS高级数据挖掘工程师/专家,杭州,2018-04-17 20:59:08,29.0,165939,橙鹰,杭州橙鹰数据技术有限公司,150-500人,余杭区,本科,不需要融资,数据服务,120.008998,30.279884,全职,3-5年
699,4090170,数据挖掘,深圳,2018-04-17 09:25:37,29.0,145153,联易融linklogis,深圳前海联易融金融服务有限公司,150-500人,南山区,本科,B轮,"移动互联网,金融",113.944897,22.537973,全职,5-10年
700,3351839,数据挖掘工程师,成都,2018-04-27 13:32:55,19.0,229344,中国网安,中国电子科技网络信息安全有限公司,2000人以上,双流区,本科,未融资,移动互联网,103.923588,30.574488,全职,1-3年
701,4076141,数据挖掘工程师,成都,2018-04-27 11:45:39,13.2,180446,融微软件,成都融微软件服务有限公司,50-150人,高新区,本科,不需要融资,"信息安全,数据服务",104.060638,30.549283,全职,应届毕业生
702,3545766,数据挖掘工程师,北京,2018-04-27 11:04:11,17.8,6364,新华网,新华网股份有限公司,500-2000人,西城区,本科,上市公司,"移动互联网,文化娱乐",116.359914,39.900372,全职,1-3年
703,4461752,数据挖掘/机器学习算法工程师-反作弊,北京,2018-04-22 17:56:19,27.0,55446,贝壳找房,链家网（北京）科技有限公司,2000人以上,海淀区,本科,C轮,"移动互联网,O2O",0.0,0.0,全职,不限
704,2394709,数据挖掘,合肥,2018-04-08 14:41:13,5.6,53855,合肥火车头,合肥乐维信息技术有限公司,15-50人,蜀山区,大专,不需要融资,"移动互联网,数据服务",117.15173,31.865592,全职,1-3年
705,3041373,高级数据挖掘算法工程师,北京,2018-04-27 10:46:32,29.0,50702,美团点评,北京三快在线科技有限公司,2000人以上,朝阳区,本科,D轮及以上,"移动互联网,O2O",116.48969,40.00727,全职,1-3年
706,3833836,Risk-数据科学家（数据挖掘模型开发）-CQ,重庆,2018-04-16 14:59:43,28.0,136443,马上金融,马上消费金融股份有限公司,2000人以上,渝北区,硕士,不需要融资,"金融,移动互联网",106.50082024,29.61695022,全职,3-5年
707,3742447,数据挖掘工程师,北京,2018-04-02 18:16:47,19.0,18139,京东集团,北京京东世纪贸易有限公司,2000人以上,通州区,本科,上市公司,"电子商务,数据服务",116.567849,39.791051,全职,1-3年
708,4267132,数据挖掘工程师（校招）,广州,2018-04-28 11:17:39,8.4,44841,PPmoney互联网金融平台,万惠投资管理有限公司,500-2000人,天河区,本科,上市公司,金融,113.326686,23.119559,全职,不限
709,4410675,数据挖掘工程师,郑州,2018-04-23 18:09:13,8.4,274166,拓普网络,北京拓普丰联信息工程有限公司,150-500人,金水区,不限,未融资,移动互联网,113.692218,34.78243,全职,1-3年
710,2314879,数据挖掘工程师,成都,2018-04-28 09:25:25,11.2,4184,思特奇Si-tech,北京思特奇信息技术股份有限公司,2000人以上,,本科,上市公司,数据服务,0.0,0.0,全职,3-5年
711,3787093,数据挖掘工程师,杭州,2018-04-28 09:13:59,17.8,22013,二维火,杭州迪火科技有限公司,500-2000人,拱墅区,本科,B轮,"移动互联网 ,O2O",120.13493765,30.29519311,全职,3-5年
712,4152710,高级数据挖掘工程师,深圳,2018-03-30 16:06:38,31.0,49802,小牛在线,深圳市小牛在线互联网信息咨询有限公司,150-500人,南山区,本科,不需要融资,金融,39.897445,116.331398,全职,5-10年
713,1971791,数据挖掘/自然语言/计算机视觉,深圳,2018-04-28 16:46:58,42.0,134704,研究和开发大数据平台,深圳市商智通安防设备有限公司,150-500人,南山区,本科,未融资,"移动互联网,电子商务",113.94466496,22.55270614,全职,3-5年
714,3582811,数据挖掘工程师,上海,2018-04-26 21:41:47,19.0,35713,链家上海研发中心,德佑房地产经纪有限公司,500-2000人,静安区,本科,B轮,企业服务,120.993464,30.994061,全职,3-5年
715,3370009,数据挖掘实习生,杭州,2018-04-28 10:48:08,4.8,329,网易,网易（杭州）有限公司,2000人以上,滨江区,本科,上市公司,"电子商务,移动互联网",120.192295,30.188393,实习,不限
716,2196025,数据挖掘工程师/专家,上海,2018-04-26 16:01:15,28.0,51480,饿了么,拉扎斯网络科技（上海）有限公司,2000人以上,普陀区,本科,D轮及以上,移动互联网,121.38239012,31.23415343,全职,3-5年
717,3983009,数据挖掘、机器学习高级工程师,上海,2018-04-28 10:28:31,19.0,1575,百度,百度在线网络技术（北京）有限公司,2000人以上,浦东新区,硕士,不需要融资,"移动互联网,数据服务",121.605797,31.179906,全职,不限
718,4274669,数据挖掘工程师,杭州,2018-04-25 15:50:59,13.2,40813,贝安云,杭州贝安云科技有限公司,50-150人,西湖区,不限,未融资,"移动互联网,医疗健康",120.126118,30.275555,全职,应届毕业生
719,4401016,数据挖掘工程师,北京,2018-04-11 10:19:37,15.2,170899,CGTN,央视国际视频通讯有限公司,150-500人,朝阳区,本科,不需要融资,移动互联网,116.463846,39.915029,全职,1-3年
720,3833784,Risk-数据科学家（数据挖掘模型开发）-BJ,北京,2018-04-16 14:59:44,28.0,136443,马上金融,马上消费金融股份有限公司,2000人以上,朝阳区,硕士,不需要融资,"金融,移动互联网",116.488635,40.003335,全职,不限
721,4408138,数据挖掘实习生,成都,2018-04-28 09:20:35,4.2,125138,博雅成信,成都博雅成信科技有限公司,2000人以上,高新区,本科,不需要融资,金融,104.06601,30.582358,全职,应届毕业生
722,3435502,数据挖掘专家-P7-风险与决策中心-蚂蚁金服-杭州,杭州,2018-04-24 22:54:00,35.0,153849,蚂蚁金服集团,支付宝(杭州)信息技术有限公司,2000人以上,西湖区,本科,B轮,"金融,移动互联网",120.126046,30.272615,全职,3-5年
723,4095353,算法工程师 (数据挖掘方向),北京,2018-04-23 16:31:22,38.0,8414,一点资讯,一点网聚科技有限公司,500-2000人,朝阳区,本科,D轮及以上,移动互联网,39.897445,116.331398,全职,3-5年
724,4408318,数据挖掘工程师,深圳,2018-04-19 18:47:40,9.2,54269,前海信息,深圳前海信息技术有限公司,50-150人,宝安区,本科,天使轮,数据服务,113.927862,22.581931,全职,不限
725,4092002,校招-数据挖掘工程师/副研究员,北京,2018-04-03 11:05:36,19.0,3786,宜信,普信恒业科技发展（北京）有限公司,2000人以上,朝阳区,硕士,上市公司,金融,0.0,0.0,全职,应届毕业生
726,3764835,数据挖掘/机器学习,北京,2018-04-27 09:14:22,28.0,114173,所问数据,北京所问数据科技有限公司,50-150人,朝阳区,本科,A轮,"企业服务,数据服务",116.480725,39.995964,全职,1-3年
727,4308608,数据挖掘工程师,深圳,2018-04-24 14:10:40,14.0,118384,旭东数字影像,深圳市旭东数字医学影像技术有限公司,50-150人,福田区,硕士,A轮,医疗健康,0.0,0.0,全职,1年以下
728,4310742,百度大搜_数据挖掘工程师,北京,2018-04-13 11:44:27,21.0,1575,百度,百度在线网络技术（北京）有限公司,2000人以上,海淀区,本科,不需要融资,"移动互联网,数据服务",116.301396,40.050909,全职,1-3年
729,3444163,数据挖掘（反欺诈）,深圳,2018-04-27 15:12:21,35.0,3058,无秘,深圳无觅科技有限公司,150-500人,南山区,本科,B轮,"移动互联网,金融",113.952085,22.553261,全职,3-5年
730,2761762,数据挖掘工程师,深圳,2018-04-27 09:49:18,18.2,13809,随手科技,深圳市随手科技有限公司,500-2000人,南山区,本科,C轮,"移动互联网,金融",113.993578,22.99368,全职,3-5年
731,2557548,数据挖掘研究员/助理工程师,上海,2018-04-17 15:08:58,15.8,26987,智子云,上海智子信息科技有限公司,50-150人,杨浦区,硕士,B轮,"移动互联网,数据服务",121.53576781,31.29427829,全职,1-3年
732,2808361,数据挖掘算法工程师,武汉,2018-04-23 16:20:58,14.0,53438,白虹软件,武汉白虹软件科技有限公司,150-500人,江夏区,硕士,上市公司,"移动互联网,信息安全",114.425467,30.462329,全职,3-5年
733,4321319,数据挖掘工程师,广州,2018-04-28 16:37:57,8.0,31721,火烈鸟网络,火烈鸟网络(广州)股份有限公司,150-500人,天河区,本科,B轮,"移动互联网,游戏",113.33503,23.13295,全职,1-3年
734,3165976,数据挖掘工程师,深圳,2018-04-27 13:52:01,19.0,11885,世联行,深圳世联行地产顾问股份有限公司,2000人以上,罗湖区,本科,上市公司,企业服务,114.127163,22.544938,全职,3-5年
735,4363504,数据挖掘工程师,杭州,2018-04-23 09:22:39,10.2,167868,辛孚能源,杭州辛孚能源科技有限公司,15-50人,滨江区,硕士,天使轮,"数据服务,信息安全",120.143219,30.17956,全职,不限
736,4372876,高级数据挖掘分析工程师,北京,2018-04-18 11:59:35,21.0,123763,斗米,北京斗米优聘科技发展有限公司,500-2000人,海淀区,本科,B轮,"移动互联网,O2O",0.0,0.0,全职,3-5年
737,4492841,数据挖掘算法高级工程师/专家,北京,2018-04-27 11:57:29,38.0,91,阿里巴巴—高德,高德软件有限公司,2000人以上,朝阳区,本科,上市公司,移动互联网,116.473575,39.992958,全职,3-5年
738,3408788,数据挖掘工程师,北京,2018-04-25 10:58:51,21.0,44548,京东,北京京东尚科信息技术有限公司上海分公司,500-2000人,大兴区,本科,上市公司,"移动互联网,电子商务",116.561743,39.787906,全职,3-5年
739,3936471,数据挖掘工程师,北京,2018-04-23 11:51:56,28.0,451,腾讯,腾讯科技(深圳)有限公司,2000人以上,海淀区,硕士,上市公司,"移动互联网 ,游戏",116.336997,39.977178,全职,1-3年
740,3523758,数据挖掘工程师,北京,2018-04-03 10:35:48,13.2,150030,北京瑞友,北京瑞友科技股份有限公司,2000人以上,海淀区,本科,上市公司,"移动互联网,电子商务",116.306295,40.053034,全职,1-3年
741,3446595,数据挖掘工程师（架构方向）,北京,2018-04-27 11:04:10,17.0,6364,新华网,新华网股份有限公司,500-2000人,西城区,硕士,上市公司,"移动互联网,文化娱乐",116.359914,39.900372,全职,3-5年
742,4155959,数据挖掘工程师,广州,2018-04-24 17:50:55,19.6,107784,拼多多,上海寻梦信息技术有限公司,500-2000人,海珠区,本科,C轮,"电子商务,移动互联网",113.326414,23.096313,全职,3-5年
743,4383238,数据挖掘工程师（广告方向）,上海,2018-04-27 17:14:58,19.0,170297,东方头条,上海嵩恒网络科技股份有限公司,500-2000人,浦东新区,不限,不需要融资,"移动互联网,社交网络",121.628574,31.205011,全职,1-3年
744,2883544,P6/P7/P8-口碑-数据挖掘专家-杭州,杭州,2018-04-24 22:54:01,35.0,153849,蚂蚁金服集团,支付宝(杭州)信息技术有限公司,2000人以上,西湖区,本科,B轮,"金融,移动互联网",120.12574,30.2726,全职,3-5年
745,3698670,数据挖掘工程师,广州,2018-04-21 10:10:00,20.8,140015,啦咔网络,广州啦咔网络科技有限公司,150-500人,天河区,本科,不需要融资,"移动互联网,社交网络",113.317481,23.126786,全职,1-3年
746,4002123,数据挖掘与建模工程师,广州,2018-04-20 14:00:26,17.8,90364,广东迪奥,广东迪奥技术有限公司,150-500人,越秀区,本科,未融资,"企业服务,其他",113.300793,23.132054,全职,3-5年
747,3256639,数据挖掘实习生,北京,2018-04-20 13:20:40,3.8,436,360,奇虎360科技有限公司,2000人以上,朝阳区,本科,上市公司,"移动互联网,游戏",116.49112801,39.98313206,全职,不限
748,3820959,数据挖掘工程师,广州,2018-04-17 10:18:33,15.2,4184,思特奇Si-tech,北京思特奇信息技术股份有限公司,2000人以上,天河区,硕士,上市公司,数据服务,113.34157,23.124639,全职,不限
749,4390430,数据挖掘工程师,郑州,2018-04-09 16:33:18,7.6,274166,拓普网络,北京拓普丰联信息工程有限公司,150-500人,金水区,本科,未融资,移动互联网,113.692218,34.78243,全职,1-3年
750,4126713,数据分析工程师/数据挖掘工程师,北京,2018-04-27 11:38:19,19.0,39934,每日优鲜,北京每日优鲜电子商务有限公司,500-2000人,朝阳区,本科,C轮,"移动互联网,电子商务",116.479363,39.986108,全职,1-3年
751,4089218,总部-会员数据挖掘分析,南京,2018-04-27 09:56:29,9.0,31945,孩子王,孩子王儿童用品股份有限公司,2000人以上,江宁区,本科,上市公司,生活服务,118.887047,32.01075,全职,3-5年
752,4383417,高级数据挖掘分析工程师,广州,2018-04-23 17:26:24,24.0,44261,安荣科技,北京安荣科技有限公司,150-500人,越秀区,本科,不需要融资,移动互联网,113.276467,23.131547,全职,5-10年
753,3846605,高级数据挖掘分析工程师,北京,2018-04-18 16:28:18,24.0,51298,思路,北京思路创新科技有限公司,500-2000人,海淀区,本科,D轮及以上,数据服务,116.311151,40.040791,全职,5-10年
754,4421130,数据挖掘工程师（美图影像实验室）,北京,2018-04-26 11:29:10,22.4,23291,美图公司,厦门美图之家科技有限公司,500-2000人,海淀区,本科,上市公司,"移动互联网,硬件",39.897445,116.331398,全职,1-3年
755,3014225,数据挖掘工程师,成都,2018-04-28 09:25:25,11.2,4184,思特奇Si-tech,北京思特奇信息技术股份有限公司,2000人以上,高新区,本科,上市公司,数据服务,104.047146,30.58144,全职,1-3年
