,职位编码,职位名称,所在城市,发布日期,薪资待遇(k),公司编码,公司名称,公司全称,公司规模,所在区域,最低学历,融资状态,公司类型,经度,纬度,全职/实习,工作经验
0,4313749,测试工程师,合肥,2018-04-29 15:58:02,9.8,164634,百得思维,安徽百得思维信息科技有限公司,500-2000人,高新区,本科,未融资,其他,117.144594,31.831305,全职,1-3年
1,4241535,软件测试,汕头,2018-04-29 17:38:04,4.4,242768,阿米巴,汕头市阿米巴网络科技有限公司,150-500人,龙湖区,大专,不需要融资,"移动互联网,电子商务",116.72734,23.365887,全职,不限
2,4370629,测试,天津,2018-04-27 09:37:52,5.2,8861,妙计旅行,北京汇行科技有限公司,150-500人,滨海新区,本科,B轮,旅游,117.688816,38.995853,全职,1-3年
3,4210959,测试工程师,上海,2018-04-28 16:57:51,12.0,128998,江苏亿科达,上海海万信息科技股份有限公司,500-2000人,徐汇区,大专,不需要融资,"移动互联网,金融",121.457162,31.183764,全职,1-3年
4,2652684,测试工程师,厦门,2018-04-28 15:45:56,4.8,91874,指纹科技,厦门指纹科技有限公司,150-500人,思明区,大专,不需要融资,电子商务,117.993493,23.994066,全职,1-3年
5,2082473,测试,杭州,2018-04-28 10:04:48,11.2,24287,腾展叮咚（Dingtone）,杭州腾展科技股份有限公司,50-150人,西湖区,本科,上市公司,"移动互联网,社交网络",120.12563,30.27736004,全职,1-3年
6,3322193,软件测试工程师,西安,2018-04-28 17:15:56,6.8,115582,西部机场集团悦泰科技公司,西安悦泰科技有限责任公司,50-150人,高新技术产业开发区,本科,未融资,"移动互联网,电子商务",108.871011,34.192591,全职,1-3年
7,3471926,测试工程师,杭州,2018-04-28 15:42:17,7.6,131610,杭州伊柯夫,杭州伊柯夫科技有限公司,50-150人,余杭区,本科,天使轮,"移动互联网,数据服务",120.017992,30.280276,全职,1-3年
8,4382570,预测试,武汉,2018-04-28 10:58:59,7.0,24780,诚迈科技,诚迈科技（南京）股份有限公司,2000人以上,东湖新技术开发区,本科,上市公司,移动互联网,114.538478,30.489386,全职,1-3年
9,3556246,测试工程师,上海,2018-04-27 18:03:26,7.8,82712,缔安,上海缔安科技股份有限公司,50-150人,长宁区,本科,B轮,移动互联网,121.356187,31.220756,全职,不限
10,4055627,测试开发,珠海,2018-04-28 11:06:11,5.8,122930,文景科技,珠海文景科技有限公司,50-150人,香洲区,大专,不需要融资,游戏,113.51913,22.253112,全职,1-3年
11,4457336,测试工程师,广州,2018-04-28 13:57:40,8.8,200499,一智通,广州一智通供应链管理有限公司,150-500人,天河区,本科,B轮,企业服务,113.320471,23.162406,全职,1-3年
12,4365262,测试工程师,北京,2018-04-28 15:03:48,12.0,19313,网宿科技,网宿科技股份有限公司北京分公司,2000人以上,海淀区,本科,上市公司,移动互联网,115.99339,39.99426,全职,3-5年
13,4179864,测试开发,杭州,2018-04-28 19:01:14,21.0,59928,盈盈理财,杭州盈纳控股集团有限公司,500-2000人,下城区,大专,A轮,移动互联网,120.165783,30.315415,全职,3-5年
14,2440571,软件测试岗,济南,2018-04-28 09:59:09,5.6,62104,融托金融,聊城融托金融服务有限公司,50-150人,市中区,大专,不需要融资,金融,117.00243671,36.66262667,全职,不限
15,4329392,测试工程师,上海,2018-04-28 14:47:14,5.8,128998,江苏亿科达,上海海万信息科技股份有限公司,500-2000人,杨浦区,本科,不需要融资,"移动互联网,金融",121.511321,31.261576,全职,1-3年
16,3094828,测试工程师,济南,2018-04-28 18:04:14,7.6,67576,车满满,车满满（北京）信息技术有限公司,150-500人,高新区,本科,B轮,移动互联网,117.141711,36.662479,全职,1-3年
17,4453709,测试（测试）,广州,2018-04-28 17:35:13,8.8,16831,武汉佰钧成技术有限公司,武汉佰钧成技术有限责任公司,2000人以上,海珠区,大专,不需要融资,移动互联网,0.0,0.0,全职,1-3年
18,4502502,测试工程师,上海,2018-04-30 09:07:26,21.0,325639,谚趣网络,上海谚趣网络科技有限公司,少于15人,浦东新区,大专,天使轮,移动互联网,121.628512,31.212427,全职,3-5年
19,2049896,测试工程师,北京,2018-04-28 10:57:35,12.0,53137,家园网,家园网络科技有限公司,2000人以上,东城区,本科,不需要融资,O2O,116.453324,39.898689,全职,3-5年
20,3006119,测试工程师,厦门,2018-04-28 10:34:42,8.8,19475,疯狂老师,上海享学网络科技有限公司,150-500人,思明区,本科,C轮,移动互联网,118.105745,24.465267,全职,1-3年
21,3683172,测试工程师,中山,2018-04-24 16:00:26,5.2,200958,无忧帮帮,深圳无忧帮帮科技有限公司,50-150人,中山市市辖区,大专,A轮,"移动互联网,生活服务",113.423023,22.515922,全职,1-3年
22,4135738,测试开发工程师,杭州,2018-04-30 07:57:13,16.4,57350,微拍堂,杭州微拍堂文化创意有限公司,150-500人,西湖区,大专,A轮,移动互联网,120.12658,30.2784,全职,3-5年
23,4446906,测试工程师,杭州,2018-04-28 19:01:14,14.0,59928,盈盈理财,杭州盈纳控股集团有限公司,500-2000人,下城区,不限,A轮,移动互联网,120.165783,30.315415,全职,不限
24,2403060,测试开发,杭州,2018-04-30 10:51:53,11.2,44875,印孚瑟斯,印孚瑟斯技术（中国）有限公司,2000人以上,滨江区,大专,上市公司,移动互联网,120.190371,30.189602,全职,3-5年
25,3397257,测试,上海,2018-04-28 18:21:23,15.2,145257,蚂蚁HR,上海蚁众企业管理咨询有限公司,150-500人,徐汇区,本科,A轮,企业服务,121.42771,31.18259,全职,3-5年
26,4183771,测试,武汉,2018-04-27 13:54:11,9.0,2192,盛天网络,湖北盛天网络技术股份有限公司,500-2000人,东湖新技术开发区,本科,上市公司,"游戏,文化娱乐",114.426619,30.456315,全职,3-5年
27,3105470,测试工程师,广州,2018-04-29 13:53:32,8.8,19471,万表,广州市万表科技股份有限公司,150-500人,番禺区,本科,B轮,"移动互联网,电子商务",113.335498,23.01596,全职,3-5年
28,669104,测试工程师,无锡,2018-04-28 14:19:57,9.0,3246,帆软软件,南京帆软软件有限公司,500-2000人,南长区,本科,不需要融资,数据服务,120.30926,31.550849,全职,不限
29,2969360,测试工程师,杭州,2018-04-28 09:43:50,17.8,117274,DAHO Networks,中卫大河云联网络技术有限公司,50-150人,余杭区,本科,A轮,"企业服务,数据服务",120.017468,30.281468,全职,1-3年
30,3096927,深测试工程师,济南,2018-04-28 18:04:13,13.2,67576,车满满,车满满（北京）信息技术有限公司,150-500人,高新区,本科,B轮,移动互联网,0.0,0.0,全职,3-5年
31,4225308,测试工程师,上海,2018-04-28 16:57:51,10.8,128998,江苏亿科达,上海海万信息科技股份有限公司,500-2000人,杨浦区,本科,不需要融资,"移动互联网,金融",121.511321,31.261576,全职,1-3年
32,4436496,测试工程师,福州,2018-04-28 10:31:53,7.6,175982,福建日报新媒体,福建报业新媒体发展有限公司,50-150人,鼓楼区,本科,未融资,"移动互联网,电子商务",119.299179,26.100988,全职,1-3年
33,4316977,测试工程师,兰州,2018-04-28 10:21:54,8.2,51952,信达天下,北京信达天下科技有限公司,50-150人,城关区,大专,A轮,移动互联网,103.831756,36.052957,全职,1-3年
34,4281306,测试工程师,北京,2018-04-27 21:08:49,19.0,82991,数美,北京数美时代科技有限公司,150-500人,朝阳区,本科,B轮,"企业服务,数据服务",116.465953,40.021083,全职,1-3年
35,3872421,测试工程师,杭州,2018-04-27 09:23:40,12.4,20493,新移传媒,浙江新华移动传媒股份有限公司,50-150人,上城区,本科,不需要融资,移动互联网,120.15424,30.20754,全职,1-3年
36,3983363,测试工程师,杭州,2018-04-18 14:33:37,11.2,29373,微链welian.com,杭州传送门网络科技有限公司,50-150人,西湖区,本科,B轮,社交网络,120.12456377,30.29239097,全职,1-3年
37,3766765,测试工程师,北京,2018-04-28 15:10:10,13.2,36441,拱顶石游戏,北京拱顶石科技有限公司,50-150人,朝阳区,本科,B轮,"游戏,文化娱乐",116.453971,39.932248,全职,1-3年
38,4151090,测试专家,杭州,2018-04-28 09:37:41,12.0,8169,点我达,点我达网络科技有限公司,500-2000人,下城区,本科,D轮及以上,O2O,120.16579198,30.31569396,全职,3-5年
39,4083832,测试工程师,济南,2018-04-25 08:52:16,2.8,211490,深圳雁联技术,深圳市雁联技术服务有限公司,500-2000人,市中区,本科,不需要融资,"移动互联网,金融",117.005627,36.66165,全职,1年以下
40,3990826,测试工程师,杭州,2018-04-29 17:47:03,16.0,205716,潘帕斯,杭州潘帕斯信息服务有限公司,50-150人,滨江区,本科,天使轮,"金融,数据服务",120.220961,30.207822,全职,1-3年
41,4481523,备货测试,赣州,2018-04-28 08:45:44,3.4,63720,飞救医疗科技（北京）有限公司,飞救医疗科技（北京）有限公司,150-500人,章贡区,大专,A轮,移动互联网,114.921171,25.817816,全职,1年以下
42,3068233,测试工程师,济南,2018-04-27 10:22:33,8.8,25317,金证股份,深圳市金证科技股份有限公司,2000人以上,市中区,本科,上市公司,金融,117.001392,36.655611,全职,3-5年
43,2840666,测试（徐汇区）,上海,2018-04-28 17:50:26,8.4,1738,有鱼金融科技,上海彩亿信息技术有限公司,500-2000人,徐汇区,本科,B轮,"移动互联网,金融",121.40437233,31.16440487,全职,1-3年
44,3149749,测试工程师,厦门,2018-04-28 15:03:49,12.0,19313,网宿科技,网宿科技股份有限公司北京分公司,2000人以上,思明区,本科,上市公司,移动互联网,118.196102,24.486751,全职,1-3年
45,4384326,测试工程师,上海,2018-04-28 17:49:51,9.0,128998,江苏亿科达,上海海万信息科技股份有限公司,500-2000人,虹口区,本科,不需要融资,"移动互联网,金融",121.99341,30.994275,全职,3-5年
46,3798832,测试工程师,杭州,2018-04-28 14:40:32,12.0,178320,知坤科技,杭州知坤网络科技有限公司,15-50人,西湖区,大专,天使轮,"移动互联网,企业服务",120.068391,30.328832,全职,3-5年
47,4357674,测试工程师,上海,2018-04-28 09:57:53,14.4,2380,浙江执御信息技术有限公司,浙江执御信息技术有限公司,2000人以上,长宁区,本科,B轮,"移动互联网,数据服务",121.35383,31.227761,全职,3-5年
48,4497009,测试工程师,上海,2018-04-28 09:42:50,12.0,72427,上海青客,上海青客公共租赁住房租赁经营管理股份有限公司,500-2000人,徐汇区,本科,C轮,"移动互联网,O2O",121.458872,31.186156,全职,3-5年
49,2176575,测试工程师,杭州,2018-04-27 14:34:23,11.2,21658,信领达,信领达（杭州）软件有限公司,50-150人,西湖区,本科,D轮及以上,移动互联网,120.18605997,30.32123995,全职,3-5年
50,4453064,测试工程师,北京,2018-04-19 19:46:36,12.0,110502,洋钱罐,北京瓴岳信息技术有限公司,150-500人,朝阳区,本科,不需要融资,"移动互联网,金融",116.460733,39.929643,全职,1-3年
51,2701273,测试工程师,大连,2018-04-27 13:46:22,7.0,40112,华宇,华宇（大连）信息服务有限公司,500-2000人,甘井子区,不限,上市公司,数据服务,0.0,0.0,全职,1-3年
52,3965572,测试工程师,青岛,2018-04-26 17:18:28,7.8,7535,什么值得买,北京值得买科技股份有限公司,150-500人,市北区,大专,A轮,"电子商务,文化娱乐",120.376922,36.089956,全职,1-3年
53,4464927,测试工程师,东莞,2018-04-28 11:25:09,10.8,111390,科迈爱康,深圳市科迈爱康科技有限公司,15-50人,东莞市市辖区,本科,不需要融资,"移动互联网,数据服务",113.82382,22.796716,全职,3-5年
54,600523,测试工程师,大连,2018-04-27 17:08:39,4.2,57118,Liferay 大连,大连来锐软件有限公司,50-150人,高新园区,本科,不需要融资,其他,121.5310701,38.86338023,全职,1年以下
55,4451323,测试工程师,北京,2018-04-27 16:00:34,10.8,407,华夏创新,北京华夏创新科技有限公司,50-150人,海淀区,本科,B轮,"移动互联网,招聘",116.234318,40.066951,全职,3-5年
56,4454077,测试工程师,北京,2018-04-27 18:28:09,10.8,30162,公瑾,北京公瑾科技有限公司广州分公司,500-2000人,海淀区,本科,B轮,移动互联网,116.31561,39.983413,全职,3-5年
57,4148566,测试副总监,北京,2018-04-30 00:16:16,42.0,139078,唯医网,北京欧应信息技术有限公司,150-500人,朝阳区,本科,B轮,"移动互联网,医疗健康",116.452067,39.914005,全职,5-10年
58,4307277,测试软件工程师,上海,2018-04-28 18:21:23,14.0,145257,蚂蚁HR,上海蚁众企业管理咨询有限公司,150-500人,徐汇区,本科,A轮,企业服务,121.42771,31.18259,全职,3-5年
59,2840652,测试,上海,2018-04-28 17:50:25,7.6,1738,有鱼金融科技,上海彩亿信息技术有限公司,500-2000人,徐汇区,本科,B轮,"移动互联网,金融",121.40437233,31.16440487,全职,1-3年
60,3298505,性能测试,上海,2018-04-28 11:27:27,12.0,128998,江苏亿科达,上海海万信息科技股份有限公司,500-2000人,徐汇区,大专,不需要融资,"移动互联网,金融",121.456306,31.18335,全职,3-5年
61,3621736,测试工程师,杭州,2018-04-28 14:09:38,7.0,21658,信领达,信领达（杭州）软件有限公司,50-150人,西湖区,本科,D轮及以上,移动互联网,119.993591,29.993662,全职,1-3年
62,690896,性能测试,大连,2018-04-27 17:08:41,5.6,57118,Liferay 大连,大连来锐软件有限公司,50-150人,高新园区,本科,不需要融资,其他,121.5310701,38.86338023,全职,应届毕业生
63,4154500,测试工程师,上海,2018-04-27 10:22:33,12.0,25317,金证股份,深圳市金证科技股份有限公司,2000人以上,浦东新区,本科,上市公司,金融,0.0,0.0,全职,3-5年
64,4475646,测试工程师,杭州,2018-04-26 18:55:59,12.2,9891,米络科技（KK直播）,杭州米络科技有限公司,150-500人,拱墅区,本科,B轮,移动互联网,119.993591,29.993662,全职,3-5年
65,3324458,测试工程师,南京,2018-04-25 13:58:43,7.0,225665,惠龙易通,惠龙易通国际物流股份有限公司,150-500人,雨花台区,大专,A轮,"移动互联网,电子商务",118.779073,31.991347,全职,1-3年
66,4275932,机顶盒测试,深圳,2018-04-18 08:45:54,7.0,16831,武汉佰钧成技术有限公司,武汉佰钧成技术有限责任公司,2000人以上,龙岗区,本科,不需要融资,移动互联网,,,全职,3-5年
67,120847,测试工程师,上海,2018-04-28 16:30:12,10.8,1860,薄荷,上海薄荷信息科技有限公司,50-150人,浦东新区,本科,B轮,"移动互联网,电子商务",121.527241,31.227454,全职,1-3年
68,3970675,测试工程师,上海,2018-04-28 10:40:28,9.6,30809,上海广拓信息技术有限公司,上海广拓信息技术有限公司,150-500人,闸北区,本科,未融资,硬件,121.458958,31.241934,全职,1-3年
69,4368538,测试实习生,杭州,2018-04-28 09:37:44,2.4,33618,微贷网,微贷（杭州）金融信息服务有限公司,2000人以上,江干区,本科,C轮,金融,120.210795,30.241803,全职,不限
70,3615372,测试,深圳,2018-04-28 09:33:53,5.8,43807,智美达,深圳市智美达科技股份有限公司,500-2000人,南山区,本科,C轮,移动互联网,113.993578,22.99368,全职,1年以下
71,4457655,测试,上海,2018-04-27 18:02:21,12.0,125621,朋数,上海朋数信息科技有限公司,150-500人,虹口区,大专,B轮,移动互联网,121.48169,31.251016,全职,1-3年
72,4427096,测试工程师,北京,2018-04-29 23:42:12,10.8,290938,中国正通汽车集团,正通汽车服务有限公司,2000人以上,丰台区,大专,上市公司,其他,0.0,0.0,全职,3-5年
73,3993647,测试工程师,厦门,2018-04-28 10:45:47,12.0,1561,Face++,北京旷视科技有限公司,500-2000人,集美区,本科,C轮,"移动互联网,硬件",118.065268,24.590834,全职,3-5年
74,1167001,测试工程师,杭州,2018-04-28 10:06:34,14.0,11747,灵犀金融,杭州心有灵犀互联网金融股份有限公司,150-500人,西湖区,本科,上市公司,"移动互联网,金融",120.07329,30.28097036,全职,3-5年
75,4405922,性能测试（3-5年）,上海,2018-04-30 07:45:38,12.0,128998,江苏亿科达,上海海万信息科技股份有限公司,500-2000人,静安区,本科,不需要融资,"移动互联网,金融",121.458959,31.266934,全职,3-5年
76,3341249,测试工程师,广州,2018-04-28 09:42:48,9.8,6580,美甲帮,广州牧云网络科技有限公司,150-500人,天河区,本科,B轮,移动互联网,0.0,0.0,全职,1-3年
77,4364054,测试实习,上海,2018-04-27 18:03:26,3.4,82712,缔安,上海缔安科技股份有限公司,50-150人,长宁区,本科,B轮,移动互联网,121.356187,31.220756,实习,应届毕业生
78,3499537,测试工程师,杭州,2018-04-17 14:50:29,14.0,116030,复杂美科技,杭州复杂美科技有限公司,50-150人,西湖区,本科,不需要融资,金融,120.145594,30.278814,全职,3-5年
79,4355986,测试工程师,广州,2018-04-29 17:24:59,8.8,13877,6637,广州泽娱网络科技有限公司,50-150人,天河区,大专,未融资,游戏,112.993461,22.994261,全职,1-3年
80,4448452,测试实习生,广州,2018-04-28 13:57:40,3.8,200499,一智通,广州一智通供应链管理有限公司,150-500人,天河区,本科,B轮,企业服务,113.320471,23.162406,实习,应届毕业生
81,4008051,测试工程师,南昌,2018-04-15 22:04:41,6.2,86493,金格科技,江西金格科技股份有限公司,150-500人,青山湖区,大专,上市公司,移动互联网,115.963529,28.691587,全职,3-5年
82,3500942,测试工程师,广州,2018-04-28 13:19:12,8.0,113687,汇聚支付,广州市汇聚支付电子科技有限公司,150-500人,天河区,本科,不需要融资,"金融,移动互联网",113.32773,23.13265,全职,1-3年
83,2346164,测试工程师,杭州,2018-04-28 11:30:18,14.0,45150,杭州施强教育科技有限公司,杭州施强网络科技有限公司,2000人以上,滨江区,大专,不需要融资,"移动互联网,教育",120.18254134,30.18872037,全职,3-5年
84,4353341,测试工程师,天津,2018-04-27 09:37:52,5.2,8861,妙计旅行,北京汇行科技有限公司,150-500人,滨海新区,本科,B轮,旅游,117.688816,38.995853,全职,1-3年
85,4335531,测试工程师,广州,2018-04-28 18:44:20,7.6,67221,百倍科技,广州百倍网络科技有限公司,150-500人,海珠区,大专,不需要融资,"移动互联网,电子商务",113.369667,23.097407,全职,1-3年
86,4500513,测试工程师/经理,北京,2018-04-28 16:42:00,21.0,169186,Momenta,北京初速度科技有限公司,150-500人,海淀区,本科,B轮,"数据服务,硬件",116.33347,39.994039,全职,不限
87,3489313,测试工程师（QA）,厦门,2018-04-28 15:03:47,10.8,19313,网宿科技,网宿科技股份有限公司北京分公司,2000人以上,思明区,本科,上市公司,移动互联网,118.196102,24.486751,全职,1-3年
88,4481394,测试工程师,北京,2018-04-28 13:39:46,14.0,82991,数美,北京数美时代科技有限公司,150-500人,朝阳区,本科,B轮,"企业服务,数据服务",116.465999,40.021827,全职,1-3年
89,3847153,测试工程师,北京,2018-04-28 13:39:11,6.2,25439,Udesk－企业级智能客服平台,北京沃丰时代数据科技有限公司,150-500人,西城区,本科,B轮,其他,116.357353,39.939211,全职,1-3年
90,3817631,测试工程师,上海,2018-04-28 15:59:33,8.8,128998,江苏亿科达,上海海万信息科技股份有限公司,500-2000人,浦东新区,大专,不需要融资,"移动互联网,金融",121.524656,31.233385,全职,3-5年
91,3971320,测试专家,杭州,2018-04-28 11:30:18,24.0,45150,杭州施强教育科技有限公司,杭州施强网络科技有限公司,2000人以上,滨江区,大专,不需要融资,"移动互联网,教育",120.182541,30.18872,全职,5-10年
92,4333492,测试组长,北京,2018-04-28 10:34:16,14.0,150239,考拉阅读,北京享阅教育科技有限公司,50-150人,海淀区,本科,B轮,"教育,移动互联网",116.302508,39.960317,全职,3-5年
93,3404728,测试工程师,北京,2018-04-28 10:25:25,19.0,141027,nestia,北京奈斯特尔信息技术有限公司,50-150人,朝阳区,本科,A轮,移动互联网,116.482537,39.98963,全职,1-3年
94,4311338,测试开发,北京,2018-04-29 11:18:40,17.8,5706,洋葱数学,光合新知（北京）科技有限公司,150-500人,朝阳区,不限,C轮,"移动互联网,教育",116.500139,39.991999,全职,1-3年
95,2811580,测试工程师,杭州,2018-04-28 11:22:16,7.0,9551,杭州悠可,杭州悠可化妆品有限公司,500-2000人,江干区,本科,上市公司,电子商务,119.993591,29.993662,全职,不限
96,2969067,测试工程师,厦门,2018-04-28 09:58:07,7.6,87170,准动网络科技,准动网络科技(厦门)有限公司,150-500人,思明区,大专,B轮,"移动互联网,企业服务",118.192317,24.475824,全职,1-3年
97,3113808,测试工程师,杭州,2018-04-27 17:22:29,14.4,124596,央金所（杭州）科技有限公司,央金所（杭州）科技有限公司,50-150人,拱墅区,本科,不需要融资,"移动互联网,金融",119.993591,29.993662,全职,3-5年
98,3480216,软件测试,杭州,2018-04-27 15:39:55,14.8,2380,浙江执御信息技术有限公司,浙江执御信息技术有限公司,2000人以上,拱墅区,本科,B轮,"移动互联网,数据服务",120.11362,30.33344,全职,3-5年
99,3984232,测试主管,杭州,2018-04-27 09:23:40,17.0,20493,新移传媒,浙江新华移动传媒股份有限公司,50-150人,上城区,本科,不需要融资,移动互联网,120.15424,30.20754,全职,5-10年
100,4343047,测试工程师,厦门,2018-04-28 16:29:51,8.4,46961,厦门巨龙,厦门市巨龙信息科技有限公司,150-500人,湖里区,本科,不需要融资,"信息安全,数据服务",118.12255,24.52012,全职,1-3年
101,3837420,测试工程师,南京,2018-04-28 13:43:01,7.6,86307,先安科技,江苏先安科技有限公司,15-50人,雨花台区,本科,未融资,信息安全,,,全职,3-5年
102,4440627,测试工程师,上海,2018-04-28 11:31:32,12.0,23314,MXCHIP,上海庆科信息技术有限公司,150-500人,普陀区,本科,B轮,硬件,121.391865,31.258039,全职,3-5年
103,4432067,测试实习生,广州,2018-04-28 09:50:59,3.4,6921,机智云,广州机智云物联网科技有限公司,150-500人,天河区,本科,B轮,"移动互联网,硬件",113.322335,23.162105,全职,不限
104,4468237,测试工程师,济南,2018-04-27 10:22:33,8.8,25317,金证股份,深圳市金证科技股份有限公司,2000人以上,市中区,本科,上市公司,金融,117.001392,36.655611,全职,3-5年
105,3739732,测试工程师,上海,2018-04-28 14:47:13,14.0,128998,江苏亿科达,上海海万信息科技股份有限公司,500-2000人,浦东新区,本科,不需要融资,"移动互联网,金融",121.666906,31.238157,全职,3-5年
106,3805834,测试,北京,2018-04-08 17:44:14,19.0,1992,有利网,北京弘合柏基金融信息服务有限责任公司,500-2000人,朝阳区,本科,A轮,金融,116.456716,39.947706,全职,5-10年
107,3640226,性能测试工程师,北京,2018-04-30 10:29:27,21.0,28795,汽车头条,北京智阅网络科技有限公司,150-500人,朝阳区,本科,上市公司,"移动互联网,文化娱乐",0.0,0.0,全职,3-5年
108,4502263,腾讯测试工程师,北京,2018-04-29 16:30:11,10.0,179273,润杨金融,深圳市前海润杨金融服务有限公司,2000人以上,海淀区,本科,上市公司,"移动互联网,金融",116.306337,39.981802,全职,1-3年
109,4362890,测试工程师,厦门,2018-04-28 16:29:52,10.8,46961,厦门巨龙,厦门市巨龙信息科技有限公司,150-500人,湖里区,本科,不需要融资,"信息安全,数据服务",118.12255,24.52012,全职,1-3年
110,4387751,测试工程师,北京,2018-04-28 11:03:28,12.0,280319,YuFu,北京玉符飞扬科技有限公司,50-150人,朝阳区,本科,A轮,信息安全、移动互联网,0.0,0.0,全职,1-3年
111,4418368,测试组组长,杭州,2018-04-28 10:34:00,19.0,9689,绿漫科技,绿漫科技有限公司,50-150人,西湖区,本科,不需要融资,移动互联网,120.124783,30.277036,全职,5-10年
112,4495780,测试工程师,北京,2018-04-27 17:46:17,8.4,123070,零秒科技,北京零秒科技有限公司,15-50人,海淀区,本科,A轮,"移动互联网,企业服务",116.308446,40.055569,全职,1-3年
113,4158447,测试工程师,上海,2018-04-27 16:04:39,9.6,42418,坤亿科技,上海坤亿信息技术有限公司,50-150人,浦东新区,本科,不需要融资,"电子商务,企业服务",0.0,0.0,全职,1-3年
114,3888014,测试工程师,南宁,2018-04-26 16:42:52,10.8,239407,云宝宝,云宝宝大数据产业发展有限责任公司,50-150人,青秀区,本科,不需要融资,移动互联网,108.361801,22.808055,全职,3-5年
115,4380333,测试工程师,杭州,2018-04-26 09:19:21,10.8,31154,国鼎股份,国鼎文化科技产业发展股份有限公司,150-500人,西湖区,本科,A轮,"电子商务,金融",120.0703,30.291753,全职,1-3年
116,3036211,测试工程师,厦门,2018-04-28 16:05:04,6.8,84086,笨鸟社交,厦门笨鸟电子商务有限公司,150-500人,思明区,本科,B轮,企业服务,118.17196,24.477946,全职,1-3年
117,1125226,测试经理,北京,2018-04-28 13:39:11,14.4,25439,Udesk－企业级智能客服平台,北京沃丰时代数据科技有限公司,150-500人,西城区,本科,B轮,其他,116.356803,39.939558,全职,3-5年
118,4498481,测试工程师,上海,2018-04-28 11:50:51,24.8,201772,拓链,拓链（上海）科技有限公司,50-150人,虹口区,本科,不需要融资,移动互联网,121.486394,31.248034,全职,3-5年
119,4281318,测试工程师,北京,2018-04-27 21:08:52,19.0,82991,数美,北京数美时代科技有限公司,150-500人,朝阳区,本科,B轮,"企业服务,数据服务",116.465953,40.021083,全职,1-3年
120,3297404,测试工程师,上海,2018-04-28 15:59:34,10.4,128998,江苏亿科达,上海海万信息科技股份有限公司,500-2000人,浦东新区,大专,不需要融资,"移动互联网,金融",121.531974,31.224473,全职,3-5年
121,3662618,测试工程师,杭州,2018-04-27 16:45:16,4.8,148058,蓝联科技,浙江蓝联科技股份有限公司,150-500人,滨江区,大专,上市公司,"硬件,移动互联网",120.224077,30.208963,全职,1-3年
122,4489955,测试工程师,杭州,2018-04-26 17:58:07,10.8,69203,Daily2fun,杭州范娱科技有限公司,50-150人,西湖区,大专,A轮,游戏,120.127756,30.272298,全职,1-3年
123,3917166,测试工程师,北京,2018-04-28 18:27:07,14.0,3786,宜信,普信恒业科技发展（北京）有限公司,2000人以上,朝阳区,本科,上市公司,金融,116.48057,39.910341,全职,不限
124,4119128,测试工程师,青岛,2018-04-28 11:56:47,6.2,231666,山东海博科技,山东海博科技信息系统股份有限公司,50-150人,市北区,本科,未融资,"移动互联网,信息安全",117.020359,36.66853,全职,1-3年
125,4453704,测试开发工程师,上海,2018-04-28 09:39:51,19.6,36719,华云数据,无锡华云数据技术服务有限公司,500-2000人,杨浦区,本科,D轮及以上,"移动互联网,数据服务",121.51022,31.30582,全职,3-5年
126,2427454,测试工程师,杭州,2018-04-28 09:14:44,7.0,82406,高达软件,杭州高达软件系统股份有限公司,150-500人,余杭区,本科,上市公司,"移动互联网,电子商务",0.0,0.0,全职,1-3年
127,4013688,测试工程师,南京,2018-04-27 17:52:28,10.6,16831,武汉佰钧成技术有限公司,武汉佰钧成技术有限责任公司,2000人以上,建邺区,大专,不需要融资,移动互联网,118.731694,32.003552,全职,1-3年
128,4372561,软件测试,上海,2018-04-26 17:00:38,7.6,78102,网达软件,上海网达软件股份有限公司,500-2000人,浦东新区,本科,上市公司,"移动互联网,电子商务",121.592153,31.244662,全职,1-3年
129,4215861,测试工程师,厦门,2018-04-26 14:35:04,17.0,1561,Face++,北京旷视科技有限公司,500-2000人,集美区,本科,C轮,"移动互联网,硬件",118.06547,24.592928,全职,3-5年
130,3348052,测试工程师,南昌,2018-04-26 14:04:15,10.8,38932,钛马车联网,钛马信息网络技术有限公司,150-500人,南昌县,本科,B轮,"移动互联网,数据服务",115.876809,28.51852,全职,3-5年
131,4462869,测试工程师,北京,2018-04-23 10:36:17,12.0,110502,洋钱罐,北京瓴岳信息技术有限公司,150-500人,朝阳区,本科,不需要融资,"移动互联网,金融",116.460733,39.929643,全职,1-3年
132,4033322,测试工程师,广州,2018-04-28 18:40:13,8.2,309028,小树科技,广州小树网络科技有限公司,50-150人,天河区,大专,不需要融资,"移动互联网,数据服务",113.356072,23.16205,全职,1-3年
133,4405659,测试工程师,北京,2018-04-28 15:33:51,12.0,123763,斗米,北京斗米优聘科技发展有限公司,500-2000人,海淀区,本科,B轮,"移动互联网,O2O",116.298646,40.041487,全职,不限
134,4499735,测试工程师,北京,2018-04-28 15:19:54,20.2,221215,9-A-M,站坐（宁波）智能科技有限公司,15-50人,海淀区,本科,A轮,"数据服务,企业服务",116.30899,39.981654,全职,5-10年
135,3877992,测试工程师,上海,2018-04-28 14:47:14,9.0,128998,江苏亿科达,上海海万信息科技股份有限公司,500-2000人,徐汇区,大专,不需要融资,"移动互联网,金融",121.462683,31.1871,全职,1-3年
136,3972466,测试工程师,广州,2018-04-27 15:31:14,8.4,81576,卡宝宝,广州卡宝宝互联网金融信息服务股份有限公司,50-150人,萝岗区,本科,上市公司,"移动互联网,金融",112.993461,22.994261,全职,3-5年
137,3984226,测试经理,杭州,2018-04-27 09:23:40,17.0,20493,新移传媒,浙江新华移动传媒股份有限公司,50-150人,上城区,本科,不需要融资,移动互联网,120.15424,30.20754,全职,5-10年
138,4280227,测试工程师,杭州,2018-04-26 18:28:49,14.0,262633,杭州逐影,杭州逐影科技有限公司,15-50人,西湖区,本科,天使轮,移动互联网,120.096992,30.302562,全职,1年以下
139,4483815,测试工程师,杭州,2018-04-25 22:32:35,9.8,164634,百得思维,安徽百得思维信息科技有限公司,500-2000人,萧山区,本科,未融资,其他,,,全职,3-5年
140,4477704,测试工程师,北京,2018-04-25 10:25:23,12.0,110502,洋钱罐,北京瓴岳信息技术有限公司,150-500人,朝阳区,本科,不需要融资,"移动互联网,金融",116.460733,39.929643,全职,1-3年
141,2881844,测试工程师,上海,2018-04-28 16:36:06,11.2,143511,亿品,上海亿品贸易有限公司,150-500人,闸北区,大专,不需要融资,电子商务,121.446257,31.283504,全职,3-5年
142,4078627,系统测试工程师,北京,2018-04-28 14:53:19,17.0,126957,北京算云联科,北京算云联科科技有限公司,150-500人,海淀区,本科,不需要融资,"移动互联网,硬件",116.308144,40.045415,全职,5-10年
143,4446287,测试经理,北京,2018-04-28 13:39:11,22.8,25439,Udesk－企业级智能客服平台,北京沃丰时代数据科技有限公司,150-500人,西城区,本科,B轮,其他,116.357353,39.939211,全职,5-10年
144,3986231,测试工程师,北京,2018-04-28 12:08:35,6.8,150256,思享时代（北京）科技有限公司,思享时代（北京）科技有限公司,150-500人,朝阳区,本科,不需要融资,"移动互联网,社交网络",116.41135,39.969418,全职,1-3年
145,4125020,测试工程师,杭州,2018-04-28 10:14:32,10.4,58427,中国电信杭州政务基地,杭州天翼智慧城市科技有限公司,150-500人,西湖区,本科,不需要融资,其他,120.12131,30.27888,全职,3-5年
146,4497239,测试工程师,杭州,2018-04-28 10:02:46,6.2,28176,杭州新爵科技有限公司,杭州新爵科技有限公司,15-50人,西湖区,本科,天使轮,移动互联网,120.114315,30.285332,全职,1-3年
147,4362253,测试主管,北京,2018-04-27 17:51:15,21.0,43792,帮你玩,北京帮你玩科技有限公司,15-50人,朝阳区,大专,天使轮,移动互联网,0.0,0.0,全职,1-3年
148,3063071,测试工程师,北京,2018-04-27 17:46:50,12.0,43907,博云,苏州博纳讯动软件有限公司,150-500人,海淀区,本科,B轮,"移动互联网,企业服务",116.370929,39.968827,全职,3-5年
149,3597758,测试工程师,厦门,2018-04-24 17:52:17,8.4,19281,欢乐逛,厦门欢乐逛科技股份有限公司,150-500人,思明区,本科,上市公司,"电子商务,企业服务",118.19703,24.48833,全职,1-3年
150,3951715,测试工程师,上海,2018-04-27 13:15:11,9.6,128998,江苏亿科达,上海海万信息科技股份有限公司,500-2000人,徐汇区,本科,不需要融资,"移动互联网,金融",121.456306,31.18335,全职,1-3年
151,4454533,测试工程师,北京,2018-04-20 10:37:50,12.0,110502,洋钱罐,北京瓴岳信息技术有限公司,150-500人,朝阳区,本科,不需要融资,"移动互联网,金融",116.460733,39.929643,全职,1-3年
152,4500911,测试实习生,成都,2018-04-28 17:06:30,2.4,54687,路行通,成都路行通信息技术有限公司,500-2000人,高新区,大专,不需要融资,"移动互联网,生活服务",104.068512,30.552364,实习,应届毕业生
153,4020697,测试,上海,2018-04-28 14:31:41,9.6,130659,舟恩信息,上海舟恩信息技术有限公司,150-500人,徐汇区,大专,不需要融资,移动互联网,0.0,0.0,全职,1-3年
154,4027570,测试工程师,上海,2018-04-28 13:43:44,14.0,299620,Runx跑先体育传媒,上海答派体育文化发展有限公司,50-150人,闵行区,本科,不需要融资,"移动互联网,游戏",121.31577,31.201078,全职,3-5年
155,3189358,测试工程师,北京,2018-04-28 10:32:16,13.2,39959,央广新媒体,央广新媒体文化传媒（北京）有限公司,150-500人,丰台区,本科,不需要融资,"移动互联网,文化娱乐",115.99339,39.99426,全职,3-5年
156,4128895,测试工程师,北京,2018-04-28 09:30:36,19.0,27129,巧达数据,巧达科技（北京）有限公司,50-150人,海淀区,本科,B轮,"企业服务,数据服务",116.311797,39.983663,全职,3-5年
157,3099193,测试工程师,上海,2018-04-27 16:04:39,9.6,42418,坤亿科技,上海坤亿信息技术有限公司,50-150人,浦东新区,本科,不需要融资,"电子商务,企业服务",0.0,0.0,全职,1-3年
158,4382160,测试主管,上海,2018-04-27 13:37:08,9.6,221657,花动传媒,上海动搜网络科技有限公司,50-150人,闵行区,本科,B轮,电子商务,121.383855,31.175852,全职,3-5年
159,4281623,测试工程师,上海,2018-04-26 17:00:38,7.6,78102,网达软件,上海网达软件股份有限公司,500-2000人,浦东新区,本科,上市公司,"移动互联网,电子商务",121.592153,31.244662,全职,1-3年
160,4187584,测试工程师,北京,2018-04-26 11:29:01,13.4,257482,井立通,北京井立通科技有限公司,50-150人,石景山区,本科,不需要融资,"移动互联网,数据服务",116.200429,39.920849,全职,3-5年
161,4000343,测试工程师,贵阳,2018-04-26 10:04:28,4.4,160466,视达科,成都视达科信息技术有限公司,150-500人,观山湖区（金阳新区）,本科,上市公司,移动互联网,106.625545,26.631409,全职,1-3年
162,4501135,测试工程师,上海,2018-04-28 17:31:13,10.8,285600,Amino,上海互趣网络科技有限公司,50-150人,静安区,本科,B轮,"移动互联网,社交网络",121.445314,31.223493,全职,1年以下
163,4372743,测试工程师,北京,2018-04-28 13:39:12,9.0,25439,Udesk－企业级智能客服平台,北京沃丰时代数据科技有限公司,150-500人,西城区,本科,B轮,其他,116.357353,39.939211,全职,3-5年
164,4359366,测试工程师,北京,2018-04-28 10:35:25,5.8,128024,创至科技,上海创至计算机科技股份有限公司,150-500人,海淀区,本科,未融资,"信息安全,数据服务",0.0,0.0,全职,1-3年
165,3938376,测试工程师,上海,2018-04-27 13:15:10,9.6,128998,江苏亿科达,上海海万信息科技股份有限公司,500-2000人,浦东新区,本科,不需要融资,"移动互联网,金融",121.520653,31.233147,全职,3-5年
166,4448171,中高级测试,北京,2018-04-28 10:30:01,9.6,21567,安智,北京力天无限网络技术有限公司,150-500人,海淀区,本科,B轮,移动互联网,116.359972,40.039972,全职,1-3年
167,4252709,测试经理,上海,2018-04-28 09:51:02,21.0,14983,游族网络,上海游族信息技术有限公司,500-2000人,徐汇区,不限,上市公司,"移动互联网,游戏",39.897445,116.331398,全职,3-5年
168,4279376,测试工程师岗,杭州,2018-04-27 18:57:07,14.0,53654,上海安能聚创供应链管理有限公司,上海安能聚创供应链管理有限公司,2000人以上,萧山区,大专,D轮及以上,其他,120.253215,30.234213,全职,1-3年
169,3991611,测试经理,杭州,2018-04-27 09:23:40,17.0,20493,新移传媒,浙江新华移动传媒股份有限公司,50-150人,上城区,本科,不需要融资,移动互联网,120.15424,30.20754,全职,5-10年
170,2888734,测试工程师,厦门,2018-04-24 14:49:37,7.6,21089,叮咚钱包,富银金融信息服务（北京）有限公司,50-150人,思明区,大专,不需要融资,金融,118.197111,24.488033,全职,3-5年
171,4308876,测试工程师,杭州,2018-04-28 14:07:39,9.0,16831,武汉佰钧成技术有限公司,武汉佰钧成技术有限责任公司,2000人以上,滨江区,本科,不需要融资,移动互联网,0.0,0.0,全职,1-3年
172,1769745,测试工程师,南京,2018-04-28 11:24:34,10.8,53992,苏宁易购,南京苏宁软件技术有限公司,2000人以上,玄武区,本科,上市公司,"O2O,移动互联网",118.89237019,32.08490014,全职,3-5年
173,2811558,测试开发工程师,杭州,2018-04-28 11:22:16,12.0,9551,杭州悠可,杭州悠可化妆品有限公司,500-2000人,江干区,本科,上市公司,电子商务,119.993591,29.993662,全职,1-3年
174,4297526,测试主管,上海,2018-04-28 09:58:06,19.0,2380,浙江执御信息技术有限公司,浙江执御信息技术有限公司,2000人以上,长宁区,本科,B轮,"移动互联网,数据服务",121.35383,31.227761,全职,5-10年
175,2730189,测试工程师,贵阳,2018-04-27 14:40:21,7.6,146756,贵州电商云,贵州电子商务云运营有限责任公司,50-150人,观山湖区（金阳新区）,本科,未融资,"电子商务,数据服务",106.644979,26.617529,全职,1-3年
176,4489648,测试工程师,上海,2018-04-26 17:30:36,10.8,25317,金证股份,深圳市金证科技股份有限公司,2000人以上,浦东新区,本科,上市公司,金融,0.0,0.0,全职,1-3年
177,3432274,测试工程师,杭州,2018-04-26 14:30:16,10.8,32768,上上签,杭州尚尚签网络科技有限公司,150-500人,西湖区,本科,B轮,"移动互联网,企业服务",120.123126,30.280719,全职,1-3年
178,3169812,测试工程师,杭州,2018-04-20 16:48:00,10.8,162375,circle,杭州雍享网络科技有限公司,15-50人,江干区,本科,A轮,"电子商务,企业服务",120.217704,30.290375,全职,1-3年
179,3982647,测试经理,北京,2018-04-29 19:27:42,14.0,34200,健康有益,北京健康有益科技有限公司,50-150人,朝阳区,本科,A轮,"移动互联网,医疗健康",116.481014,39.989813,全职,5-10年
180,4240538,性能测试,上海,2018-04-28 15:59:33,9.8,128998,江苏亿科达,上海海万信息科技股份有限公司,500-2000人,徐汇区,大专,不需要融资,"移动互联网,金融",121.456306,31.18335,全职,3-5年
181,3189620,测试,上海,2018-04-28 16:08:10,12.0,144037,眸事网,上海脉豪商务信息咨询有限公司,150-500人,虹口区,不限,天使轮,"移动互联网,企业服务",120.993464,30.994061,全职,3-5年
182,2403153,软件测试工程师,杭州,2018-04-28 11:22:15,17.0,9551,杭州悠可,杭州悠可化妆品有限公司,500-2000人,江干区,本科,上市公司,电子商务,119.993591,29.993662,全职,3-5年
183,2862227,测试开发工程师,无锡,2018-04-28 09:39:51,8.8,36719,华云数据,无锡华云数据技术服务有限公司,500-2000人,滨湖区,大专,D轮及以上,"移动互联网,数据服务",120.27057,31.4684799,全职,3-5年
184,4116420,软件测试工程师,珠海,2018-04-28 08:52:39,11.2,66311,方付通,上海方付通商务服务有限公司,150-500人,香洲区,本科,不需要融资,"移动互联网,金融",113.570081,22.245251,全职,3-5年
185,3968707,测试工程师,杭州,2018-04-27 20:26:44,19.0,63847,垂衣,杭州垂衣网络科技有限公司,50-150人,滨江区,本科,A轮,"电子商务,数据服务",120.18125,30.185411,全职,3-5年
186,4427256,软件测试工程师,厦门,2018-04-27 09:30:48,5.8,147118,德医互联,厦门市德医互联科技有限公司,15-50人,集美区,本科,A轮,医疗健康,118.052073,24.607547,全职,1-3年
187,3440161,测试工程师,杭州,2018-04-25 13:58:45,7.0,225665,惠龙易通,惠龙易通国际物流股份有限公司,150-500人,西湖区,本科,A轮,"移动互联网,电子商务",120.146072,30.279249,全职,1-3年
188,4054821,测试工程师,上海,2018-04-23 17:15:45,12.0,72427,上海青客,上海青客公共租赁住房租赁经营管理股份有限公司,500-2000人,徐汇区,大专,C轮,"移动互联网,O2O",121.45873,31.18618985,全职,3-5年
189,3559778,软件测试,郑州,2018-04-18 11:02:59,6.8,80564,UU跑腿,郑州时空隧道信息技术有限公司,50-150人,金水区,大专,A轮,"移动互联网,O2O",113.730034,34.778295,全职,3-5年
190,4498611,测试工程师,杭州,2018-04-28 12:06:28,17.8,29824,众安保险,众安在线财产保险股份有限公司,2000人以上,西湖区,本科,上市公司,金融,120.124783,30.277036,全职,3-5年
191,4274754,测试工程师,上海,2018-04-28 11:31:32,5.8,23314,MXCHIP,上海庆科信息技术有限公司,150-500人,普陀区,不限,B轮,硬件,121.391865,31.258039,全职,不限
192,3912359,测试工程师（18届毕业生）,南京,2018-04-28 10:58:57,7.6,53992,苏宁易购,南京苏宁软件技术有限公司,2000人以上,玄武区,本科,上市公司,"O2O,移动互联网",0.0,0.0,全职,应届毕业生
193,2043101,测试工程师,北京,2018-04-28 10:57:27,19.0,53137,家园网,家园网络科技有限公司,2000人以上,东城区,本科,不需要融资,O2O,116.453324,39.898689,全职,5-10年
194,4189350,测试专家J10553,杭州,2018-04-28 09:37:43,19.0,33618,微贷网,微贷（杭州）金融信息服务有限公司,2000人以上,江干区,本科,C轮,金融,120.210795,30.241803,全职,5-10年
195,3892698,测试工程师,上海,2018-04-27 13:15:10,9.0,128998,江苏亿科达,上海海万信息科技股份有限公司,500-2000人,浦东新区,大专,不需要融资,"移动互联网,金融",121.628735,31.209425,全职,1-3年
196,3887164,测试开发,郑州,2018-04-27 16:36:18,17.0,57353,中移在线服务有限公司,中移在线服务有限公司,2000人以上,高新区,本科,不需要融资,移动互联网,39.897445,116.331398,全职,3-5年
197,4454181,测试工程师,成都,2018-04-27 16:24:20,8.4,45476,中邮速递易,成都我来啦网格信息技术有限公司,2000人以上,金牛区,本科,上市公司,"移动互联网,生活服务",103.992174,30.714086,全职,3-5年
198,4447463,测试工程师,厦门,2018-04-27 13:33:29,7.0,129496,上海豆子网络科技有限公司,上海豆子网络科技有限公司,150-500人,思明区,不限,不需要融资,游戏,0.0,0.0,全职,不限
199,293265,测试工程师,厦门,2018-04-27 11:34:49,8.4,21758,多快好省,厦门多快好省网络科技有限公司,50-150人,思明区,本科,不需要融资,金融,,,全职,1-3年
200,4052323,测试工程师,北京,2018-04-27 10:38:35,16.4,50886,侃家,北京侃家科技有限公司,500-2000人,东城区,本科,B轮,O2O,116.4337,39.92144,全职,3-5年
201,3165939,测试工程师,惠州,2018-04-26 09:09:19,12.0,58587,TCL金融控股集团,TCL集团财务有限公司,150-500人,惠城区,本科,未融资,金融,114.35455028,23.02979982,全职,1-3年
202,3202851,测试工程师,杭州,2018-04-25 09:23:12,14.0,93510,佐助金服,浙江佐助金融信息服务有限公司,50-150人,江干区,本科,A轮,"移动互联网,金融",120.214369,30.254125,全职,3-5年
203,4393268,测试工程师,北京,2018-04-20 14:42:56,14.0,23291,美图公司,厦门美图之家科技有限公司,500-2000人,海淀区,本科,上市公司,"移动互联网,硬件",116.338758,39.991581,全职,1-3年
204,4247060,测试工程师,杭州,2018-04-30 07:57:15,10.8,57350,微拍堂,杭州微拍堂文化创意有限公司,150-500人,西湖区,大专,A轮,移动互联网,120.12658,30.2784,全职,1-3年
205,3921860,软件测试见习生,重庆,2018-04-29 15:03:39,2.8,33472,诺怀软件,重庆诺怀软件有限公司,50-150人,九龙坡区,本科,未融资,企业服务,106.48491,29.53202,实习,应届毕业生
206,3809372,广州--测试,广州,2018-04-28 17:35:14,9.8,16831,武汉佰钧成技术有限公司,武汉佰钧成技术有限责任公司,2000人以上,海珠区,本科,不需要融资,移动互联网,0.0,0.0,全职,1-3年
207,4259852,测试工程师,杭州,2018-04-28 17:02:15,9.4,200592,集盒商城,杭州集盒网络技术有限公司,50-150人,西湖区,本科,未融资,"移动互联网,电子商务",120.088663,30.289113,全职,1-3年
208,3722081,测试工程师,上海,2018-04-28 16:30:11,12.0,1860,薄荷,上海薄荷信息科技有限公司,50-150人,浦东新区,本科,B轮,"移动互联网,电子商务",0.0,0.0,全职,1-3年
209,4228446,测试工程师,上海,2018-04-28 14:33:27,6.8,49186,微屏游戏,微屏软件科技（上海）有限公司,150-500人,浦东新区,本科,B轮,游戏,121.52899,31.197626,全职,1-3年
210,3998760,测试工程师,福州,2018-04-28 10:07:38,8.2,141672,合诚,福建合诚信息科技有限公司,50-150人,鼓楼区,本科,未融资,"移动互联网,金融",119.274024,26.076922,全职,3-5年
211,4485736,测试工程师,北京,2018-04-27 19:11:46,17.0,82991,数美,北京数美时代科技有限公司,150-500人,朝阳区,本科,B轮,"企业服务,数据服务",116.465999,40.021827,全职,1-3年
212,4390088,测试工程师,北京,2018-04-27 17:17:32,14.0,223699,花韵在线,北京花韵在线科技有限公司,50-150人,海淀区,本科,B轮,"移动互联网,社交网络",116.349106,39.976008,全职,1-3年
213,4410814,测试,芜湖,2018-04-27 12:44:50,6.2,173551,芜湖云枫,芜湖云枫信息技术有限公司,15-50人,弋江区,不限,A轮,"移动互联网,数据服务",118.363191,31.271206,全职,1-3年
214,4385186,测试工程师,佛山,2018-04-26 17:56:52,6.2,5746,开科唯识,北京开科唯识技术有限公司,500-2000人,南海区,本科,未融资,金融,113.15044,23.060672,全职,1-3年
215,3432255,测试工程师,杭州,2018-04-26 17:33:09,16.4,10359,酷家乐,杭州群核信息技术有限公司,500-2000人,拱墅区,不限,D轮及以上,移动互联网,120.108647,30.293154,全职,不限
216,4403662,测试工程师,上海,2018-04-26 14:16:08,12.0,22481,问卷网@爱调研,上海众言网络科技有限公司,150-500人,徐汇区,本科,B轮,移动互联网,121.42788,31.19456,全职,1-3年
217,4361664,测试工程师,上海,2018-04-28 15:59:33,9.8,128998,江苏亿科达,上海海万信息科技股份有限公司,500-2000人,徐汇区,本科,不需要融资,"移动互联网,金融",121.457162,31.183764,全职,3-5年
218,4084532,测试专家,南京,2018-04-28 11:00:48,42.0,53992,苏宁易购,南京苏宁软件技术有限公司,2000人以上,玄武区,本科,上市公司,"O2O,移动互联网",0.0,0.0,全职,5-10年
219,3189589,测试工程师,北京,2018-04-28 09:54:53,14.0,97399,Trusfort芯盾时代,北京芯盾时代科技有限公司,50-150人,海淀区,本科,B轮,"移动互联网,信息安全",115.99339,39.99426,全职,3-5年
220,3953998,测试开发工程师,上海,2018-04-28 09:50:59,9.6,14983,游族网络,上海游族信息技术有限公司,500-2000人,徐汇区,不限,上市公司,"移动互联网,游戏",39.897445,116.331398,全职,1-3年
221,2770610,测试工程师,杭州,2018-04-27 10:27:35,12.0,13163,个推,浙江每日互动网络科技股份有限公司,150-500人,西湖区,不限,D轮及以上,移动互联网,120.1115701,30.29005073,全职,不限
222,1486140,测试工程师,杭州,2018-04-25 14:48:42,9.2,69641,健培,杭州健培科技有限公司,150-500人,江干区,大专,不需要融资,"移动互联网,医疗健康",120.34955407,30.3146269,全职,1-3年
223,4418467,测试实习生,上海,2018-04-23 12:58:10,3.4,55405,店达信息,上海店达信息技术有限公司,500-2000人,浦东新区,本科,B轮,"电子商务,O2O",121.584877,31.193497,实习,不限
224,4452593,测试工程师,杭州,2018-04-19 18:18:38,17.0,16831,武汉佰钧成技术有限公司,武汉佰钧成技术有限责任公司,2000人以上,西湖区,本科,不需要融资,移动互联网,,,全职,3-5年
225,4125735,测试经理-00652,北京,2018-04-28 16:23:33,17.0,8332,任子行,任子行网络技术股份有限公司,500-2000人,海淀区,本科,上市公司,移动互联网,116.154124,40.065752,全职,5-10年
226,2360734,测试工程师,武汉,2018-04-28 16:14:09,8.4,148027,悠然一指,武汉悠然一指网络有限公司,150-500人,东湖新技术开发区,本科,不需要融资,"移动互联网,社交网络",114.398481,30.506802,全职,3-5年
227,4115711,测试工程师,厦门,2018-04-28 15:03:47,12.0,19313,网宿科技,网宿科技股份有限公司北京分公司,2000人以上,思明区,本科,上市公司,移动互联网,117.993493,23.994066,全职,3-5年
228,4474263,测试工程师,北京,2018-04-28 10:57:31,12.0,53137,家园网,家园网络科技有限公司,2000人以上,东城区,本科,不需要融资,O2O,115.99339,39.99426,全职,1-3年
229,4210579,测试工程师,上海,2018-04-28 10:08:34,9.6,43378,趣医网,上海趣医网络科技有限公司,500-2000人,闵行区,本科,B轮,"移动互联网,医疗健康",121.43102,31.01759985,全职,1-3年
230,3964460,测试工程师,杭州,2018-04-28 10:04:03,9.6,148986,首格网络,上海首格网络科技有限公司,50-150人,西湖区,大专,A轮,"移动互联网,医疗健康",120.140604,30.286446,全职,3-5年
231,4111653,2018校招-测试工程师,杭州,2018-04-28 09:37:40,10.8,8169,点我达,点我达网络科技有限公司,500-2000人,下城区,硕士,D轮及以上,O2O,120.16579198,30.31569396,全职,应届毕业生
232,4481505,软件测试（研发）,赣州,2018-04-28 08:45:44,3.4,63720,飞救医疗科技（北京）有限公司,飞救医疗科技（北京）有限公司,150-500人,章贡区,大专,A轮,移动互联网,114.921171,25.817816,全职,1年以下
233,2247419,测试,上海,2018-04-27 14:53:24,7.2,24995,泛微,上海泛微网络科技股份有限公司,2000人以上,,大专,上市公司,"移动互联网,企业服务",,,全职,1-3年
234,3935061,测试工程师,杭州,2018-04-27 10:21:54,7.8,83552,沃趣科技,杭州沃趣科技股份有限公司,50-150人,滨江区,大专,上市公司,"企业服务,数据服务",120.17566,30.18501,全职,1-3年
235,4479349,测试工程师,北京,2018-04-26 19:31:32,14.0,82991,数美,北京数美时代科技有限公司,150-500人,朝阳区,本科,B轮,"企业服务,数据服务",116.465953,40.021083,全职,1-3年
236,4148487,测试,常州,2018-04-26 09:11:12,3.8,201599,牛快计,常州贝财信息技术有限公司,15-50人,新北区,大专,A轮,移动互联网,119.968075,31.818155,全职,1年以下
237,3324455,测试工程师,苏州,2018-04-25 13:58:43,7.0,225665,惠龙易通,惠龙易通国际物流股份有限公司,150-500人,,大专,A轮,"移动互联网,电子商务",120.980737,31.385598,全职,1-3年
238,4228172,测试工程师,上海,2018-04-25 13:34:21,6.8,49186,微屏游戏,微屏软件科技（上海）有限公司,150-500人,浦东新区,本科,B轮,游戏,121.631886,31.225187,全职,1-3年
239,2933185,测试工程师,北京,2018-04-18 13:13:55,12.0,124192,闲徕互娱,北京闲徕互娱网络科技有限公司,500-2000人,朝阳区,本科,不需要融资,游戏,116.414548,40.043708,全职,5-10年
240,4430050,测试工程师,北京,2018-04-28 19:06:33,19.0,202067,优信集团,优舫（北京）信息科技有限公司,2000人以上,朝阳区,本科,D轮及以上,"电子商务,移动互联网",116.481049,39.996796,全职,3-5年
241,2528075,搜狗测试-平台开发工程师,北京,2018-04-28 10:39:29,21.0,1537,搜狗,北京搜狗科技发展有限公司,2000人以上,海淀区,本科,上市公司,"移动互联网,数据服务",116.33254,39.99366006,全职,1-3年
242,4497022,测试工程师,上海,2018-04-28 09:44:05,12.0,72427,上海青客,上海青客公共租赁住房租赁经营管理股份有限公司,500-2000人,徐汇区,本科,C轮,"移动互联网,O2O",121.458872,31.186156,全职,3-5年
243,4184821,测试工程师,广州,2018-04-28 09:22:02,9.0,97045,合利宝,广州合利宝支付科技有限公司,150-500人,天河区,本科,上市公司,"移动互联网,金融",113.326316,23.124065,全职,1-3年
244,4125485,测试经理,上海,2018-04-27 18:03:26,12.0,82712,缔安,上海缔安科技股份有限公司,50-150人,长宁区,本科,B轮,移动互联网,121.356187,31.220756,全职,3-5年
245,3030417,测试工程师,杭州,2018-04-27 14:44:16,10.8,18655,大搜车,杭州大搜车汽车服务有限公司,500-2000人,余杭区,本科,D轮及以上,"移动互联网,O2O",120.03182,30.24372,全职,1-3年
246,3671150,资深测试/测试专家,杭州,2018-04-26 17:33:07,20.8,10359,酷家乐,杭州群核信息技术有限公司,500-2000人,拱墅区,本科,D轮及以上,移动互联网,120.108647,30.293154,全职,5-10年
247,3887785,测试工程师,东莞,2018-04-21 09:23:57,4.8,289695,泰克威科技,东莞泰克威科技有限公司,500-2000人,东莞市市辖区,大专,未融资,硬件,114.074259,22.991975,全职,不限
248,4273780,测试工程师,上海,2018-04-30 07:46:31,12.0,128998,江苏亿科达,上海海万信息科技股份有限公司,500-2000人,静安区,大专,不需要融资,"移动互联网,金融",121.458959,31.266934,全职,3-5年
249,3346909,测试工程师,北京,2018-04-28 16:40:01,12.6,210070,深睿医疗,北京深睿博联科技有限责任公司,50-150人,海淀区,本科,B轮,"移动互联网,医疗健康",116.30899,39.981654,全职,1-3年
250,3905769,测试工程师,深圳,2018-04-28 15:31:46,12.4,71639,杉岩数据,深圳市杉岩数据技术有限公司,15-50人,南山区,本科,A轮,"企业服务,数据服务",113.970124,22.583821,全职,3-5年
251,2246432,测试工程师,杭州,2018-04-28 15:30:22,10.8,14945,销冠科技,销冠网络科技有限公司,500-2000人,,本科,B轮,移动互联网,120.17713948,30.21697005,全职,3-5年
252,4246128,测试工程师,广州,2018-04-28 15:25:13,5.6,130007,佳禾科技,广州佳禾科技有限公司,50-150人,天河区,大专,不需要融资,"移动互联网,企业服务",113.339888,23.138294,全职,1-3年
253,3487082,安全性测试工程师,北京,2018-04-28 14:53:20,19.0,126957,北京算云联科,北京算云联科科技有限公司,150-500人,海淀区,本科,不需要融资,"移动互联网,硬件",116.308144,40.045415,全职,5-10年
254,4375435,测试工程师,上海,2018-04-28 09:51:03,17.0,14983,游族网络,上海游族信息技术有限公司,500-2000人,徐汇区,不限,上市公司,"移动互联网,游戏",39.897445,116.331398,全职,3-5年
255,2852834,软件测试工程师,杭州,2018-04-27 18:27:52,9.6,23592,讯盟,杭州讯盟科技有限公司,150-500人,西湖区,本科,A轮,移动互联网,119.993591,29.993662,全职,1-3年
256,3829908,数通测试工程师,南京,2018-04-27 15:21:29,11.2,16831,武汉佰钧成技术有限公司,武汉佰钧成技术有限责任公司,2000人以上,雨花台区,本科,不需要融资,移动互联网,118.767867,31.986663,全职,3-5年
257,3629746,测试工程师,杭州,2018-04-27 14:46:35,14.0,34315,涂鸦智能,杭州涂鸦信息技术有限公司,150-500人,西湖区,本科,B轮,"移动互联网,硬件",119.993591,29.993662,全职,3-5年
258,2735081,测试工程师,杭州,2018-04-27 14:38:16,10.8,35189,诚智天扬,杭州诚智天扬科技有限公司,50-150人,西湖区,本科,未融资,移动互联网,120.124776,30.283041,全职,1-3年
259,4271547,测试工程师,杭州,2018-04-27 13:28:25,14.0,53080,有贝,有贝网络科技（杭州）有限公司,50-150人,滨江区,大专,不需要融资,"移动互联网,金融",120.20019,30.191665,全职,1-3年
260,3973054,测试,杭州,2018-04-25 10:19:34,10.8,152584,空岛,杭州空岛科技有限公司,15-50人,余杭区,大专,不需要融资,"移动互联网,企业服务",119.996181,30.275849,全职,3-5年
261,3510264,测试工程师,北京,2018-04-23 18:20:26,11.4,153147,PINTEC,思凯思特（北京）科技有限公司,500-2000人,朝阳区,本科,C轮,"移动互联网,金融",116.459221,39.933068,全职,1-3年
262,4266695,测试工程师,杭州,2018-04-30 09:05:54,16.0,275288,子不语,浙江子不语电子商务有限公司,500-2000人,江干区,本科,未融资,"电子商务,移动互联网",120.308876,30.406,全职,3-5年
263,4502267,软件测试工程师（重庆）,重庆,2018-04-29 16:35:00,9.8,164634,百得思维,安徽百得思维信息科技有限公司,500-2000人,南岸区,大专,未融资,其他,106.637338,29.480069,全职,3-5年
264,4101964,测试工程师,广州,2018-04-28 18:41:17,5.8,116939,油菜花科技,广州油菜花信息科技有限公司,50-150人,番禺区,大专,未融资,"移动互联网,文化娱乐",113.37547,22.96988,全职,1-3年
265,4362894,测试开发工程师,厦门,2018-04-28 16:29:52,10.8,46961,厦门巨龙,厦门市巨龙信息科技有限公司,150-500人,湖里区,本科,不需要融资,"信息安全,数据服务",118.12255,24.52012,全职,1-3年
266,4295906,测试工程师,上海,2018-04-28 16:08:53,10.8,205106,清鹤科技,上海清鹤科技股份有限公司,150-500人,浦东新区,本科,上市公司,移动互联网,121.62628,31.212739,全职,1-3年
267,4422073,测试开发工程师,广州,2018-04-28 13:57:40,12.4,200499,一智通,广州一智通供应链管理有限公司,150-500人,天河区,本科,B轮,企业服务,113.320471,23.162406,全职,3-5年
268,4350616,测试工程师,北京,2018-04-28 12:36:18,15.2,81144,7号电单车,北京百和光信息技术有限公司,150-500人,朝阳区,本科,C轮,"O2O,生活服务",116.387477,40.000236,全职,3-5年
269,2347027,中级测试工程师,杭州,2018-04-28 11:30:18,10.4,45150,杭州施强教育科技有限公司,杭州施强网络科技有限公司,2000人以上,滨江区,大专,不需要融资,"移动互联网,教育",120.18254134,30.18872037,全职,1-3年
270,3815699,测试工程师,杭州,2018-04-28 10:15:16,12.0,26564,贝贝网,杭州贝购科技有限公司,500-2000人,江干区,本科,D轮及以上,电子商务,0.0,0.0,全职,1-3年
271,4014801,性能测试工程师,广州,2018-04-28 09:39:42,13.2,37398,亚美,广州亚美信息科技有限公司,150-500人,天河区,本科,不需要融资,移动互联网,113.347222,23.143984,全职,1-3年
272,4371245,测试工程师,上海,2018-04-28 09:28:51,6.2,122328,挚极科技,上海挚极信息科技有限公司,150-500人,嘉定区,本科,不需要融资,"移动互联网,硬件",121.16784,31.281747,全职,1-3年
273,3410928,测试工程师,广州,2018-04-27 18:28:09,10.8,30162,公瑾,北京公瑾科技有限公司广州分公司,500-2000人,天河区,本科,B轮,移动互联网,0.0,0.0,全职,3-5年
274,4106188,测试经理,郑州,2018-04-27 18:07:10,12.0,116333,象聚集团,河南象聚实业有限公司,500-2000人,高新区,大专,不需要融资,"移动互联网,金融",113.566392,34.817257,全职,5-10年
275,2473298,测试工程师,杭州,2018-04-27 09:48:37,21.0,2380,浙江执御信息技术有限公司,浙江执御信息技术有限公司,2000人以上,拱墅区,本科,B轮,"移动互联网,数据服务",120.11362,30.33344,全职,3-5年
276,4478958,智能支付-测试工程师,北京,2018-04-26 15:27:42,32.8,50702,美团点评,北京三快在线科技有限公司,2000人以上,朝阳区,本科,D轮及以上,"移动互联网,O2O",0.0,0.0,全职,3-5年
277,3451831,测试工程师,杭州,2018-04-16 17:23:38,11.2,234612,SOKA足球,杭州校源科技有限公司,15-50人,余杭区,本科,A轮,"移动互联网,文化娱乐",120.004,30.292024,全职,1-3年
278,4500987,测试主管,广州,2018-04-28 17:14:36,12.0,107074,云美工坊,深圳市云美工坊科技有限公司,150-500人,越秀区,本科,不需要融资,"硬件,移动互联网",113.266862,23.130995,全职,3-5年
279,4168107,测试工程师,广州,2018-04-28 10:46:28,7.0,61875,设计院,广东省电信规划设计院有限公司,2000人以上,天河区,本科,上市公司,"移动互联网,金融",113.357459,23.135155,全职,1-3年
280,1173575,测试工程师,杭州,2018-04-28 10:44:42,11.2,93172,聚励云机械,浙江聚励云机械科技有限公司,150-500人,余杭区,大专,B轮,"移动互联网,其他",120.016598,30.280384,全职,1-3年
281,3684704,测试工程师,上海,2018-04-28 10:25:26,18.2,26250,musical.ly,蜜柚网络科技（上海）有限公司,150-500人,黄浦区,本科,不需要融资,"社交网络,文化娱乐",121.99341,30.994275,全职,1-3年
282,3760850,测试工程师,北京,2018-04-28 10:21:55,7.6,51952,信达天下,北京信达天下科技有限公司,50-150人,西城区,本科,A轮,移动互联网,116.372541,39.911383,全职,1-3年
283,4482219,测试开发工程师,郑州,2018-04-27 16:36:18,14.0,57353,中移在线服务有限公司,中移在线服务有限公司,2000人以上,高新区,本科,不需要融资,移动互联网,113.539949,34.804757,全职,3-5年
284,4489672,测试工程师,杭州,2018-04-26 17:32:32,8.2,164634,百得思维,安徽百得思维信息科技有限公司,500-2000人,西湖区,本科,未融资,其他,,,全职,3-5年
285,3364256,测试工程师,杭州,2018-04-25 17:56:52,16.0,23592,讯盟,杭州讯盟科技有限公司,150-500人,西湖区,本科,A轮,移动互联网,120.068866,30.281734,全职,3-5年
286,3273079,测试工程师,广州,2018-04-23 23:51:30,4.8,70967,移步到微,广州三尺信息科技有限公司,15-50人,天河区,本科,A轮,"移动互联网,企业服务",113.32081,23.16259,全职,应届毕业生
287,4435041,测试工程师,福州,2018-04-17 15:20:48,14.0,222172,RulerTech然诺,武汉然诺管理咨询有限公司,15-50人,马尾区,本科,天使轮,"移动互联网,企业服务",119.45804,25.993485,全职,3-5年
288,3934915,游戏测试/QA,上海,2018-04-28 15:49:51,7.0,234804,聪盛网络,上海聪盛网络科技有限公司,50-150人,闵行区,大专,不需要融资,"游戏,移动互联网",121.381709,31.112813,全职,1-3年
289,3934288,测试,上海,2018-04-28 14:31:40,11.4,130659,舟恩信息,上海舟恩信息技术有限公司,150-500人,徐汇区,大专,不需要融资,移动互联网,121.462683,31.1871,全职,3-5年
290,4370858,测试工程师,广州,2018-04-28 14:10:07,10.8,215697,康乐富,广州康乐富健康管家有限公司,150-500人,天河区,不限,不需要融资,"医疗健康,生活服务",113.346094,23.169918,全职,3-5年
291,4375369,测试工程师,杭州,2018-04-28 14:06:57,21.0,135727,曹操专车,杭州优行科技有限公司,500-2000人,滨江区,本科,未融资,"移动互联网,O2O",120.21795,30.2081,全职,3-5年
292,4469170,测试工程师,上海,2018-04-28 11:53:49,8.4,44274,旻瑞信息,上海旻瑞信息技术有限公司,50-150人,长宁区,本科,未融资,企业服务、移动互联网,121.41794,31.21815,全职,1-3年
293,2049049,测试,上海,2018-04-27 14:53:26,6.8,24995,泛微,上海泛微网络科技股份有限公司,2000人以上,,本科,上市公司,"移动互联网,企业服务",,,全职,1-3年
294,4119670,测试专家（上海）,上海,2018-04-26 17:33:08,28.0,10359,酷家乐,杭州群核信息技术有限公司,500-2000人,长宁区,本科,D轮及以上,移动互联网,121.422447,31.196591,全职,5-10年
295,4336913,初级测试工程师,上海,2018-04-30 07:46:09,6.8,128998,江苏亿科达,上海海万信息科技股份有限公司,500-2000人,静安区,大专,不需要融资,"移动互联网,金融",121.458959,31.266934,全职,1-3年
296,3825956,测试总监,北京,2018-04-29 22:01:23,38.0,7292,畅聊天下,北京畅聊天下科技有限公司,150-500人,海淀区,本科,B轮,移动互联网,116.308144,40.045415,全职,5-10年
297,4245149,测试工程师,杭州,2018-04-29 15:58:45,9.8,164634,百得思维,安徽百得思维信息科技有限公司,500-2000人,萧山区,本科,未融资,其他,120.266919,30.200759,全职,1-3年
298,4354226,测试工程师,杭州,2018-04-29 12:18:49,5.4,164250,数客,杭州市数客科技有限公司,15-50人,下沙,本科,不需要融资,移动互联网,120.322814,30.311475,全职,1-3年
299,4208875,测试工程师,杭州,2018-04-28 18:17:04,9.6,37818,万商汇,浙江万商汇网络科技有限公司,50-150人,萧山区,大专,A轮,电子商务,120.245446,30.238378,全职,1-3年
300,2148769,测试,上海,2018-04-27 14:53:24,6.8,24995,泛微,上海泛微网络科技股份有限公司,2000人以上,,本科,上市公司,"移动互联网,企业服务",121.48490037,31.176800071,全职,1-3年
301,4501048,测试实习生,上海,2018-04-28 17:20:43,4.8,118633,叶道科技,上海叶道科技有限公司,50-150人,徐汇区,本科,A轮,"移动互联网,电子商务",121.405364,31.164308,实习,应届毕业生
302,4261216,QA测试工程师,广州,2018-04-28 14:18:45,7.0,97897,卓游科技,广州卓游信息科技有限公司,50-150人,海珠区,本科,不需要融资,"移动互联网,游戏",0.0,0.0,全职,不限
303,3426630,测试实习生,北京,2018-04-28 13:47:58,3.8,236680,豆果美食,北京豆果信息技术有限公司,50-150人,东城区,本科,C轮,"移动互联网,社交网络",116.432736,39.920948,实习,不限
304,4496396,测试工程师,广州,2018-04-27 19:36:48,9.8,142626,CLPS,上海华钦信息科技股份有限公司,500-2000人,天河区,本科,未融资,"数据服务,金融",113.332464,23.134217,全职,1-3年
305,4261450,测试实习,上海,2018-04-27 18:03:26,2.8,82712,缔安,上海缔安科技股份有限公司,50-150人,长宁区,不限,B轮,移动互联网,121.356187,31.220756,全职,应届毕业生
306,3635840,测试工程师,上海,2018-04-27 16:28:06,12.0,43907,博云,苏州博纳讯动软件有限公司,150-500人,浦东新区,本科,B轮,"移动互联网,企业服务",121.663219,31.23361,全职,3-5年
307,4451475,测试工程师,北京,2018-04-26 13:35:00,16.8,190751,北京方源,北京方源房地产咨询服务有限公司,500-2000人,海淀区,本科,不需要融资,其他,116.305514,40.040202,全职,1-3年
308,3167159,测试工程师,广州,2018-04-26 12:08:50,10.8,207837,凯晟科技,广州凯晟信息科技有限公司,50-150人,天河区,本科,不需要融资,"移动互联网,企业服务",113.344334,23.186133,全职,3-5年
309,4251333,测试工程师,北京,2018-04-25 15:40:38,7.6,29770,亿阳信通,亿阳信通股份有限公司北京分公司,2000人以上,海淀区,本科,上市公司,"移动互联网,数据服务",116.220688,39.956414,全职,3-5年
310,3603723,测试,长沙,2018-04-16 16:21:43,3.8,119532,湖南红手指,湖南红手指信息技术有限公司,50-150人,雨花区,不限,A轮,移动互联网,112.99539,28.142888,全职,1年以下
311,4479571,软件测试工程师,保定,2018-04-28 17:05:59,5.6,288177,哈弗租赁,哈弗汽车租赁有限公司,50-150人,南市区,大专,不需要融资,移动互联网,115.465603,38.816119,全职,不限
312,1461584,测试开发工程师,苏州,2018-04-28 10:55:00,14.0,20669,喔噻科技,上海喔噻互联网科技有限公司,500-2000人,工业园区,本科,B轮,移动互联网,120.7761459,31.30733607,全职,3-5年
313,3994281,测试工程师,北京,2018-04-28 09:44:25,21.0,1880,快手,北京达佳互联信息技术有限公司,500-2000人,海淀区,本科,D轮及以上,移动互联网,116.316508,39.984066,全职,1-3年
314,4302949,测试工程师,天津,2018-04-28 09:42:41,6.8,285108,宗申创新平台,重庆忽米网络科技有限公司,2000人以上,红桥区,大专,未融资,"电子商务,移动互联网",117.138917,39.150037,全职,1-3年
315,2634194,测试开发工程师,上海,2018-04-28 10:55:00,17.0,20669,喔噻科技,上海喔噻互联网科技有限公司,500-2000人,普陀区,本科,B轮,移动互联网,121.39137396,31.23398108,全职,3-5年
316,3954003,测试工程师,上海,2018-04-27 15:45:51,9.6,40729,Rela热拉-多元女性社区,上海初生网络科技有限公司,50-150人,黄浦区,大专,B轮,"移动互联网,社交网络",121.4805,31.230318,全职,1-3年
317,4428717,测试开发,杭州,2018-04-27 15:43:55,16.8,38088,东家,杭州有朋网络技术有限公司,150-500人,西湖区,本科,B轮,移动互联网,120.04146,30.28582,全职,1-3年
318,4195751,测试工程师,上海,2018-04-27 12:14:37,11.8,14229,微盟,上海萌店信息科技有限公司,2000人以上,宝山区,不限,D轮及以上,"移动互联网,电子商务",121.496277,31.349371,全职,3-5年
319,3464078,测试工程师,北京,2018-04-26 17:18:28,12.0,7535,什么值得买,北京值得买科技股份有限公司,150-500人,丰台区,大专,A轮,"电子商务,文化娱乐",115.99339,39.99426,全职,3-5年
320,4326164,测试工程师,北京,2018-04-26 16:56:16,15.2,23004,图灵机器人,北京光年无限科技有限公司,150-500人,海淀区,本科,B轮,移动互联网,116.311424,40.027368,全职,1-3年
321,4487648,测试工程师,杭州,2018-04-26 15:00:50,6.8,286403,无端科技,浙江无端科技股份有限公司,150-500人,西湖区,本科,A轮,游戏,0.0,0.0,全职,1-3年
322,4134088,测试工程师 （XHX）,杭州,2018-04-25 14:17:45,12.0,9327,铭师堂,杭州铭师堂教育科技发展有限公司,500-2000人,拱墅区,本科,不需要融资,"移动互联网,教育",120.120309,30.335574,全职,1-3年
323,3942938,测试工程师,北京,2018-04-23 14:12:07,17.0,17965,海马玩,北京海誉动想科技有限公司,150-500人,朝阳区,本科,C轮,移动互联网,116.497961,39.975986,全职,3-5年
324,4463470,测试工程师(J12748),上海,2018-04-23 11:22:22,6.8,27413,宝胜国际,常胜投资有限公司,2000人以上,虹口区,大专,上市公司,"电子商务,O2O",121.488295,31.251271,全职,1-3年
325,3222779,测试工程师,厦门,2018-04-17 16:46:00,5.6,48081,润铭网络,厦门市润铭网络科技有限公司,50-150人,思明区,大专,A轮,"移动互联网,硬件",118.184385,24.48903,全职,1-3年
326,4180925,游戏软件测试工程师,广州,2018-04-30 12:38:40,3.8,257650,广州玖维信息科技有限公司,广州玖维信息科技有限公司,150-500人,天河区,大专,上市公司,"移动互联网,数据服务",113.407233,23.129143,全职,1年以下
327,4341199,高级测试工程师,杭州,2018-04-28 18:05:25,11.2,172326,优量科技,杭州优量科技有限公司,50-150人,滨江区,本科,A轮,移动互联网,120.225851,30.208562,全职,3-5年
328,4495901,测试开发工程师,北京,2018-04-28 14:47:11,19.0,67118,达闼科技,达闼科技（北京）有限公司,150-500人,朝阳区,本科,B轮,移动互联网,116.479397,39.995298,全职,3-5年
329,3193198,移动端测试,杭州,2018-04-28 10:12:53,15.0,2380,浙江执御信息技术有限公司,浙江执御信息技术有限公司,2000人以上,拱墅区,本科,B轮,"移动互联网,数据服务",120.11375,30.33331,全职,3-5年
330,4436422,测试工程师,北京,2018-04-28 09:15:05,15.2,1121,智课网,北京创新伙伴教育科技有限公司,500-2000人,海淀区,本科,B轮,"移动互联网,教育",115.99339,39.99426,全职,3-5年
331,3767043,手工测试工程师,南京,2018-04-27 15:21:29,8.4,16831,武汉佰钧成技术有限公司,武汉佰钧成技术有限责任公司,2000人以上,雨花台区,本科,不需要融资,移动互联网,118.767867,31.986663,全职,3-5年
332,2921520,测试工程师,杭州,2018-04-27 11:52:12,17.0,57653,惠每科技,北京惠每科技有限公司,50-150人,余杭区,本科,B轮,医疗健康,120.018165,30.280071,全职,3-5年
333,4270691,测试工程师,佛山,2018-04-26 17:47:58,10.8,24574,赛意,广州赛意信息科技股份有限公司,2000人以上,顺德区,大专,上市公司,"硬件,企业服务",113.21932065,22.93208909,全职,3-5年
334,4437727,报表测试,深圳,2018-04-26 09:33:17,10.8,117217,博悦科创,深圳市博悦科创科技有限公司,500-2000人,福田区,本科,不需要融资,移动互联网,114.083367,22.544469,全职,1-3年
335,3677367,测试工程师,厦门,2018-04-25 14:04:17,12.6,165492,10com,厦门视我科技有限公司,15-50人,思明区,本科,不需要融资,"移动互联网,电子商务",118.078948,24.46038,全职,3-5年
336,4129337,测试工程师,上海,2018-04-23 17:15:45,12.0,72427,上海青客,上海青客公共租赁住房租赁经营管理股份有限公司,500-2000人,徐汇区,大专,C轮,"移动互联网,O2O",121.45873,31.18618985,全职,3-5年
337,4313015,测试工程师,北京,2018-04-23 09:34:49,12.0,3522,易宝支付,易宝支付有限公司,500-2000人,朝阳区,本科,D轮及以上,"移动互联网,金融",115.99339,39.99426,全职,3-5年
338,4501504,测试主管,上海,2018-04-28 18:49:31,21.0,32016,别样红,上海别样红信息技术有限公司,150-500人,闵行区,本科,C轮,"企业服务,数据服务",121.363966,31.12288,全职,3-5年
339,4426284,高级测试工程师,东莞,2018-04-28 18:04:17,15.6,299676,鸿特信息,广东鸿特信息咨询有限公司,2000人以上,东莞市市辖区,本科,上市公司,"移动互联网,企业服务",0.0,0.0,全职,5-10年
340,4181124,测试工程师,杭州,2018-04-28 14:21:44,14.0,21236,微医集团,浙江康健绿线网络技术有限公司,500-2000人,萧山区,本科,C轮,"移动互联网,医疗健康",120.247338,30.204082,全职,3-5年
341,4121868,测试工程师,北京,2018-04-28 11:52:21,17.0,153147,PINTEC,思凯思特（北京）科技有限公司,500-2000人,朝阳区,本科,C轮,"移动互联网,金融",116.459221,39.933068,全职,3-5年
342,3848162,测试工程师--性能,北京,2018-04-28 10:57:52,19.0,53137,家园网,家园网络科技有限公司,2000人以上,东城区,本科,不需要融资,O2O,115.99339,39.99426,全职,3-5年
343,4429068,测试经理,上海,2018-04-28 10:41:20,19.0,94027,斑马旅游,上海歌晨信息技术有限公司,150-500人,浦东新区,本科,A轮,"电子商务,旅游",121.603788,31.202542,全职,3-5年
344,3073687,测试工程师,北京,2018-04-28 09:29:36,12.0,37319,懒投资,北京大家玩科技有限公司,150-500人,朝阳区,本科,A轮,金融,116.452667,39.932806,全职,1-3年
345,1728059,测试工程师,上海,2018-04-28 09:02:25,8.4,82556,瑛麒动漫,上海瑛麒动漫科技有限公司,15-50人,徐汇区,大专,A轮,"移动互联网,文化娱乐",,,全职,3-5年
346,4232965,测试工程师,南京,2018-04-28 08:10:58,11.2,53992,苏宁易购,南京苏宁软件技术有限公司,2000人以上,玄武区,本科,上市公司,"O2O,移动互联网",0.0,0.0,全职,3-5年
347,2863557,测试工程师,广州,2018-04-27 13:50:52,10.8,169002,修炼,广东修炼科技股份有限公司,50-150人,天河区,大专,不需要融资,移动互联网,113.33759,23.127164,全职,3-5年
348,1777883,测试工程师,上海,2018-04-27 10:23:51,10.8,110631,上海畅采,上海畅采电子商务有限公司,50-150人,徐汇区,本科,A轮,电子商务,121.39996116,31.17700138,全职,1-3年
349,4484971,测试工程师,杭州,2018-04-26 10:29:13,10.8,23252,兑吧,杭州兑吧网络科技有限公司,500-2000人,西湖区,本科,A轮,移动互联网,120.112127,30.287766,全职,1-3年
350,3126445,测试工程师,杭州,2018-04-26 10:09:55,9.0,119788,汇金智融,汇金智融（北京）科技有限公司,150-500人,滨江区,本科,上市公司,"移动互联网,电子商务",120.171562,30.188196,全职,1-3年
351,3631511,测试实习生,北京,2018-04-23 17:18:38,2.4,181825,36氪,北京品新传媒文化有限公司,150-500人,海淀区,本科,D轮及以上,"移动互联网,电子商务",116.307747,39.982128,全职,1年以下
352,612078,测试工程师,北京,2018-04-18 14:30:27,9.8,328,考拉FM,众联智领科技（北京）有限公司,150-500人,海淀区,本科,C轮,移动互联网,116.30458,39.98622,全职,1-3年
353,3748053,测试工程师,杭州,2018-04-12 09:00:00,11.2,26248,丁香园,观澜网络（杭州）有限公司,500-2000人,滨江区,不限,D轮及以上,"医疗健康,企业服务",120.202258,30.188678,全职,1-3年
354,3837617,手机测试,武汉,2018-04-30 13:46:53,5.6,16831,武汉佰钧成技术有限公司,武汉佰钧成技术有限责任公司,2000人以上,东湖新技术开发区,本科,不需要融资,移动互联网,114.541465,30.48937,全职,不限
355,4110709,测试工程师,深圳,2018-04-30 09:21:28,16.8,298922,宝能百货零售,宝能百货零售有限公司,2000人以上,罗湖区,本科,不需要融资,"移动互联网,O2O",114.107071,22.557567,全职,3-5年
356,2812912,测试工程师,上海,2018-04-28 17:50:26,7.6,1738,有鱼金融科技,上海彩亿信息技术有限公司,500-2000人,徐汇区,本科,B轮,"移动互联网,金融",121.40437233,31.16440487,全职,不限
357,4364378,测试工程师,广州,2018-04-28 17:14:51,9.8,5726,翼课网,广州摩翼信息科技有限公司,500-2000人,番禺区,本科,不需要融资,"移动互联网 ,教育",0.0,0.0,全职,1-3年
358,4500909,软件测试工程师,北京,2018-04-28 17:06:24,10.8,272321,知学云,深圳市知学云科技有限公司,150-500人,东城区,本科,不需要融资,"移动互联网,教育",116.424346,39.948702,全职,3-5年
359,4364406,高级测试工程师,上海,2018-04-28 16:57:51,13.6,128998,江苏亿科达,上海海万信息科技股份有限公司,500-2000人,徐汇区,大专,不需要融资,"移动互联网,金融",121.456116,31.183131,全职,3-5年
360,4249594,测试工程师,东莞,2018-04-28 16:09:38,6.2,339389,立华海威,东莞立华海威网联科技有限公司,50-150人,东莞市市辖区,本科,不需要融资,移动互联网,114.181986,22.804327,全职,1-3年
361,4364188,高级测试工程师,上海,2018-04-28 15:14:41,19.0,56746,贝米钱包,上海贝涛金融信息服务有限公司,50-150人,徐汇区,本科,A轮,金融,121.446889,31.204067,全职,3-5年
362,4191036,测试工程师,上海,2018-04-28 14:56:57,8.8,40852,齐数科技（上海）有限公司,齐数科技（上海）有限公司,50-150人,徐汇区,本科,未融资,"移动互联网,文化娱乐",121.44108,31.1858,全职,1-3年
363,3400397,测试工程师,杭州,2018-04-28 10:00:23,10.8,65313,浙江保融,浙江保融科技有限公司,150-500人,西湖区,本科,不需要融资,金融,120.067429,30.285487,全职,3-5年
364,4418711,软件测试 杭州,杭州,2018-04-28 09:26:04,14.0,16831,武汉佰钧成技术有限公司,武汉佰钧成技术有限责任公司,2000人以上,西湖区,本科,不需要融资,移动互联网,0.0,0.0,全职,3-5年
365,3408975,软件测试工程师,西安,2018-04-28 09:15:28,5.8,118198,西安卓派信息科技有限公司,西安卓派信息科技有限公司,50-150人,高新技术产业开发区,不限,B轮,"O2O,其他",108.88433,34.21328,全职,1-3年
366,2302730,软件测试工程师,厦门,2018-04-28 09:01:38,6.8,72299,畅享信息,厦门畅享信息技术有限公司,150-500人,湖里区,大专,不需要融资,"移动互联网,数据服务",118.131384,24.517949,全职,1-3年
367,4209040,测试工程师,上海,2018-04-27 18:45:45,10.8,34863,车轮,上海易点时空网络有限公司,150-500人,闵行区,大专,C轮,移动互联网,121.386173,31.164349,全职,1-3年
368,1953668,测试工程师,杭州,2018-04-27 10:27:33,12.0,13163,个推,浙江每日互动网络科技股份有限公司,150-500人,西湖区,本科,D轮及以上,移动互联网,120.1115701,30.29005073,全职,不限
369,3410938,性能测试,杭州,2018-04-27 09:48:37,19.0,2380,浙江执御信息技术有限公司,浙江执御信息技术有限公司,2000人以上,拱墅区,不限,B轮,"移动互联网,数据服务",120.11362,30.33344,全职,3-5年
370,3225807,测试工程师,杭州,2018-04-26 20:52:04,10.8,50735,仟金顶,仟金顶网络科技有限公司,150-500人,滨江区,本科,A轮,电子商务,120.20068,30.18904,全职,1-3年
371,4324371,测试工程师,杭州,2018-04-26 13:13:35,8.8,350663,盛世创富,北京盛世创富证券投资顾问有限公司,500-2000人,滨江区,本科,未融资,金融,120.144583,30.18828,全职,1-3年
372,4369612,测试工程师,北京,2018-04-25 15:19:44,15.2,12179,51社保网,北京众合天下管理咨询有限公司,500-2000人,朝阳区,本科,C轮,"企业服务 ,教育",116.45956,39.90559,全职,3-5年
373,4500309,测试经理,上海,2018-04-28 16:19:39,19.0,49527,路路由,上海路路由信息技术有限公司,150-500人,浦东新区,本科,A轮,"移动互联网,O2O",121.552014,31.210958,全职,5-10年
374,48007,测试工程师,杭州,2018-04-28 11:22:16,8.0,9551,杭州悠可,杭州悠可化妆品有限公司,500-2000人,江干区,大专,上市公司,电子商务,120.371704,30.301325,全职,1-3年
375,3763329,外派人民银行--安全性测试,天津,2018-04-28 17:57:49,10.2,16831,武汉佰钧成技术有限公司,武汉佰钧成技术有限责任公司,2000人以上,滨海新区,大专,不需要融资,移动互联网,117.708092,39.10316,全职,1-3年
376,4388142,中级测试（竞云）,杭州,2018-04-28 11:12:31,15.2,198523,新光供应链,新光供应链管理有限公司,150-500人,上城区,本科,未融资,金融,120.178774,30.214233,全职,3-5年
377,2069998,测试工程师,北京,2018-04-28 10:01:13,14.0,23875,黄金钱包,北京盈衍网络科技有限公司,50-150人,,本科,C轮,"移动互联网,金融",116.48958,40.00012006,全职,1-3年
378,4404703,测试工程师,广州,2018-04-27 13:40:01,6.4,59065,深圳道乐,深圳道乐科技有限公司,50-150人,海珠区,本科,未融资,"移动互联网,金融",0.0,0.0,全职,1-3年
379,3829006,QA测试工程师,北京,2018-04-27 09:45:53,7.6,8861,妙计旅行,北京汇行科技有限公司,150-500人,东城区,本科,B轮,旅游,116.41498,39.94801,全职,1-3年
380,4218449,白盒测试、性能测试,杭州,2018-04-26 13:30:52,12.0,17693,神州数码通用软件,神州数码通用软件（北京）有限公司,500-2000人,西湖区,本科,不需要融资,企业服务,120.137878,30.253166,全职,1-3年
381,3957769,测试工程师,杭州,2018-04-25 09:23:12,20.8,93510,佐助金服,浙江佐助金融信息服务有限公司,50-150人,江干区,本科,A轮,"移动互联网,金融",120.214369,30.254125,全职,3-5年
382,4187795,嘟嘟巴士-测试工程师,深圳,2018-04-23 15:28:03,9.6,65802,嘟嘟巴士,深圳市乐途宝网络科技有限公司,50-150人,南山区,本科,B轮,移动互联网,113.940051,22.54053,全职,3-5年
383,4413632,测试工程师,杭州,2018-04-17 15:19:58,10.8,68686,烨茂科技,浙江烨茂科技有限公司,50-150人,拱墅区,大专,不需要融资,金融,120.144299,30.304464,全职,1-3年
384,4366529,测试工程师,上海,2018-04-03 14:23:13,14.0,299620,Runx跑先体育传媒,上海答派体育文化发展有限公司,50-150人,闵行区,本科,不需要融资,"移动互联网,游戏",121.31577,31.201078,全职,3-5年
385,4383052,性能测试工程师,上海,2018-04-28 16:57:51,13.2,128998,江苏亿科达,上海海万信息科技股份有限公司,500-2000人,徐汇区,大专,不需要融资,"移动互联网,金融",121.456116,31.183131,全职,3-5年
386,4240998,测试工程师,上海,2018-04-28 11:24:57,17.0,29929,斐讯通信,上海斐讯数据通信技术有限公司,2000人以上,松江区,本科,未融资,"数据服务,硬件",121.15911049,31.02269989,全职,5-10年
387,4498151,测试工程师,北京,2018-04-28 11:22:36,12.6,150030,北京瑞友,北京瑞友科技股份有限公司,2000人以上,西城区,本科,上市公司,"移动互联网,电子商务",116.364649,39.906142,全职,3-5年
388,4429526,测试开发工程师,上海,2018-04-28 11:03:35,19.0,202104,趣头条,上海基分文化传播有限公司,500-2000人,浦东新区,本科,不需要融资,移动互联网,0.0,0.0,全职,3-5年
389,375777,测试开发,北京,2018-04-27 20:45:02,19.0,534,京东金融,京东金融,2000人以上,朝阳区,本科,上市公司,金融,116.38971277,39.99811635,全职,3-5年
390,3298312,app测试,上海,2018-04-28 11:27:27,12.0,128998,江苏亿科达,上海海万信息科技股份有限公司,500-2000人,浦东新区,本科,不需要融资,"移动互联网,金融",0.0,0.0,全职,3-5年
391,3885669,数通测试工程师,南京,2018-04-27 17:52:28,11.4,16831,武汉佰钧成技术有限公司,武汉佰钧成技术有限责任公司,2000人以上,雨花台区,本科,不需要融资,移动互联网,118.767867,31.986663,全职,3-5年
392,4362453,软件测试工程师,青岛,2018-04-27 17:43:06,5.2,72546,Pico VR （小鸟看看）,北京小鸟看看科技有限公司,150-500人,崂山区,本科,不需要融资,"硬件,其他",119.993608,35.993662,全职,1-3年
393,4134241,测试工程师,北京,2018-04-27 14:26:15,17.8,98754,云账户,天津益阳煜赢网络科技有限公司,50-150人,朝阳区,本科,B轮,"O2O,金融",116.482106,39.996356,全职,1-3年
394,3527162,测试开发工程师,杭州,2018-04-26 18:42:18,14.0,42868,Club Factory,杭州嘉云数据科技有限公司,150-500人,西湖区,本科,C轮,"电子商务,移动互联网",120.124444,30.277356,全职,3-5年
395,4464293,测试经理,广州,2018-04-26 18:04:09,19.0,161886,ImageDT图匠数据,广州图匠数据科技有限公司,50-150人,海珠区,本科,A轮,"企业服务,数据服务",113.369458,23.096879,全职,5-10年
396,4397977,软件测试工程师,上海,2018-04-26 17:00:38,9.6,78102,网达软件,上海网达软件股份有限公司,500-2000人,浦东新区,本科,上市公司,"移动互联网,电子商务",121.592153,31.244662,全职,1-3年
397,3942342,软件测试工程师,昆明,2018-04-26 13:05:00,6.8,173619,云南红岭云科技股份有限公司,云南红岭云科技股份有限公司,50-150人,呈贡区,大专,上市公司,"数据服务,移动互联网",102.843399,24.948381,全职,1-3年
398,3940475,测试,上海,2018-04-26 10:07:03,10.8,130659,舟恩信息,上海舟恩信息技术有限公司,150-500人,徐汇区,本科,不需要融资,移动互联网,121.462683,31.1871,全职,3-5年
399,4115408,性能测试工程师,杭州,2018-04-25 14:17:45,19.0,9327,铭师堂,杭州铭师堂教育科技发展有限公司,500-2000人,拱墅区,本科,不需要融资,"移动互联网,教育",120.141387,30.320581,全职,3-5年
400,4327696,测试工程师 (MJ000705),广州,2018-04-25 09:34:57,14.0,49579,欢聚时代（YY Inc）,广州华多网络科技有限公司,2000人以上,番禺区,本科,上市公司,移动互联网,113.348011,23.007841,全职,1-3年
401,4126557,测试工程师,杭州,2018-04-23 11:35:36,17.0,13163,个推,浙江每日互动网络科技股份有限公司,150-500人,西湖区,本科,D轮及以上,移动互联网,120.11455979,30.2903098,全职,3-5年
402,4272093,高级测试工程师,北京,2018-04-30 00:34:23,14.0,55071,帕拉旅行,北京阳光帕拉国际旅行社有限公司,15-50人,朝阳区,本科,不需要融资,"移动互联网,生活服务",116.454274,39.994449,全职,5-10年
403,4360075,资深测试工程师/测试专家,杭州,2018-04-28 19:01:14,26.0,59928,盈盈理财,杭州盈纳控股集团有限公司,500-2000人,下城区,本科,A轮,移动互联网,120.165744,30.315395,全职,5-10年
404,4165312,测试工程师（北京）,北京,2018-04-28 17:09:54,11.2,30816,蜻蜓FM,上海倾听信息技术有限公司,150-500人,朝阳区,本科,D轮及以上,移动互联网,116.454812,39.920432,全职,1-3年
405,4499241,软件测试工程师,上海,2018-04-28 14:29:37,10.8,110347,尚芸飞流,上海尚芸飞流信息技术有限公司,15-50人,浦东新区,大专,不需要融资,"移动互联网,金融",121.550521,31.226037,全职,1-3年
406,4481510,测试（中高级）,广州,2018-04-28 10:53:33,18.4,16831,武汉佰钧成技术有限公司,武汉佰钧成技术有限责任公司,2000人以上,天河区,本科,不需要融资,移动互联网,0.0,0.0,全职,3-5年
407,3677565,测试工程师,杭州,2018-04-28 10:30:11,8.4,93448,览众数据,杭州览众数据科技有限公司,50-150人,滨江区,本科,B轮,"电子商务,数据服务",120.224077,30.208963,全职,3-5年
408,4002024,测试工程师,北京,2018-04-28 09:58:01,14.0,142626,CLPS,上海华钦信息科技股份有限公司,500-2000人,东城区,本科,未融资,"数据服务,金融",116.432719,39.934544,全职,3-5年
409,3938882,生产测试员,深圳,2018-04-28 09:27:17,3.8,8649,深圳成为智能交通,深圳市成为智能交通系统有限公司,150-500人,南山区,大专,B轮,"移动互联网,硬件",113.946902,22.553013,全职,1年以下
410,3574307,测试工程师,上海,2018-04-27 14:44:19,10.8,18655,大搜车,杭州大搜车汽车服务有限公司,500-2000人,长宁区,本科,D轮及以上,"移动互联网,O2O",121.406652,31.196973,全职,1-3年
411,4288980,测试开发工程师,北京,2018-04-27 14:30:39,21.0,4128,知乎,北京智者天下科技有限公司,500-2000人,海淀区,本科,D轮及以上,"移动互联网,社交网络",116.350094,40.007985,全职,3-5年
412,1477406,测试工程师,广州,2018-04-27 10:39:07,2.8,46944,云智易,广州云湾信息技术有限公司,50-150人,海珠区,本科,B轮,"移动互联网,硬件",113.362968,23.099621,实习,1-3年
413,3854276,测试工程师,杭州,2018-04-27 10:27:34,12.4,13163,个推,浙江每日互动网络科技股份有限公司,150-500人,西湖区,本科,D轮及以上,移动互联网,120.114108,30.291951,全职,1-3年
414,1618363,测试工程师,杭州,2018-04-27 09:14:57,9.8,35514,纳里健康,纳里健康科技有限公司,150-500人,滨江区,本科,B轮,医疗健康,120.1631,30.1844101,全职,1-3年
415,2375137,测试实习生,杭州,2018-04-25 14:58:28,2.8,139350,魔蝎科技,杭州魔蝎数据科技有限公司,50-150人,西湖区,不限,B轮,"数据服务,移动互联网",120.067616,30.285135,实习,应届毕业生
416,3323725,测试工程师,上海,2018-04-12 09:14:53,14.0,225351,雷励物流金融,雷励（上海）融资租赁有限公司,50-150人,青浦区,本科,A轮,"移动互联网,金融",121.124178,31.150681,全职,1-3年
417,2840633,性能测试,上海,2018-04-28 17:50:25,14.0,1738,有鱼金融科技,上海彩亿信息技术有限公司,500-2000人,徐汇区,本科,B轮,"移动互联网,金融",121.40437233,31.16440487,全职,1-3年
418,3949229,高级测试工程师,杭州,2018-04-28 17:27:14,10.0,136244,宗盛智能,杭州宗盛智能科技有限公司,50-150人,余杭区,本科,不需要融资,生活服务,119.993591,29.993662,全职,3-5年
419,4118633,测试Leader,深圳,2018-04-28 14:51:27,42.0,131846,Shopee,深圳虾皮信息科技有限公司,2000人以上,南山区,本科,上市公司,电子商务,113.945758,22.537062,全职,5-10年
420,1221870,测试工程师,北京,2018-04-28 14:47:12,17.8,67118,达闼科技,达闼科技（北京）有限公司,150-500人,朝阳区,本科,B轮,移动互联网,116.48016019,39.99690009,全职,3-5年
421,4335229,测试工程师,北京,2018-04-28 14:40:56,13.2,233895,车行168,北京车通达科技有限公司,150-500人,朝阳区,大专,B轮,移动互联网,116.441321,39.91011,全职,3-5年
422,1820241,高级测试工程师,杭州,2018-04-28 14:09:39,14.0,21658,信领达,信领达（杭州）软件有限公司,50-150人,西湖区,本科,D轮及以上,移动互联网,120.18605997,30.32123995,全职,5-10年
423,4266710,测试工程师,杭州,2018-04-28 14:00:39,12.0,7868,阔知网络,杭州阔知网络科技有限公司,150-500人,滨江区,大专,A轮,"企业服务,教育",0.0,0.0,全职,1-3年
424,4386914,中级测试（竞云）,杭州,2018-04-28 11:12:31,15.2,198523,新光供应链,新光供应链管理有限公司,150-500人,上城区,本科,未融资,金融,120.178774,30.214233,全职,3-5年
425,3888461,测试工程师,杭州,2018-04-28 09:49:42,6.2,51512,东信北邮,杭州东信北邮信息技术有限公司,500-2000人,西湖区,本科,未融资,"移动互联网,其他",120.060352,30.315649,全职,1-3年
426,3554159,测试工程师,上海,2018-04-27 16:29:15,9.6,40077,上海钢银,上海钢银电子商务股份有限公司,500-2000人,宝山区,本科,上市公司,"移动互联网,电子商务",121.34243,31.30355,全职,1-3年
427,1201192,测试工程师,杭州,2018-04-27 13:58:53,7.0,71931,车国,浙江车国网络科技有限公司,2000人以上,江干区,本科,不需要融资,"移动互联网,O2O",120.210125,30.242279,全职,1-3年
428,4491756,测试工程师,杭州,2018-04-27 10:28:03,14.0,27495,鑫合汇,杭州鑫合汇互联网金融服务有限公司,500-2000人,拱墅区,本科,不需要融资,金融,120.117441,30.335952,全职,3-5年
429,2808928,测试（一）,杭州,2018-04-27 10:27:35,12.0,13163,个推,浙江每日互动网络科技股份有限公司,150-500人,西湖区,本科,D轮及以上,移动互联网,120.1115701,30.29005073,全职,1-3年
430,4106939,测试工程师（天津）,天津,2018-04-27 09:47:26,7.6,36984,谷川联行,谷川联行有限公司,150-500人,西青区,本科,不需要融资,电子商务,117.088233,39.143644,全职,不限
431,4281321,测试工程师,北京,2018-04-26 19:31:32,19.0,82991,数美,北京数美时代科技有限公司,150-500人,朝阳区,本科,B轮,"企业服务,数据服务",116.465953,40.021083,全职,1-3年
432,4431147,软件测试,杭州,2018-04-26 10:45:18,10.8,69007,恒天软件,浙江网新恒天软件有限公司,500-2000人,西湖区,本科,不需要融资,移动互联网,120.06319,30.30535,全职,不限
433,4425520,测试实习生,广州,2018-04-26 09:39:51,2.4,114491,智安天使科技,广州智安天使网络科技有限公司,50-150人,天河区,大专,不需要融资,"移动互联网,广告营销",113.338715,23.12602,全职,1年以下
434,3958679,软件测试,上海,2018-04-25 15:49:53,15.2,231794,安兑_信砥信息科技,上海信砥信息科技有限公司,50-150人,长宁区,本科,B轮,"信息安全,数据服务",121.4144,31.2174,全职,3-5年
435,4253453,软件测试,杭州,2018-04-25 09:33:12,6.8,185979,风数,杭州风数信息科技有限公司,50-150人,余杭区,大专,A轮,移动互联网,120.006319,30.277877,全职,1-3年
436,4310251,测试工程师,杭州,2018-04-13 18:28:46,16.0,23592,讯盟,杭州讯盟科技有限公司,150-500人,西湖区,本科,A轮,移动互联网,120.068866,30.281734,全职,3-5年
437,4308428,测试工程师,广州,2018-04-11 09:39:59,9.8,101882,瑞图万方,广东瑞图万方科技股份有限公司广州分公司,150-500人,天河区,本科,不需要融资,"移动互联网,O2O",113.37208,23.12342,全职,1-3年
438,3789230,人民银行---测试工程师,天津,2018-04-28 17:57:49,10.2,16831,武汉佰钧成技术有限公司,武汉佰钧成技术有限责任公司,2000人以上,滨海新区,大专,不需要融资,移动互联网,117.708092,39.10316,全职,3-5年
439,4360881,测试经理,厦门,2018-04-28 17:47:15,28.0,9251,美柚,厦门美柚信息科技有限公司,500-2000人,思明区,本科,D轮及以上,移动互联网,117.993493,23.994066,全职,3-5年
440,4490235,测试经理,上海,2018-04-28 17:38:51,17.8,658,三七互娱,三七互娱（上海）科技有限公司,2000人以上,徐汇区,大专,上市公司,游戏,0.0,0.0,全职,5-10年
441,4211808,测试工程师,深圳,2018-04-28 15:54:33,9.8,226225,奇点创艺,深圳市奇点创艺科技有限公司,15-50人,南山区,本科,未融资,"移动互联网,数据服务",,,全职,3-5年
442,4225620,测试工程师Mac,杭州,2018-04-28 14:09:38,8.4,21658,信领达,信领达（杭州）软件有限公司,50-150人,西湖区,本科,D轮及以上,移动互联网,119.993591,29.993662,全职,1-3年
443,4210466,中级测试,杭州,2018-04-28 11:12:33,15.2,198523,新光供应链,新光供应链管理有限公司,150-500人,上城区,本科,未融资,金融,120.178774,30.214233,全职,3-5年
444,2245558,测试工程师,上海,2018-04-28 10:33:45,7.6,33278,弘连网络,上海弘连网络科技有限公司,50-150人,,本科,未融资,数据服务,,,全职,1-3年
445,4248928,测试开发,广州,2018-04-28 08:35:20,12.0,275828,幂动科技,广州幂动科技有限公司,15-50人,海珠区,本科,未融资,移动互联网、广告营销,113.256341,23.094764,全职,1-3年
446,1953867,测试工程师,上海,2018-04-27 16:29:14,17.0,40077,上海钢银,上海钢银电子商务股份有限公司,500-2000人,宝山区,本科,上市公司,"移动互联网,电子商务",121.34243,31.30354988,全职,3-5年
447,3648781,测试工程师,上海,2018-04-27 16:04:39,10.8,42418,坤亿科技,上海坤亿信息技术有限公司,50-150人,浦东新区,本科,不需要融资,"电子商务,企业服务",0.0,0.0,全职,1-3年
448,4403706,中级测试工程师,武汉,2018-04-27 13:56:10,9.2,52162,武汉政通,北京数字政通科技股份有限公司,500-2000人,洪山区,本科,上市公司,移动互联网,114.425351,30.457034,全职,1-3年
449,3495699,测试工程师,北京,2018-04-26 22:22:50,21.0,67300,ThoughtWorks,思特沃克软件技术（成都）有限公司,2000人以上,东城区,本科,不需要融资,企业服务,116.43258,39.939078,全职,5-10年
450,4495226,软件测试工程师,广州,2018-04-27 16:54:14,9.0,16831,武汉佰钧成技术有限公司,武汉佰钧成技术有限责任公司,2000人以上,海珠区,大专,不需要融资,移动互联网,0.0,0.0,全职,3-5年
451,3692702,测试经理,上海,2018-04-25 16:12:46,24.0,84388,亿可能源,亿可能源科技（上海）有限公司,15-50人,杨浦区,本科,A轮,"移动互联网,数据服务",121.506859,31.308204,全职,5-10年
452,4387687,测试工程师,上海,2018-04-25 13:45:55,12.0,69466,彩贝壳,上海绘享网络科技有限公司,50-150人,长宁区,本科,A轮,移动互联网,120.993464,30.994061,全职,1-3年
453,4224949,测试实习生,广州,2018-04-23 23:51:29,3.8,70967,移步到微,广州三尺信息科技有限公司,15-50人,天河区,大专,A轮,"移动互联网,企业服务",113.32081,23.16259,实习,应届毕业生
454,4219044,测试工程师,北京,2018-04-23 10:22:26,14.0,312419,吾好科技,北京吾好科技发展有限公司,50-150人,朝阳区,本科,A轮,教育 移动互联网,0.0,0.0,全职,1-3年
455,3743954,软件测试工程师,杭州,2018-04-28 18:35:11,9.6,127780,孚嘉科技,杭州孚嘉科技有限公司,50-150人,拱墅区,本科,A轮,移动互联网,120.105743,30.305031,全职,1-3年
456,1010425,测试主管,杭州,2018-04-28 17:47:15,24.0,9251,美柚,厦门美柚信息科技有限公司,500-2000人,余杭区,本科,D轮及以上,移动互联网,118.17919679,24.48937688,全职,3-5年
457,3288059,软件测试工程师,上海,2018-04-28 17:31:47,10.2,128998,江苏亿科达,上海海万信息科技股份有限公司,500-2000人,静安区,大专,不需要融资,"移动互联网,金融",121.458959,31.266934,全职,3-5年
458,4063474,高级测试工程师,苏州,2018-04-28 15:15:45,14.0,156327,金螳螂.家,金螳螂家装电子商务（苏州）有限公司,2000人以上,工业园区,本科,不需要融资,"移动互联网,电子商务",120.769916,31.277888,全职,3-5年
459,3676889,资深测试工程师,北京,2018-04-28 15:14:07,13.2,136978,玖富集团,玖富金科控股集团有限责任公司,2000人以上,朝阳区,本科,C轮,金融,116.48079159,39.99612958,全职,5-10年
460,4492419,测试主管,北京,2018-04-28 11:45:36,13.8,177691,魔力耳朵,北京魔力耳朵科技有限公司,150-500人,朝阳区,本科,A轮,教育,116.453517,39.932079,全职,3-5年
461,4193628,测试工程师,广州,2018-04-28 11:31:36,12.0,4206,汇桔网,广州博鳌纵横网络科技有限公司,2000人以上,萝岗区,大专,C轮,"企业服务,O2O",113.45678124,23.17165026,全职,3-5年
462,2039742,测试工程师,上海,2018-04-28 11:31:33,7.8,23314,MXCHIP,上海庆科信息技术有限公司,150-500人,,本科,B轮,硬件,,,全职,应届毕业生
463,3998529,测试工程师,重庆,2018-04-28 09:16:33,10.8,240524,重庆盘古美天物联网科技有限公司,重庆盘古美天物联网科技有限公司,2000人以上,江北区,本科,不需要融资,"移动互联网,金融",106.568704,29.572203,全职,3-5年
464,2217580,测试工程师,杭州,2018-04-27 18:47:58,7.6,26467,思华科技,上海思华科技股份有限公司,150-500人,拱墅区,大专,D轮及以上,移动互联网,120.10848018,30.29329957,全职,1-3年
465,3166131,测试工程师,上海,2018-04-27 10:04:38,16.4,131324,多赋信息,上海多赋信息科技有限公司,50-150人,浦东新区,本科,不需要融资,"移动互联网,硬件",,,全职,3-5年
466,4431092,测试工程师,青岛,2018-04-27 09:32:57,7.0,56698,屏芯科技,北京屏芯科技有限公司,500-2000人,市南区,本科,B轮,"移动互联网,电子商务",116.999873,36.662274,全职,不限
467,4411564,测试开发,北京,2018-04-26 14:09:20,20.8,956,金山云,北京金山云网络技术有限公司,500-2000人,海淀区,本科,C轮,"移动互联网,数据服务",116.310195,40.039018,全职,1-3年
468,3891946,测试工程师,北京,2018-04-26 10:50:54,14.0,73184,薪人薪事,企家有道网络技术（北京）有限公司,50-150人,朝阳区,本科,B轮,企业服务,116.468774,40.012499,全职,1-3年
469,3682393,测试工程师,杭州,2018-04-25 19:26:16,7.0,160035,电视淘宝,杭州智屏电子商务有限公司,50-150人,余杭区,本科,不需要融资,电子商务,120.008787,30.279712,全职,1-3年
470,4236143,测试工程师,上海,2018-04-25 09:08:27,12.0,128998,江苏亿科达,上海海万信息科技股份有限公司,500-2000人,浦东新区,本科,不需要融资,"移动互联网,金融",121.5025,31.237015,全职,3-5年
471,751568,测试工程师,杭州,2018-04-18 16:31:53,12.0,68417,卡咪网络,卡咪网络服务有限公司,50-150人,西湖区,本科,不需要融资,移动互联网,120.078646,30.290994,全职,3-5年
472,4112383,测试工程师,上海,2018-04-30 07:21:56,14.0,38432,TutorABC英语,威比网络科技（上海）有限公司,2000人以上,杨浦区,本科,C轮,"移动互联网,教育",121.51151605,31.26029032,全职,3-5年
473,2866577,高级测试工程师,北京,2018-04-30 00:16:16,14.0,139078,唯医网,北京欧应信息技术有限公司,150-500人,朝阳区,本科,B轮,"移动互联网,医疗健康",116.45347,39.91613,全职,3-5年
474,4296121,测试工程师,北京,2018-04-29 23:09:27,14.0,219252,融慧金科,融慧金科金融服务外包（北京）有限公司,50-150人,朝阳区,大专,A轮,"金融,数据服务",116.477076,39.91244,全职,3-5年
475,4489700,软件测试,深圳,2018-04-28 19:31:21,14.0,363826,中链商金集团,商金投资管理（深圳）有限公司,150-500人,坪山新区,大专,不需要融资,"移动互联网,电子商务",114.351559,22.703992,全职,3-5年
476,3763309,外派人民银行---测试工程师,天津,2018-04-28 17:57:50,10.2,16831,武汉佰钧成技术有限公司,武汉佰钧成技术有限责任公司,2000人以上,滨海新区,大专,不需要融资,移动互联网,117.708092,39.10316,全职,3-5年
477,3235914,测试工程师,北京,2018-04-28 11:58:04,7.6,141955,嘀嗒出行,拼途（北京）信息技术有限公司,150-500人,朝阳区,本科,D轮及以上,"移动互联网,O2O",116.482578,39.995421,全职,不限
478,3299690,软件测试工程师,杭州,2018-04-28 10:12:53,15.8,2380,浙江执御信息技术有限公司,浙江执御信息技术有限公司,2000人以上,拱墅区,本科,B轮,"移动互联网,数据服务",120.11375,30.33331,全职,3-5年
479,3499682,中高级测试工程师,杭州,2018-04-28 09:37:41,12.0,8169,点我达,点我达网络科技有限公司,500-2000人,下城区,本科,D轮及以上,O2O,120.16579198,30.31569396,全职,3-5年
480,3807848,中级测试工程师,杭州,2018-04-28 09:37:41,9.6,8169,点我达,点我达网络科技有限公司,500-2000人,下城区,本科,D轮及以上,O2O,120.16579198,30.31569396,全职,1-3年
481,4489906,测试开发工程师,北京,2018-04-27 11:02:18,21.0,150885,微步在线,北京微步在线科技有限公司,50-150人,海淀区,本科,B轮,信息安全,0.0,0.0,全职,1-3年
482,4443784,中高级测试,深圳,2018-04-27 10:33:13,13.2,50241,Symbio-Freeborders,信必优(深圳)信息技术有限公司,2000人以上,南山区,大专,未融资,"移动互联网,电子商务",113.934576,22.540487,全职,3-5年
483,4414926,测试工程师,珠海,2018-04-26 09:05:36,10.6,53357,珠海优特科技,珠海优特电力科技股份有限公司,500-2000人,香洲区,本科,不需要融资,其他,113.55946,22.27794,全职,3-5年
484,4298605,软件测试,上海,2018-04-23 09:37:22,12.4,14093,瞬联软件科技（北京）有限公司,瞬联软件科技（北京）有限公司,500-2000人,徐汇区,本科,不需要融资,"移动互联网 ,企业服务",121.402129,31.172082,全职,3-5年
485,4202490,测试工程师（西安）,西安,2018-04-29 21:20:37,10.8,147701,纸贵科技,西安纸贵互联网科技有限公司,50-150人,碑林区,本科,A轮,"文化娱乐,企业服务",108.933931,34.230384,全职,1-3年
486,4245268,测试工程师,温州,2018-04-29 13:01:49,2.8,339841,清大科技,浙江清大科技有限公司,50-150人,瓯海区,大专,不需要融资,"企业服务,数据服务",120.660694,27.955011,全职,1-3年
487,4430822,测试工程师,杭州,2018-04-28 15:11:28,10.8,202762,绿城理想生活集团,绿城理想生活科技有限公司,2000人以上,西湖区,本科,不需要融资,"生活服务,移动互联网",120.067349,30.285396,全职,1-3年
488,4498715,测试开发,北京,2018-04-28 12:38:36,28.0,29795,罗辑思维,北京思维造物信息科技有限公司,150-500人,朝阳区,本科,B轮,"移动互联网,文化娱乐",115.99339,39.99426,全职,3-5年
489,4472861,高级测试工程师,北京,2018-04-28 10:26:35,21.0,239945,阿希链,北京阿希链科技有限公司,50-150人,朝阳区,本科,未融资,移动互联网,,,全职,5-10年
490,4494034,高级测试工程师,上海,2018-04-28 10:06:24,19.0,325086,鲲之羽,上海鲲之羽网络科技有限公司,少于15人,静安区,大专,未融资,"移动互联网,文化娱乐",121.456262,31.243629,全职,3-5年
491,3866172,测试工程师,广州,2018-04-28 09:45:15,10.8,160121,X-MEN,广州艾克斯曼网络科技有限公司,150-500人,天河区,大专,不需要融资,游戏,113.400444,23.119884,全职,3-5年
492,4439362,测试工程师,北京,2018-04-28 09:35:31,19.0,3786,宜信,普信恒业科技发展（北京）有限公司,2000人以上,朝阳区,本科,上市公司,金融,116.476857,39.913097,全职,3-5年
493,4477843,测试工程师（实习生),上海,2018-04-27 20:12:44,4.4,143423,小燕科技,上海小燕科技有限公司,15-50人,浦东新区,本科,A轮,"硬件,移动互联网",121.99403,30.993438,全职,应届毕业生
494,4100242,测试工程师,北京,2018-04-27 19:20:41,5.8,62538,掌上先机-旺店通ERP,北京掌上先机网络科技有限公司,500-2000人,海淀区,本科,不需要融资,"移动互联网,电子商务",116.363483,39.973296,全职,1-3年
495,3708125,测试工程师,上海,2018-04-27 16:28:06,12.0,43907,博云,苏州博纳讯动软件有限公司,150-500人,浦东新区,本科,B轮,"移动互联网,企业服务",121.663219,31.23361,全职,3-5年
496,4291361,测试工程师,北京,2018-04-27 14:24:53,8.4,10723,酷划在线,北京酷划在线网络技术有限公司,50-150人,海淀区,本科,不需要融资,移动互联网,116.355305,40.009084,全职,1-3年
497,4403784,资深测试工程师,武汉,2018-04-27 13:56:10,16.2,52162,武汉政通,北京数字政通科技股份有限公司,500-2000人,洪山区,本科,上市公司,移动互联网,114.425351,30.457034,全职,5-10年
498,2544732,测试工程师,北京,2018-04-27 10:38:23,8.4,4286,竞技世界,竞技世界（北京）网络技术有限公司,500-2000人,海淀区,本科,不需要融资,"移动互联网,游戏",116.31202811,40.03723008,全职,1-3年
499,4383114,软件测试工程师,上海,2018-04-26 17:00:38,7.6,78102,网达软件,上海网达软件股份有限公司,500-2000人,浦东新区,本科,上市公司,"移动互联网,电子商务",121.592153,31.244662,全职,1-3年
500,4106584,测试工程师,上海,2018-04-26 16:32:18,9.8,124821,UniCareer职优你,职优你（上海）教育科技有限公司,150-500人,杨浦区,本科,C轮,教育,121.516586,31.299703,全职,1-3年
501,3893226,测试实习生,北京,2018-04-26 10:50:55,2.8,73184,薪人薪事,企家有道网络技术（北京）有限公司,50-150人,朝阳区,本科,B轮,企业服务,116.468774,40.012499,实习,应届毕业生
502,4423541,测试工程师,上海,2018-04-26 09:53:39,13.0,22862,上海中软华腾软件系统有限公司,上海中软华腾软件系统有限公司,2000人以上,黄浦区,本科,上市公司,"企业服务,金融",121.477242,31.237802,全职,3-5年
503,3945046,测试工程师,沈阳,2018-04-25 19:47:06,8.4,31590,四维图新,北京四维图新科技股份有限公司,2000人以上,和平区,本科,上市公司,"移动互联网,生活服务",123.455149,41.802344,全职,不限
504,4353703,测试经理,珠海,2018-04-25 09:52:08,21.0,7835,金山办公软件,北京金山软件有限公司,2000人以上,香洲区,本科,上市公司,移动互联网,113.601205,22.34793,全职,5-10年
505,4476824,EMC测试工程师,东莞,2018-04-25 09:06:37,8.2,16831,武汉佰钧成技术有限公司,武汉佰钧成技术有限责任公司,2000人以上,东莞市市辖区,本科,不需要融资,移动互联网,0.0,0.0,全职,不限
506,4404275,测试工程师,杭州,2018-04-13 10:06:51,17.0,56234,小泰科技,浙江小泰科技有限公司,150-500人,滨江区,不限,不需要融资,金融,120.201625,30.188864,全职,3-5年
507,3333281,软件测试,上海,2018-04-29 15:32:17,6.8,51386,递易,递易（上海）智能科技有限公司,150-500人,徐汇区,大专,A轮,"O2O,硬件",121.39739,31.166715,全职,1-3年
508,2300793,软件测试实习生,重庆,2018-04-29 15:03:39,2.4,33472,诺怀软件,重庆诺怀软件有限公司,50-150人,九龙坡区,本科,未融资,企业服务,106.4849103,29.53201967,实习,应届毕业生
509,3376268,测试工程师,上海,2018-04-28 18:49:32,5.6,16737,哒哒英语,上海卓赞信息技术有限公司,500-2000人,长宁区,本科,C轮,教育,121.35533,31.21822,全职,不限
510,4035703,性能测试,上海,2018-04-28 17:53:07,12.6,22862,上海中软华腾软件系统有限公司,上海中软华腾软件系统有限公司,2000人以上,长宁区,本科,上市公司,"企业服务,金融",121.419045,31.221631,全职,5-10年
511,3265294,软件测试工程师,广州,2018-04-28 17:12:12,8.4,67777,快批KP,广州快批信息科技有限公司,50-150人,海珠区,本科,A轮,"移动互联网,数据服务",113.382499,23.098455,全职,1-3年
512,4259883,测试主管,杭州,2018-04-28 17:02:15,12.4,200592,集盒商城,杭州集盒网络技术有限公司,50-150人,西湖区,大专,未融资,"移动互联网,电子商务",120.088663,30.289113,全职,3-5年
513,4470865,测试工程师,上海,2018-04-28 13:42:32,9.6,103191,微鲸科技,微鲸科技有限公司,500-2000人,浦东新区,不限,不需要融资,移动互联网,121.628551,31.205525,全职,1-3年
514,4322200,资深测试工程师J10553,杭州,2018-04-28 11:06:48,18.0,33618,微贷网,微贷（杭州）金融信息服务有限公司,2000人以上,江干区,本科,C轮,金融,120.210125,30.242279,全职,3-5年
515,4452071,软件测试工程师,长沙,2018-04-28 10:09:28,5.6,37483,湖南芒果优秀网络科技有限公司,湖南芒果优秀网络科技有限公司,50-150人,开福区,本科,A轮,移动互联网,112.999887,28.216525,全职,1-3年
516,4436407,测试开发工程师,北京,2018-04-28 09:44:25,28.0,1880,快手,北京达佳互联信息技术有限公司,500-2000人,海淀区,本科,D轮及以上,移动互联网,116.316508,39.984066,全职,3-5年
517,4274815,资深测试专家,广州,2018-04-27 16:34:34,28.0,22790,网易游戏,广州博冠信息科技有限公司,2000人以上,天河区,硕士,上市公司,游戏,113.321853,23.122696,全职,5-10年
518,4068108,测试总监,北京,2018-04-27 10:10:42,24.0,53308,妙健康,北京妙医佳信息技术有限公司,50-150人,朝阳区,本科,B轮,移动互联网,116.47384,39.90257,全职,5-10年
519,4332255,测试开发工程师,杭州,2018-04-27 09:34:47,19.0,255742,PingPong金融,杭州呯嘭智能技术有限公司,150-500人,滨江区,本科,B轮,"金融,电子商务",120.211816,30.20856,全职,3-5年
520,3577662,测试工程师,广州,2018-04-26 21:53:03,5.6,257806,前海易物,前海易物（深圳）电子商务有限公司广州分公司,150-500人,海珠区,大专,A轮,"电子商务,移动互联网",113.368263,23.096482,全职,1-3年
521,4490050,测试经理,佛山,2018-04-26 18:07:24,15.2,149167,美云智数,深圳美云智数科技有限公司,500-2000人,顺德区,本科,不需要融资,"企业服务,数据服务",113.219574,22.934207,全职,5-10年
522,3714843,测试工程师,上海,2018-04-26 17:55:16,13.2,41194,泰为,泰为信息科技（上海）有限公司,150-500人,长宁区,本科,上市公司,移动互联网,121.39854,31.20641,全职,3-5年
523,4229347,测试专家,杭州,2018-04-26 17:33:07,20.8,10359,酷家乐,杭州群核信息技术有限公司,500-2000人,拱墅区,本科,D轮及以上,移动互联网,120.108647,30.293154,全职,5-10年
524,3324462,测试工程师,上海,2018-04-25 13:58:44,7.0,225665,惠龙易通,惠龙易通国际物流股份有限公司,150-500人,浦东新区,大专,A轮,"移动互联网,电子商务",121.544379,31.221517,全职,1-3年
525,3875826,测试工程师（南京）,南京,2018-04-28 18:01:36,14.0,112992,美篇,南京蓝鲸人网络科技有限公司,50-150人,雨花台区,本科,A轮,"移动互联网,社交网络",118.76433,31.97122,全职,1-3年
526,2947176,测试开发工程师,杭州,2018-04-28 15:30:26,19.0,210,企朋,浙江企朋网络技术股份有限公司,150-500人,西湖区,本科,A轮,"移动互联网,电子商务",119.993591,29.993662,全职,1-3年
527,3864527,性能测试工程师,北京,2018-04-28 15:14:08,26.0,136978,玖富集团,玖富金科控股集团有限责任公司,2000人以上,朝阳区,本科,C轮,金融,116.480792,39.99613,全职,3-5年
528,4382001,测试工程师-WL,上海,2018-04-28 11:48:34,16.0,161307,瀚德金融,深圳瀚德金融科技控股有限公司,150-500人,浦东新区,本科,不需要融资,金融,39.897445,116.331398,全职,1-3年
529,3440068,软件测试工程师,上海,2018-04-28 11:27:27,12.0,128998,江苏亿科达,上海海万信息科技股份有限公司,500-2000人,徐汇区,大专,不需要融资,"移动互联网,金融",121.456306,31.18335,全职,3-5年
530,3679432,软件测试工程师,重庆,2018-04-28 10:11:01,7.0,31076,重庆融特通信技术有限公司,重庆融特通信技术有限公司,50-150人,九龙坡区,本科,未融资,"移动互联网,文化娱乐",106.48575,29.53096,全职,3-5年
531,3513140,测试工程师,杭州,2018-04-28 09:23:30,8.2,101746,财人汇,杭州财人汇网络股份有限公司,150-500人,滨江区,本科,上市公司,"移动互联网,金融",120.210423,30.204921,全职,1-3年
532,3640448,测试工程师,杭州,2018-04-27 18:35:57,10.8,96921,远传技术,浙江远传信息技术股份有限公司,150-500人,滨江区,本科,上市公司,移动互联网,120.167887,30.193444,全职,5-10年
533,4302565,测试开发工程师,北京,2018-04-27 18:05:15,21.0,139755,京东商城,北京京东世纪贸易有限公司,2000人以上,大兴区,本科,上市公司,电子商务,116.505858,39.793114,全职,3-5年
534,3890501,CBS测试工程师,南京,2018-04-27 15:21:29,8.4,16831,武汉佰钧成技术有限公司,武汉佰钧成技术有限责任公司,2000人以上,雨花台区,本科,不需要融资,移动互联网,118.767867,31.986663,全职,1-3年
535,4305587,测试实习生,杭州,2018-04-27 10:57:57,2.4,29373,微链welian.com,杭州传送门网络科技有限公司,50-150人,西湖区,本科,B轮,社交网络,120.12319,30.29216004,实习,不限
536,2965092,测试工程师（初级）,杭州,2018-04-27 09:54:50,10.8,35559,亲宝宝,杭州点望科技有限公司,150-500人,西湖区,本科,B轮,"移动互联网,社交网络",120.097412,30.266811,全职,1-3年
537,4315227,测试工程师,北京,2018-04-25 20:30:23,14.0,6702,Zenjoy,北京创智优品科技有限公司,150-500人,东城区,本科,不需要融资,"移动互联网,游戏",116.433097,39.921566,全职,1-3年
538,3197331,测试专家,杭州,2018-04-25 14:03:08,35.0,200554,阿里巴巴-平台技术事业群,阿里巴巴（中国）网络技术有限公司,2000人以上,余杭区,本科,上市公司,"电子商务,数据服务",120.002035,30.27563,全职,3-5年
539,4127679,测试工程师,上海,2018-04-25 09:59:54,10.8,23875,黄金钱包,北京盈衍网络科技有限公司,50-150人,静安区,本科,C轮,"移动互联网,金融",121.481197,31.250595,全职,1-3年
540,3973453,测试工程师,杭州,2018-04-27 10:57:57,11.2,29373,微链welian.com,杭州传送门网络科技有限公司,50-150人,西湖区,本科,B轮,社交网络,120.12319,30.29216004,全职,1-3年
541,4070946,测试leader,杭州,2018-04-25 08:58:18,22.0,286403,无端科技,浙江无端科技股份有限公司,150-500人,西湖区,本科,A轮,游戏,0.0,0.0,全职,3-5年
542,1160781,测试工程师,广州,2018-04-23 23:51:29,6.2,70967,移步到微,广州三尺信息科技有限公司,15-50人,天河区,大专,A轮,"移动互联网,企业服务",,,全职,1-3年
543,4256142,测试工程师,北京,2018-04-05 13:02:56,15.2,196329,新智超脑,新智超脑科技有限公司,500-2000人,朝阳区,本科,不需要融资,"数据服务,电子商务",116.484611,40.006747,全职,3-5年
544,4076950,测试工程师,北京,2018-04-29 16:20:37,18.4,98754,云账户,天津益阳煜赢网络科技有限公司,50-150人,朝阳区,本科,B轮,"O2O,金融",116.482106,39.996356,全职,3-5年
545,1770800,游戏测试,上海,2018-04-28 18:34:00,5.6,76949,鲸歌网络,上海鲸歌网络科技有限公司,15-50人,浦东新区,大专,A轮,"移动互联网,游戏",121.62834992,31.20841944,全职,1-3年
546,4498668,测试工程师,北京,2018-04-28 17:17:43,11.2,95651,玩吧,北京默契破冰科技有限公司,50-150人,东城区,本科,B轮,"移动互联网,社交网络",116.433486,39.940836,全职,1-3年
547,4501012,测试工程师,杭州,2018-04-28 17:16:48,7.2,152536,UQPAY,宁夏友乾网络科技有限公司杭州分公司,15-50人,西湖区,本科,不需要融资,移动互联网,120.124134,30.291882,全职,1-3年
548,3623315,高级测试工程师,北京,2018-04-28 15:49:14,24.8,146195,博晨技术,北京博晨技术有限公司,50-150人,朝阳区,本科,A轮,企业服务,116.488885,39.999258,全职,5-10年
549,4318818,测试工程师,广州,2018-04-27 20:09:51,10.8,123777,通力互联,北京通力互联技术服务有限公司,2000人以上,天河区,大专,不需要融资,"电子商务,企业服务",113.403742,23.173642,全职,3-5年
550,4301777,资深测试工程师/测试专家,北京,2018-04-27 20:05:04,28.0,113529,同道金融,同道金融服务集团有限公司,50-150人,朝阳区,本科,未融资,金融,116.456602,39.910308,全职,10年以上
551,3766383,测试工程师,杭州,2018-04-27 18:35:57,9.0,96921,远传技术,浙江远传信息技术股份有限公司,150-500人,滨江区,本科,上市公司,移动互联网,120.167887,30.193444,全职,3-5年
552,4134416,技术测试工程师/实习生,北京,2018-04-27 17:51:12,5.6,43792,帮你玩,北京帮你玩科技有限公司,15-50人,朝阳区,不限,天使轮,移动互联网,0.0,0.0,全职,不限
553,3748021,测试工程师,北京,2018-04-27 15:45:50,12.0,103163,高登世德金融科技,贵阳高登世德金融科技有限公司,50-150人,大兴区,本科,A轮,"金融,数据服务",116.563123,39.785824,全职,1-3年
554,4370200,测试工程师,深圳,2018-04-27 11:44:27,15.2,312260,云启星辰,深圳市云启星辰高新科技有限责任公司,少于15人,南山区,本科,天使轮,移动互联网,0.0,0.0,全职,3-5年
555,4356124,测试工程师,武汉,2018-04-26 17:58:10,10.8,38388,湖北云天下教育科技有限公司,湖北云天下教育科技有限公司,150-500人,洪山区,本科,A轮,"移动互联网,教育",114.410929,30.483209,全职,1-3年
556,3357623,测试开发工程师,北京,2018-04-26 14:27:57,14.4,145061,HOLLA Group,达摩英时（北京）网络科技有限公司,15-50人,朝阳区,本科,A轮,"移动互联网,社交网络",116.432958,39.922368,全职,1-3年
557,4480130,测试工程师,上海,2018-04-25 14:27:10,10.8,44340,申通快递,申通快递有限公司,2000人以上,青浦区,大专,上市公司,生活服务,121.195939,31.193879,全职,1-3年
558,3692051,无线测试工程师,北京,2018-04-25 11:19:14,12.0,109,马蜂窝,北京蚂蜂窝网络科技有限公司,500-2000人,朝阳区,本科,D轮及以上,"移动互联网,旅游",39.897445,116.331398,全职,1-3年
559,4456785,测试主管,天津,2018-04-20 14:48:27,12.0,31444,神州商龙,天津市神州商龙科技股份有限公司,150-500人,南开区,大专,上市公司,"移动互联网,O2O",117.121911,39.090899,全职,3-5年
560,3676523,高级测试工程师,深圳,2018-04-28 17:09:56,13.2,66841,大辰,深圳市大辰科技有限公司,50-150人,南山区,本科,不需要融资,移动互联网,113.9422,22.54878,全职,3-5年
561,1565626,游戏测试,厦门,2018-04-28 16:53:36,4.8,47683,厦门梦加,厦门梦加网络科技股份有限公司,150-500人,思明区,不限,D轮及以上,"移动互联网,游戏",118.09478657,24.46319282,全职,1-3年
562,4217843,中级测试工程师,北京,2018-04-28 15:34:35,17.0,287849,弘道,北京弘道智慧中医技术有限公司,50-150人,海淀区,大专,不需要融资,"医疗健康,数据服务",116.3075,39.983783,全职,1-3年
563,3920727,测试工程师,北京,2018-04-28 11:52:02,14.0,273030,中金中富,中金中富（北京）文化传媒有限公司,150-500人,朝阳区,大专,A轮,移动互联网,116.463545,39.921316,全职,3-5年
564,4159943,直播测试,上海,2018-04-28 09:51:00,10.8,14983,游族网络,上海游族信息技术有限公司,500-2000人,徐汇区,不限,上市公司,"移动互联网,游戏",39.897445,116.331398,全职,1-3年
565,4489420,测试主管,上海,2018-04-28 09:49:22,17.8,213202,仁辉科技,银川仁辉信息科技有限公司,50-150人,浦东新区,本科,不需要融资,金融,121.605961,31.180642,全职,3-5年
566,3084946,软件测试工程师,杭州,2018-04-28 09:14:48,13.2,16831,武汉佰钧成技术有限公司,武汉佰钧成技术有限责任公司,2000人以上,余杭区,大专,不需要融资,移动互联网,,,全职,3-5年
567,3050625,测试工程师,北京,2018-04-27 17:34:35,14.0,150239,考拉阅读,北京享阅教育科技有限公司,50-150人,海淀区,本科,B轮,"教育,移动互联网",116.302508,39.960317,全职,1-3年
568,4494062,测试工程师,北京,2018-04-27 15:06:36,12.0,101611,信达泰和,北京信达泰和数据技术有限公司,500-2000人,东城区,本科,A轮,"企业服务,数据服务",116.408554,39.968067,全职,3-5年
569,4492695,测试工程师,杭州,2018-04-27 11:44:33,8.2,173746,好衣库,杭州好一库网络科技有限公司,50-150人,余杭区,大专,A轮,生活服务,120.022358,30.275822,全职,1-3年
570,3147560,测试工程师,杭州,2018-04-27 09:50:06,11.2,35980,车纷享,杭州车厘子智能科技有限公司,150-500人,滨江区,大专,不需要融资,移动互联网,120.18125,30.185411,全职,1-3年
571,2722752,测试工程师,杭州,2018-04-27 09:41:38,10.8,68796,连连支付,连连银通电子支付有限公司,150-500人,滨江区,本科,不需要融资,移动互联网,120.18644,30.188299,全职,3-5年
572,4491123,高级测试工程师,上海,2018-04-27 09:32:43,13.2,159827,快猫文化,上海快猫文化传媒有限公司,150-500人,浦东新区,本科,不需要融资,"移动互联网,文化娱乐",121.602816,31.176723,全职,1-3年
573,3484465,测试工程师,天津,2018-04-26 15:31:02,8.4,130070,智冠,天津中新智冠信息技术有限公司,50-150人,南开区,本科,不需要融资,"移动互联网,O2O",117.150193,39.08547,全职,5-10年
574,3633992,测试工程师,北京,2018-04-26 14:04:15,12.0,38932,钛马车联网,钛马信息网络技术有限公司,150-500人,昌平区,本科,B轮,"移动互联网,数据服务",116.274762,40.124022,全职,5-10年
575,3867702,软件测试,佛山,2018-04-24 09:20:00,10.6,16831,武汉佰钧成技术有限公司,武汉佰钧成技术有限责任公司,2000人以上,顺德区,大专,不需要融资,移动互联网,113.219574,22.934207,全职,3-5年
576,3995695,测试经理,杭州,2018-04-18 18:40:24,14.4,285567,觅睿科技,杭州觅睿科技有限公司,50-150人,滨江区,本科,不需要融资,"硬件,移动互联网",120.206657,30.170564,全职,3-5年
577,4197568,资深测试专家,杭州,2018-04-16 16:30:55,19.0,46629,金诚集团,浙江诚泽金开投资管理有限公司,2000人以上,拱墅区,本科,上市公司,金融,120.144599,30.313212,全职,5-10年
578,4095989,测试工程师,北京,2018-04-06 16:53:50,21.0,7202,布劳克晨,北京布劳克晨信息技术有限公司,50-150人,朝阳区,不限,天使轮,移动互联网,116.491317,39.969675,全职,不限
579,4204765,系统测试工程师,北京,2018-04-28 16:29:14,8.4,77306,零零无限,北京零零无限科技有限公司,50-150人,朝阳区,本科,A轮,硬件,116.460636,39.929416,全职,1-3年
580,1568574,测试经理/测试主管/测试组长,杭州,2018-04-28 15:30:27,26.0,210,企朋,浙江企朋网络技术股份有限公司,150-500人,西湖区,不限,A轮,"移动互联网,电子商务",120.064817,30.289991,全职,3-5年
581,4479709,测试工程师,上海,2018-04-28 13:16:46,14.0,56741,红星美凯龙互联网集团,红星美凯龙家居集团股份有限公司,2000人以上,普陀区,本科,上市公司,"移动互联网,O2O",121.38534,31.237414,全职,1-3年
582,3862882,中级测试（金服）,杭州,2018-04-28 11:12:32,15.2,198523,新光供应链,新光供应链管理有限公司,150-500人,上城区,本科,未融资,金融,120.169329,30.242312,全职,3-5年
583,3073964,搜狗测试-iOS测试开发工程师,北京,2018-04-28 10:39:30,19.0,1537,搜狗,北京搜狗科技发展有限公司,2000人以上,海淀区,本科,上市公司,"移动互联网,数据服务",116.33254,39.99366006,全职,1-3年
584,4496376,测试工程师,北京,2018-04-27 19:30:28,7.0,236405,曜辉科技,北京曜辉信息科技有限公司,15-50人,朝阳区,大专,未融资,"移动互联网,企业服务",116.465953,40.021083,全职,不限
585,3922805,测试主管,广州,2018-04-27 18:39:01,14.0,163964,傲银科技,广州傲银信息科技有限责任公司,15-50人,海珠区,本科,未融资,"文化娱乐,游戏",113.385013,23.102233,全职,3-5年
586,2790513,测试工程师,杭州,2018-04-27 14:45:03,14.0,108160,聚贸,浙江聚贸电子商务有限公司,150-500人,西湖区,本科,不需要融资,"金融,电子商务",120.13095,30.264345,全职,5-10年
587,4492921,测试工程师,上海,2018-04-27 12:06:50,12.0,14607,微浪科技,苏州微浪科技股份有限公司,50-150人,徐汇区,本科,未融资,"移动互联网,电子商务",121.456585,31.18314,全职,3-5年
588,3816323,测试工程师,杭州,2018-04-27 10:19:55,15.2,26564,贝贝网,杭州贝购科技有限公司,500-2000人,江干区,本科,D轮及以上,电子商务,120.258897,30.308363,全职,3-5年
589,2616358,软件测试工程师,杭州,2018-04-27 10:14:38,14.0,87100,信用管家,杭州信牛网络科技有限公司,150-500人,西湖区,大专,A轮,"移动互联网,金融",120.071837,30.287159,全职,3-5年
590,670265,测试工程师,北京,2018-04-27 09:45:54,7.6,8861,妙计旅行,北京汇行科技有限公司,150-500人,东城区,本科,B轮,旅游,116.41497999,39.94801007,全职,1-3年
591,4490021,【急招】软件测试工程师（美拍）-厦门,厦门,2018-04-26 18:04:54,13.2,23291,美图公司,厦门美图之家科技有限公司,500-2000人,思明区,不限,上市公司,"移动互联网,硬件",118.179899,24.489558,全职,1-3年
592,4335559,测试工程师,北京,2018-04-25 17:20:12,19.0,29697,方圆奇正,北京方圆奇正数码科技有限公司,50-150人,海淀区,本科,未融资,"移动互联网,游戏",116.324867,39.964579,全职,3-5年
593,3682246,测试开发工程师,杭州,2018-04-25 14:17:45,22.0,9327,铭师堂,杭州铭师堂教育科技发展有限公司,500-2000人,拱墅区,本科,不需要融资,"移动互联网,教育",120.141387,30.320581,全职,3-5年
594,2702676,测试开发工程师,上海,2018-04-25 12:00:10,15.2,30830,哔哩哔哩,上海幻电信息科技有限公司,2000人以上,浦东新区,本科,上市公司,"移动互联网,文化娱乐",121.99341,30.994275,全职,1-3年
595,4006138,测试经理,北京,2018-04-25 11:48:52,19.0,105726,中棋惟业,天津中棋惟业体育发展有限公司,50-150人,东城区,本科,B轮,"移动互联网,教育",116.42226,39.87357,全职,5-10年
596,3577940,测试工程师,杭州,2018-04-25 09:10:45,7.6,112666,浙江远图互联科技股份有限公司,浙江远图互联科技股份有限公司,150-500人,西湖区,不限,上市公司,"移动互联网,医疗健康",120.064595,30.308078,全职,不限
597,4446460,测试总监,北京,2018-04-19 09:34:15,38.0,7292,畅聊天下,北京畅聊天下科技有限公司,150-500人,海淀区,不限,B轮,移动互联网,116.308144,40.045415,全职,5-10年
598,2884426,测试工程师,上海,2018-04-28 11:00:32,9.6,118786,闪电降价APP,上海欢尚电子商务有限公司,150-500人,静安区,大专,B轮,"移动互联网,电子商务",121.456722,31.293989,全职,3-5年
599,3811210,白盒/开发测试工程师,北京,2018-04-27 18:27:50,14.0,129929,速感科技,速感科技（北京）有限公司,50-150人,海淀区,本科,B轮,"硬件,移动互联网",116.346398,39.976678,全职,1-3年
600,4302531,测试工程师,北京,2018-04-27 18:05:15,21.0,139755,京东商城,北京京东世纪贸易有限公司,2000人以上,大兴区,本科,上市公司,电子商务,116.505858,39.793114,全职,3-5年
601,4365107,测试开发工程师,北京,2018-04-27 16:28:04,19.0,10723,酷划在线,北京酷划在线网络技术有限公司,50-150人,海淀区,本科,不需要融资,移动互联网,116.355305,40.009084,全职,3-5年
602,2806380,测试开发工程师,杭州,2018-04-27 09:41:52,14.0,65155,海拍客,杭州洋驼网络科技有限公司,500-2000人,西湖区,大专,C轮,电子商务,120.0701,30.277941,全职,1-3年
603,2385463,测试经理,广州,2018-04-26 17:44:06,12.0,122959,广州李子网络科技有限公司,广州李子网络科技有限公司,15-50人,天河区,大专,不需要融资,"移动互联网,电子商务",113.320574,23.118856,全职,3-5年
604,4488957,测试工程师,武汉,2018-04-26 16:36:58,7.6,37203,九恒星,北京九恒星科技股份有限公司,150-500人,武昌区,本科,上市公司,金融,114.341085,30.554869,全职,不限
605,4044890,测试工程师,北京,2018-04-26 14:11:17,8.6,157387,水母基因,北京水母科技有限公司,50-150人,通州区,本科,A轮,"医疗健康,移动互联网",116.570329,39.781515,全职,3-5年
606,4448483,软件测试工程师,深圳,2018-04-26 10:09:56,9.0,119788,汇金智融,汇金智融（北京）科技有限公司,150-500人,南山区,本科,上市公司,"移动互联网,电子商务",113.940221,22.545184,全职,1-3年
607,4314736,测试工程师,上海,2018-04-25 12:00:08,21.0,30830,哔哩哔哩,上海幻电信息科技有限公司,2000人以上,杨浦区,本科,上市公司,"移动互联网,文化娱乐",121.506437,31.308258,全职,3-5年
608,4229004,测试员,宁波,2018-04-24 10:34:03,4.4,306359,宁波漫索,宁波漫索信息技术有限公司,15-50人,镇海区,大专,不需要融资,"移动互联网,教育",121.610964,29.917204,全职,1-3年
609,4168617,测试工程师,深圳,2018-04-23 12:18:02,12.0,184532,Bello,深圳呗佬智能有限公司,15-50人,南山区,本科,A轮,移动互联网,113.938223,22.523806,全职,1-3年
610,4193199,测试工程师,深圳,2018-04-20 15:02:20,17.0,273811,来去,来去技术（深圳）有限公司,15-50人,南山区,本科,A轮,"硬件,社交网络",113.941629,22.526905,全职,3-5年
611,4408693,软件测试,郑州,2018-04-12 10:28:17,10.8,16831,武汉佰钧成技术有限公司,武汉佰钧成技术有限责任公司,2000人以上,管城区,大专,不需要融资,移动互联网,0.0,0.0,全职,3-5年
612,4409318,测试开发工程师,上海,2018-04-30 07:21:56,21.0,38432,TutorABC英语,威比网络科技（上海）有限公司,2000人以上,杨浦区,本科,C轮,"移动互联网,教育",121.511516,31.26029,全职,不限
613,4135613,资深测试开发工程师,广州,2018-04-29 15:36:08,26.0,129877,航仕科技,上海航仕企业管理有限公司,150-500人,天河区,本科,C轮,"移动互联网,O2O",112.993461,22.994261,全职,3-5年
614,3560194,测试工程师,北京,2018-04-28 15:49:14,16.4,146195,博晨技术,北京博晨技术有限公司,50-150人,朝阳区,本科,A轮,企业服务,116.488715,39.998933,全职,3-5年
615,1124727,测试工程师,广州,2018-04-28 14:54:31,7.4,55142,数商云,广州市数商云网络科技有限公司,50-150人,海珠区,大专,未融资,"移动互联网,电子商务",113.36899,23.09799,实习,不限
616,3791437,测试工程师,上海,2018-04-28 14:44:30,10.8,254581,小黑鱼科技有限公司,小黑鱼科技有限公司,150-500人,浦东新区,本科,未融资,"移动互联网,金融",121.486531,31.181806,全职,1-3年
617,4498871,软件测试工程师,杭州,2018-04-28 13:38:47,12.6,130659,舟恩信息,上海舟恩信息技术有限公司,150-500人,西湖区,本科,不需要融资,移动互联网,120.14657,30.278894,全职,3-5年
618,4464143,测试经理,北京,2018-04-28 10:58:01,24.0,75182,缤果盒子,北京缤歌网络科技有限公司,500-2000人,朝阳区,本科,B轮,"移动互联网,O2O",116.480206,39.997039,全职,5-10年
619,4048941,测试工程师,上海,2018-04-28 10:46:28,12.0,61875,设计院,广东省电信规划设计院有限公司,2000人以上,虹口区,本科,上市公司,"移动互联网,金融",121.486394,31.248034,全职,3-5年
620,2748614,测试工程师,杭州,2018-04-28 10:16:29,12.0,14093,瞬联软件科技（北京）有限公司,瞬联软件科技（北京）有限公司,500-2000人,西湖区,本科,不需要融资,"移动互联网 ,企业服务",120.074402,30.290911,全职,1-3年
621,1165829,测试工程师,杭州,2018-04-28 08:44:43,14.0,70567,360shop,杭州启博科技有限公司,150-500人,西湖区,大专,A轮,"移动互联网,电子商务",120.098564,30.302201,全职,1-3年
622,4105104,测试开发工程师,北京,2018-04-27 20:44:58,21.0,534,京东金融,京东金融,2000人以上,大兴区,本科,上市公司,金融,116.41874886,39.64659178,全职,3-5年
623,2449833,软件测试,上海,2018-04-27 14:53:22,7.6,24995,泛微,上海泛微网络科技股份有限公司,2000人以上,闵行区,本科,上市公司,"移动互联网,企业服务",121.52396,31.07979,全职,1-3年
624,3855583,资深测试工程师,杭州,2018-04-27 14:05:38,20.8,85122,Caicloud,杭州才云科技有限公司,50-150人,滨江区,本科,B轮,"企业服务,数据服务",120.13848,30.18369,全职,5-10年
625,4204085,测试工程师,深圳,2018-04-27 12:04:56,4.8,143950,农博创新NBI,深圳市农博创新科技有限公司,15-50人,南山区,大专,A轮,"硬件,移动互联网",113.949756,22.550734,全职,1年以下
626,4265222,测试工程师,杭州,2018-04-26 14:37:28,5.8,52954,鸿程系统,浙江鸿程计算机系统有限公司,500-2000人,江干区,本科,不需要融资,"移动互联网,数据服务",120.201389,30.263386,全职,1-3年
627,4192800,初中级测试工程师,北京,2018-04-26 10:50:54,10.8,73184,薪人薪事,企家有道网络技术（北京）有限公司,50-150人,朝阳区,本科,B轮,企业服务,116.468774,40.012499,全职,1-3年
628,4295617,测试工程师,上海,2018-04-25 15:23:04,7.2,23173,SideChef,上海楷育信息科技有限公司,15-50人,黄浦区,本科,天使轮,移动互联网,121.466476,31.207993,全职,1年以下
629,3488556,测试工程师,广州,2018-04-21 11:33:04,23.2,16831,武汉佰钧成技术有限公司,武汉佰钧成技术有限责任公司,2000人以上,天河区,本科,不需要融资,移动互联网,113.3612,23.12468,全职,3-5年
630,4276893,测试工程师,广州,2018-04-28 10:46:28,8.4,61875,设计院,广东省电信规划设计院有限公司,2000人以上,天河区,本科,上市公司,"移动互联网,金融",113.327081,23.117455,全职,1-3年
631,3089904,测试工程师,北京,2018-04-28 17:35:23,8.8,24489,橙光游戏,北京六趣网络科技有限公司,150-500人,海淀区,本科,B轮,游戏,0.0,0.0,全职,1-3年
632,4427107,测试工程师,北京,2018-04-28 17:09:04,12.0,1608,1905电影网,一九零五（北京）网络科技有限公司,150-500人,西城区,本科,未融资,"社交网络,文化娱乐",116.349131,39.942439,全职,3-5年
633,4379548,软件测试,深圳,2018-04-28 15:15:36,12.0,16831,武汉佰钧成技术有限公司,武汉佰钧成技术有限责任公司,2000人以上,龙华新区,不限,不需要融资,移动互联网,114.06515,22.6733,全职,5-10年
634,3967230,测试装备开发工程师,北京,2018-04-28 14:53:19,21.0,126957,北京算云联科,北京算云联科科技有限公司,150-500人,海淀区,本科,不需要融资,"移动互联网,硬件",116.308144,40.045415,全职,5-10年
635,2914269,测试开发工程师,北京,2018-04-28 14:46:21,19.0,81107,一亩田,北京一人一亩田网络科技有限公司,150-500人,海淀区,本科,C轮,"移动互联网,电子商务",116.351057,39.977249,全职,3-5年
636,4499230,测试工程师,广州,2018-04-28 14:28:31,12.4,212032,尚德机构,北京尚德在线教育科技有限公司,2000人以上,天河区,本科,上市公司,教育,113.376521,23.127218,全职,1-3年
637,4433203,测试专员,北京,2018-04-28 11:21:34,7.6,285768,来下科技,北京来下科技有限公司,15-50人,朝阳区,大专,天使轮,"移动互联网,游戏",116.414231,40.032123,全职,不限
638,4036708,测试工程师,北京,2018-04-28 10:30:07,12.0,62,字节跳动,北京字节跳动科技有限公司,2000人以上,海淀区,本科,C轮,"移动互联网,数据服务",39.977067,39.977067,全职,不限
639,3990919,测试,北京,2018-04-28 10:11:26,21.0,1992,有利网,北京弘合柏基金融信息服务有限责任公司,500-2000人,朝阳区,本科,A轮,金融,116.456076,39.948051,全职,5-10年
640,4391210,测试工程师,北京,2018-04-28 10:09:48,12.0,98197,Moka,北京希瑞亚斯科技有限公司,50-150人,海淀区,不限,A轮,企业服务,116.313161,39.984635,全职,1-3年
641,4432001,app测试,北京,2018-04-28 09:44:26,35.0,1880,快手,北京达佳互联信息技术有限公司,500-2000人,海淀区,本科,D轮及以上,移动互联网,116.316508,39.984066,全职,3-5年
642,2666180,测试工程师,北京,2018-04-27 19:24:47,16.8,10369,完美世界,完美世界（北京）软件科技发展有限公司,2000人以上,朝阳区,本科,上市公司,"移动互联网,游戏",116.428841,40.005157,全职,3-5年
643,4368251,测试主管,上海,2018-04-27 11:13:29,13.6,58109,55海淘,五五海淘（上海）科技股份有限公司,150-500人,徐汇区,本科,上市公司,电子商务,121.395972,31.171263,全职,3-5年
644,4446554,软件测试主管,广州,2018-04-26 11:36:04,12.4,67741,三得商城,三得盈佳互联网信息服务有限公司,50-150人,天河区,大专,不需要融资,"移动互联网,电子商务",113.34408,23.11783,全职,3-5年
645,4078663,系统测试Leader,北京,2018-04-28 14:53:19,21.0,126957,北京算云联科,北京算云联科科技有限公司,150-500人,海淀区,本科,不需要融资,"移动互联网,硬件",116.308144,40.045415,全职,10年以上
646,4494525,系统测试工程师,广州,2018-04-27 15:49:41,19.0,16831,武汉佰钧成技术有限公司,武汉佰钧成技术有限责任公司,2000人以上,天河区,本科,不需要融资,移动互联网,0.0,0.0,全职,3-5年
647,478557,手机测试,北京,2018-04-26 10:32:40,10.8,51856,学部,北京易易信息技术有限公司,15-50人,海淀区,本科,天使轮,"移动互联网,教育",116.33742155,39.97853847,全职,1-3年
648,4206562,测试工程师,北京,2018-04-26 09:47:28,11.2,27735,亿欧,北京亿欧网盟科技有限公司,150-500人,朝阳区,本科,B轮,"移动互联网,企业服务",0.0,0.0,全职,1-3年
649,3819342,测试工程师,杭州,2018-04-25 14:58:28,11.2,139350,魔蝎科技,杭州魔蝎数据科技有限公司,50-150人,西湖区,本科,B轮,"数据服务,移动互联网",120.067616,30.285135,全职,1-3年
650,2913910,测试工程师,上海,2018-04-23 17:22:43,13.6,17291,PPTV聚力,上海聚力传媒技术有限公司,500-2000人,浦东新区,本科,D轮及以上,文化娱乐,121.581716,31.19909,全职,3-5年
651,4419647,软件测试工程师,厦门,2018-04-23 13:23:59,8.4,23291,美图公司,厦门美图之家科技有限公司,500-2000人,思明区,不限,上市公司,"移动互联网,硬件",118.179899,24.489558,全职,不限
652,4087545,测试工程师,北京,2018-04-17 11:01:56,28.0,50702,美团点评,北京三快在线科技有限公司,2000人以上,朝阳区,本科,D轮及以上,"移动互联网,O2O",116.488105,40.008727,全职,3-5年
653,2187142,测试工程师,武汉,2018-04-30 02:37:17,8.4,140572,佰益源,武汉佰益源信息科技有限公司,50-150人,硚口区,不限,天使轮,"移动互联网,企业服务",114.194181,30.604995,全职,1-3年
654,4086111,测试工程师,北京,2018-04-28 16:28:00,14.6,272762,中科物安,北京中科物安科技有限公司,15-50人,海淀区,本科,未融资,信息安全,116.234622,39.954239,全职,3-5年
655,3931166,QA测试工程师（实习）,广州,2018-04-28 14:18:45,2.4,97897,卓游科技,广州卓游信息科技有限公司,50-150人,海珠区,本科,不需要融资,"移动互联网,游戏",0.0,0.0,实习,应届毕业生
656,3864354,测试工程师,北京,2018-04-28 13:33:52,14.0,57049,InnoTREE,北京因果树网络科技有限公司,50-150人,海淀区,本科,B轮,金融,116.306683,39.984791,全职,3-5年
657,4498492,资深测试工程师/测试专家,杭州,2018-04-28 11:52:11,26.0,26564,贝贝网,杭州贝购科技有限公司,500-2000人,江干区,本科,D轮及以上,电子商务,39.897445,116.331398,全职,5-10年
658,3440319,测试工程师,杭州,2018-04-28 11:47:58,10.8,57253,闪电购,杭州抢趣网络科技有限公司,150-500人,西湖区,本科,C轮,"移动互联网,企业服务",0.0,0.0,全职,1-3年
659,4493570,软件测试工程师,上海,2018-04-28 11:42:15,12.0,64791,翼勋金融,上海翼勋互联网金融信息服务有限公司,2000人以上,浦东新区,本科,不需要融资,金融,121.624653,31.226515,全职,3-5年
660,3959324,性能测试工程师,广州,2018-04-28 09:39:41,10.8,37398,亚美,广州亚美信息科技有限公司,150-500人,天河区,本科,不需要融资,移动互联网,113.347222,23.143984,全职,1-3年
661,3148307,测试工程师,杭州,2018-04-28 09:31:11,7.0,154789,数心科技,杭州数心网络科技有限公司,15-50人,余杭区,本科,A轮,企业服务,120.00487,30.292227,全职,1-3年
662,3836026,中高级测试工程师,深圳,2018-04-28 09:28:40,10.4,217638,西柚集,深圳市场景零售科技有限公司,15-50人,南山区,本科,天使轮,移动互联网,113.942084,22.548687,全职,3-5年
663,2651564,软件测试,杭州,2018-04-28 09:15:41,8.4,124100,星巢网络,杭州星巢网络科技有限公司,50-150人,西湖区,不限,A轮,"游戏,电子商务",0.0,0.0,全职,1-3年
664,3929150,软件测试工程师,北京,2018-04-27 12:06:45,28.0,1561,Face++,北京旷视科技有限公司,500-2000人,海淀区,本科,C轮,"移动互联网,硬件",116.325436,39.984273,全职,5-10年
665,3774613,测试开发,杭州,2018-04-27 10:27:35,14.4,13163,个推,浙江每日互动网络科技股份有限公司,150-500人,西湖区,本科,D轮及以上,移动互联网,120.114636,30.290547,全职,3-5年
666,3746799,测试工程师（中级）,北京,2018-04-26 15:44:41,9.8,53310,慧友云商,北京慧友云商科技有限公司,50-150人,西城区,本科,B轮,移动互联网,116.354633,39.950966,全职,3-5年
667,4284201,QA测试员,上海,2018-04-26 12:30:57,6.8,337453,Victory game,上海捷玩网络科技有限公司,50-150人,徐汇区,大专,B轮,游戏,121.417147,31.175781,全职,3-5年
668,2687559,测试工程师,北京,2018-04-26 11:41:16,6.2,22634,大洋,北京中科大洋科技发展股份有限公司,500-2000人,海淀区,本科,未融资,文化娱乐,116.29422,40.05067,全职,1-3年
669,4093374,IQ测试工程师,杭州,2018-04-26 09:44:46,13.2,305247,虹软,虹亚（南京）多媒体科技有限公司,500-2000人,西湖区,本科,不需要融资,"移动互联网,信息安全",120.11626,30.290358,全职,1-3年
670,4426060,测试开发工程师,杭州,2018-04-25 09:53:03,11.4,10323,畅唐网络,浙江畅唐网络股份有限公司,500-2000人,滨江区,本科,不需要融资,游戏,119.993591,29.993662,全职,5-10年
671,4303049,测试工程师J11034,成都,2018-04-23 16:57:34,10.8,7551,客如云,客如云科技（北京）股份有限公司,500-2000人,高新区,本科,C轮,"移动互联网,O2O",104.068251,30.540248,全职,3-5年
672,3699195,软件测试工程师,广州,2018-04-28 17:58:21,4.8,257650,广州玖维信息科技有限公司,广州玖维信息科技有限公司,150-500人,海珠区,大专,上市公司,"移动互联网,数据服务",113.322983,23.096894,全职,1年以下
673,3768670,外派顺丰--测试工程师,深圳,2018-04-28 17:57:48,10.2,16831,武汉佰钧成技术有限公司,武汉佰钧成技术有限责任公司,2000人以上,南山区,本科,不需要融资,移动互联网,113.937987,22.523392,全职,3-5年
674,3857970,系统测试工程师,北京,2018-04-28 16:19:30,21.0,83585,XSKY,星辰天合（北京）数据科技有限公司,150-500人,海淀区,本科,B轮,企业服务,116.28944,39.96065,全职,3-5年
675,3930755,测试工程师,北京,2018-04-28 14:33:27,9.8,202315,袋鼠部落影业,北京袋鼠部落影业有限公司,50-150人,朝阳区,本科,天使轮,"文化娱乐,移动互联网",116.452842,39.913572,全职,1-3年
676,4499008,测试工程师,北京,2018-04-28 13:58:53,15.2,114110,乐视,乐视网信息技术（北京）股份有限公司,2000人以上,朝阳区,本科,上市公司,移动互联网,116.492605,39.934758,全职,3-5年
677,4338274,测试开发工程师,北京,2018-04-28 13:58:10,28.0,520,小米,北京小米科技有限责任公司,2000人以上,海淀区,本科,D轮及以上,移动互联网,116.328617,40.045934,全职,3-5年
678,4335084,测试主管,广州,2018-04-28 13:28:24,10.8,260189,潮世界传媒,深圳潮世界传媒有限公司,50-150人,白云区,大专,不需要融资,"移动互联网,电子商务",0.0,0.0,全职,3-5年
679,3959694,测试工程师,北京,2018-04-28 10:11:25,19.0,1992,有利网,北京弘合柏基金融信息服务有限责任公司,500-2000人,朝阳区,本科,A轮,金融,116.456076,39.948051,全职,3-5年
680,4368650,测试工程师,北京,2018-04-28 09:42:47,12.0,12817,穷游网,寰宇慧旅(北京)科技有限公司,150-500人,东城区,本科,D轮及以上,移动互联网,116.435339,39.942044,全职,1-3年
681,4289130,软件测试工程师-杭州-01922,杭州,2018-04-28 09:26:04,10.8,16831,武汉佰钧成技术有限公司,武汉佰钧成技术有限责任公司,2000人以上,西湖区,大专,不需要融资,移动互联网,0.0,0.0,全职,3-5年
682,4312567,可靠性测试,上海,2018-04-28 09:19:12,10.8,337876,薇薇印刷,宁波薇薇珺晨广告设计有限公司,15-50人,浦东新区,本科,不需要融资,其他,121.634663,31.263101,全职,1-3年
683,3855640,高级测试工程师,杭州,2018-04-27 14:05:39,13.2,85122,Caicloud,杭州才云科技有限公司,50-150人,滨江区,本科,B轮,"企业服务,数据服务",120.13848,30.18369,全职,3-5年
684,4275153,测试工程师,上海,2018-04-27 13:31:18,12.0,69152,博奥特科技,深圳市博奥特科技有限公司,150-500人,徐汇区,大专,未融资,"移动互联网,金融",121.456116,31.183131,全职,3-5年
685,4490095,测试工程师,北京,2018-04-26 18:12:40,10.0,3522,易宝支付,易宝支付有限公司,500-2000人,朝阳区,本科,D轮及以上,"移动互联网,金融",116.457179,39.919735,全职,1-3年
686,3725728,测试工程师,上海,2018-04-26 18:04:13,19.0,47865,飞驰镁物,飞驰镁物（北京）信息服务有限公司,150-500人,嘉定区,本科,B轮,"移动互联网,数据服务",121.183218,31.282476,全职,3-5年
687,3343145,高级测试工程师,北京,2018-04-26 14:27:57,14.4,145061,HOLLA Group,达摩英时（北京）网络科技有限公司,15-50人,海淀区,本科,A轮,"移动互联网,社交网络",116.308891,39.980691,全职,3-5年
688,3311691,软件测试工程师,济南,2018-04-26 09:17:58,5.2,205704,好食好客餐饮酒店软件,山东好食好客信息科技股份有限公司,50-150人,高新区,本科,不需要融资,"移动互联网,O2O",117.134493,36.678096,全职,1-3年
689,4009909,测试,上海,2018-04-19 17:33:36,2.8,82635,上海华瑞银行,上海华瑞银行股份有限公司,150-500人,浦东新区,本科,不需要融资,金融,121.531673,31.216762,实习,应届毕业生
690,3714533,测试总监,天津,2018-04-19 16:14:58,12.0,31444,神州商龙,天津市神州商龙科技股份有限公司,150-500人,南开区,大专,上市公司,"移动互联网,O2O",117.121911,39.090899,全职,5-10年
691,2419445,测试工程师,上海,2018-04-18 21:30:13,14.0,108993,贝致,上海宇力生物科技有限公司,15-50人,杨浦区,大专,A轮,"移动互联网,医疗健康",121.99341,30.994275,全职,1-3年
692,4351890,测试工程师,南京,2018-04-17 15:02:42,10.8,24780,诚迈科技,诚迈科技（南京）股份有限公司,2000人以上,建邺区,大专,上市公司,移动互联网,118.724852,32.002086,全职,3-5年
693,4452349,web测试,杭州,2018-04-28 17:28:49,17.8,16831,武汉佰钧成技术有限公司,武汉佰钧成技术有限责任公司,2000人以上,西湖区,大专,不需要融资,移动互联网,120.126046,30.272615,全职,3-5年
694,4383387,测试总监,北京,2018-04-28 14:50:55,41.0,136978,玖富集团,玖富金科控股集团有限责任公司,2000人以上,朝阳区,本科,C轮,金融,116.480792,39.99613,全职,10年以上
695,4372972,测试开发工程师,北京,2018-04-28 13:58:10,28.0,520,小米,北京小米科技有限责任公司,2000人以上,海淀区,本科,D轮及以上,移动互联网,116.328617,40.045934,全职,3-5年
696,4316597,测试工程师,南京,2018-04-28 10:25:43,10.8,1768,ivtime,北京爱唯光石信息技术有限公司,15-50人,江宁区,本科,A轮,"移动互联网,企业服务",118.827108,31.868127,全职,1-3年
697,3938589,测试工程师,北京,2018-04-28 10:09:01,8.4,2098,掌阅,掌阅科技股份有限公司,500-2000人,朝阳区,本科,上市公司,移动互联网,116.514211,39.905841,全职,1-3年
698,3238040,高级测试工程师,杭州,2018-04-28 09:40:17,19.0,31441,e签宝,杭州天谷信息科技有限公司,150-500人,西湖区,本科,B轮,"移动互联网,信息安全",119.993591,29.993662,全职,5-10年
699,4482123,初级测试工程师,北京,2018-04-27 15:50:09,6.2,17461,库客数字音乐,北京库客音乐股份有限公司,150-500人,朝阳区,大专,B轮,移动互联网,116.57612,39.91059,全职,1-3年
700,4271568,测试实习生,杭州,2018-04-27 13:28:25,2.8,53080,有贝,有贝网络科技（杭州）有限公司,50-150人,滨江区,本科,不需要融资,"移动互联网,金融",120.20019,30.191665,实习,应届毕业生
701,3448328,中级测试（杭州）,杭州,2018-04-27 11:40:38,11.2,119788,汇金智融,汇金智融（北京）科技有限公司,150-500人,滨江区,本科,上市公司,"移动互联网,电子商务",120.211816,30.20856,全职,3-5年
702,4458827,测试工程师,北京,2018-04-27 09:32:55,15.0,56698,屏芯科技,北京屏芯科技有限公司,500-2000人,海淀区,本科,B轮,"移动互联网,电子商务",116.330301,39.993134,全职,3-5年
703,4400448,测试工程师,北京,2018-04-26 14:13:50,21.0,58537,iCourt,北京新橙科技有限公司,150-500人,朝阳区,本科,不需要融资,教育,116.50687,39.907362,全职,3-5年
704,4277036,测试实习生,北京,2018-04-26 14:09:21,3.4,956,金山云,北京金山云网络技术有限公司,500-2000人,海淀区,本科,C轮,"移动互联网,数据服务",116.32274,40.03674,实习,应届毕业生
705,4382064,测试工程师,北京,2018-04-25 14:17:05,19.0,306819,北京华悦数金,北京华悦数金科技有限公司,2000人以上,朝阳区,本科,不需要融资,移动互联网 金融,116.407003,40.001624,全职,3-5年
706,3564276,测试工程师,杭州,2018-04-24 16:59:07,12.0,75068,保险师 · 微易信息科技,杭州微易信息科技有限公司,150-500人,西湖区,本科,B轮,"移动互联网,金融",119.993591,29.993662,全职,1-3年
707,1740615,测试工程师,厦门,2018-04-23 19:19:03,3.8,122804,厦门致上,厦门致上信息科技有限公司,50-150人,思明区,不限,不需要融资,"移动互联网,电子商务",,,全职,不限
708,3706560,测试工程师,广州,2018-04-23 14:20:01,7.6,233056,铠源科技,广州铠源信息科技有限公司,50-150人,天河区,本科,不需要融资,数据服务、信息安全,113.32349,23.142785,全职,1-3年
709,4317538,测试专家,广州,2018-04-23 13:43:05,38.0,22790,网易游戏,广州博冠信息科技有限公司,2000人以上,天河区,本科,上市公司,游戏,0.0,0.0,全职,5-10年
710,1460187,测试工程师,天津,2018-04-19 16:14:58,6.8,31444,神州商龙,天津市神州商龙科技股份有限公司,150-500人,南开区,本科,上市公司,"移动互联网,O2O",117.128959,39.097125,全职,3-5年
711,998514,测试工程师,北京,2018-04-16 11:22:21,9.0,54190,启云时代,北京启云时代科技有限公司,15-50人,朝阳区,本科,不需要融资,"移动互联网,企业服务",,,全职,1-3年
712,4421704,测试工程师J10527,杭州,2018-04-14 12:24:26,16.8,33618,微贷网,微贷（杭州）金融信息服务有限公司,2000人以上,江干区,不限,C轮,金融,120.210795,30.241803,全职,不限
713,1816525,测试工程师,上海,2018-04-28 17:32:24,9.0,25011,真旅网,真旅网计算机软件开发（上海）有限公司,500-2000人,宝山区,本科,C轮,"电子商务,旅游",121.43104978,31.33874983,全职,1-3年
714,3222554,软件测试工程师,郑州,2018-04-28 14:17:33,4.8,28890,郑州创恒实业有限公司,郑州创恒实业有限公司,150-500人,金水区,大专,未融资,移动互联网,113.702507,34.77644,全职,1-3年
715,4410336,测试工程师,上海,2018-04-28 13:38:24,11.2,69152,博奥特科技,深圳市博奥特科技有限公司,150-500人,徐汇区,本科,未融资,"移动互联网,金融",121.456116,31.183131,全职,3-5年
716,4442887,测试工程师,杭州,2018-04-28 11:32:56,10.8,152655,杭州闪捷信息科技有限公司（Secsmart）,杭州闪捷信息科技有限公司,50-150人,余杭区,本科,A轮,"金融,信息安全",120.018449,30.283492,全职,3-5年
717,3834285,测试工程师,深圳,2018-04-28 11:06:58,6.8,180468,星炫科技,深圳市星炫科技有限公司,15-50人,南山区,本科,A轮,移动互联网,113.946882,22.546157,全职,1-3年
718,4345907,测试工程师（1-3年）,深圳,2018-04-28 10:07:19,8.2,125961,小摩豆,深圳市小摩豆网络科技有限公司,50-150人,福田区,本科,A轮,移动互联网,114.03559,22.525949,全职,1-3年
719,4152402,性能测试,广州,2018-04-28 09:55:15,14.0,129227,3K游戏,上海游民网络科技有限公司,150-500人,天河区,大专,不需要融资,"游戏,移动互联网",113.380976,23.124854,全职,3-5年
720,4121174,测试工程师,上海,2018-04-28 09:48:26,12.0,259846,源杉FIR.ai,源杉信息技术（上海）有限公司,15-50人,杨浦区,本科,天使轮,"数据服务,金融",0.0,0.0,全职,3-5年
721,3243988,测试工程师-接口测试,杭州,2018-04-28 09:40:17,14.0,31441,e签宝,杭州天谷信息科技有限公司,150-500人,西湖区,大专,B轮,"移动互联网,信息安全",120.11663,30.290164,全职,不限
722,3481759,测试工程师,杭州,2018-04-28 09:37:43,12.2,33618,微贷网,微贷（杭州）金融信息服务有限公司,2000人以上,江干区,本科,C轮,金融,120.210125,30.242279,全职,3-5年
723,3750744,测试工程师/主管,北京,2018-04-27 15:41:15,10.0,204382,众谊越泰科技,北京众谊越泰科技有限公司,150-500人,朝阳区,本科,不需要融资,"信息安全,硬件",116.423633,39.990397,全职,3-5年
724,3234437,高级测试工程师,北京,2018-04-27 14:04:03,21.0,54359,时速云,北京云思畅想科技有限公司,50-150人,海淀区,本科,B轮,"企业服务,数据服务",,,全职,3-5年
725,4412169,测试工程师（杭州）,杭州,2018-04-27 11:40:39,9.0,119788,汇金智融,汇金智融（北京）科技有限公司,150-500人,滨江区,本科,上市公司,"移动互联网,电子商务",120.172,30.188575,全职,1-3年
726,4406994,测试开发工程师,上海,2018-04-26 20:14:47,28.0,201772,拓链,拓链（上海）科技有限公司,50-150人,虹口区,本科,不需要融资,移动互联网,121.486394,31.248034,全职,3-5年
727,3501224,测试工程师,杭州,2018-04-26 17:51:18,13.2,206743,秉象科技,杭州秉象网络科技有限公司,15-50人,上城区,大专,未融资,金融,0.0,0.0,全职,3-5年
728,4443767,测试工程师,深圳,2018-04-26 11:10:43,7.6,135243,试金石信用,试金石信用服务有限公司,50-150人,南山区,本科,不需要融资,"数据服务,移动互联网",113.994059,22.993238,全职,1-3年
729,4377693,汉口片区测试工程师,武汉,2018-04-25 20:42:24,9.0,226362,武汉格事化信息技术有限公司,武汉格事化信息技术有限公司,少于15人,江岸区,本科,不需要融资,移动互联网,114.306774,30.65214,全职,3-5年
730,2945662,测试开发工程师,北京,2018-04-25 14:29:37,19.0,149913,厚本金融,北京厚本科技有限公司,2000人以上,朝阳区,本科,A轮,金融,116.445782,39.970339,全职,3-5年
731,4469771,EMC测试工程师,东莞,2018-04-24 10:02:54,7.0,16831,武汉佰钧成技术有限公司,武汉佰钧成技术有限责任公司,2000人以上,东莞市市辖区,本科,不需要融资,移动互联网,0.0,0.0,全职,不限
732,4193987,测试研发工程师,北京,2018-04-23 11:30:51,19.0,266081,理房通,北京理房通支付科技有限公司,150-500人,海淀区,本科,不需要融资,"移动互联网,金融",116.296918,40.048909,全职,3-5年
733,3997137,测试工程师,北京,2018-04-23 10:22:00,19.0,23998,卡车之家,北京卡车之家信息技术股份有限公司,150-500人,朝阳区,本科,C轮,移动互联网,116.539112,39.911515,全职,3-5年
734,3634549,高级测试,杭州,2018-04-17 09:16:51,14.0,84602,安存科技,杭州安存网络科技有限公司,50-150人,拱墅区,本科,A轮,"数据服务,信息安全",119.993591,29.993662,全职,1-3年
735,3962293,RCT/BCT测试,深圳,2018-04-22 19:28:22,11.2,16831,武汉佰钧成技术有限公司,武汉佰钧成技术有限责任公司,2000人以上,龙岗区,本科,不需要融资,移动互联网,0.0,0.0,全职,3-5年
736,2173496,测试工程师,北京,2018-04-11 19:47:26,15.2,111468,网易立马理财,光大易创网络科技股份有限公司,150-500人,海淀区,本科,不需要融资,"金融,移动互联网",0.0,0.0,全职,不限
737,4140112,测试主管,广州,2018-04-11 09:40:00,8.2,101882,瑞图万方,广东瑞图万方科技股份有限公司广州分公司,150-500人,天河区,本科,不需要融资,"移动互联网,O2O",113.37208,23.12342,全职,3-5年
738,4366804,测试工程师,北京,2018-04-10 14:55:04,28.0,139755,京东商城,北京京东世纪贸易有限公司,2000人以上,大兴区,硕士,上市公司,电子商务,116.50601,39.793232,全职,5-10年
739,4295917,测试,上海,2018-04-28 16:08:53,10.8,205106,清鹤科技,上海清鹤科技股份有限公司,150-500人,浦东新区,本科,上市公司,移动互联网,121.62628,31.212739,全职,1-3年
740,3833307,测试工程师,北京,2018-04-28 15:56:51,17.8,84814,医渡云（北京）技术有限公司,医渡云（北京）技术有限公司,150-500人,海淀区,本科,B轮,"O2O,医疗健康",116.366019,39.982583,全职,1-3年
741,4217557,高级测试工程师,北京,2018-04-28 15:34:35,22.0,287849,弘道,北京弘道智慧中医技术有限公司,50-150人,海淀区,大专,不需要融资,"医疗健康,数据服务",116.3075,39.983783,全职,5-10年
742,1510227,测试工程师,上海,2018-04-28 10:27:04,14.0,75977,特赞|Tezign,特赞（上海）信息科技有限公司,50-150人,虹口区,本科,B轮,移动互联网,121.48608443,31.25241373,全职,不限
743,4433657,测试工程师,北京,2018-04-28 09:51:12,14.0,123763,斗米,北京斗米优聘科技发展有限公司,500-2000人,海淀区,本科,B轮,"移动互联网,O2O",0.0,0.0,全职,1-3年
744,4318560,测试总监,北京,2018-04-28 08:30:09,24.0,7292,畅聊天下,北京畅聊天下科技有限公司,150-500人,海淀区,本科,B轮,移动互联网,116.308144,40.045415,全职,3-5年
745,3098400,高级测试工程师,杭州,2018-04-27 19:10:58,11.2,24109,搜道网,浙江搜道网络技术有限公司,50-150人,拱墅区,本科,B轮,"电子商务,社交网络",120.111971,30.334812,全职,3-5年
746,3074910,测试工程师主管,上海,2018-04-27 17:28:54,13.2,97773,找革网,浙江找革网电子商务有限公司,50-150人,松江区,不限,天使轮,电子商务,121.316001,31.092353,全职,3-5年
747,4385312,测试工程师,北京,2018-04-27 16:28:03,12.0,10723,酷划在线,北京酷划在线网络技术有限公司,50-150人,海淀区,大专,不需要融资,移动互联网,116.355305,40.009084,全职,3-5年
748,3119500,测试工程师,北京,2018-04-27 16:24:25,14.0,50604,roobo,北京智能管家科技有限公司,150-500人,东城区,本科,B轮,移动互联网,116.433221,39.920718,全职,1-3年
749,4052257,AI测试工程师,北京,2018-04-27 15:12:55,21.0,36162,作业盒子,北京作业盒子科技有限公司,500-2000人,朝阳区,本科,C轮,"移动互联网,教育",116.480284,39.996202,全职,3-5年
750,1784415,软件测试,武汉,2018-04-20 18:10:07,5.6,16831,武汉佰钧成技术有限公司,武汉佰钧成技术有限责任公司,2000人以上,江夏区,本科,不需要融资,移动互联网,114.53759016,30.49050019,全职,不限
751,4335981,测试主管,深圳,2018-04-27 14:51:00,14.0,20727,淘乐网络,深圳淘乐网络科技有限公司,150-500人,南山区,大专,不需要融资,游戏,113.937503,22.543597,全职,3-5年
752,4079300,测试开发工程师,北京,2018-04-27 14:24:52,19.0,10723,酷划在线,北京酷划在线网络技术有限公司,50-150人,海淀区,本科,不需要融资,移动互联网,116.355305,40.009084,全职,3-5年
753,891338,测试开发,北京,2018-04-27 14:01:46,16.6,51649,掌众金服,北京掌众科技有限公司,500-2000人,海淀区,大专,B轮,"移动互联网,金融",116.349102,39.976029,全职,3-5年
754,2767679,测试工程师,北京,2018-04-26 16:10:19,14.0,144576,杉数科技,杉数科技（北京）有限公司,50-150人,东城区,本科,A轮,"数据服务,移动互联网",116.424346,39.948702,全职,1-3年
755,4329344,测试经理,杭州,2018-04-24 10:40:27,17.0,130680,巴九灵,杭州巴九灵文化创意有限公司,150-500人,下城区,本科,不需要融资,"文化娱乐,移动互联网",120.166755,30.315757,全职,1-3年
756,3988987,测试主管,杭州,2018-04-18 18:40:24,14.4,285567,觅睿科技,杭州觅睿科技有限公司,50-150人,滨江区,本科,不需要融资,"硬件,移动互联网",120.206657,30.170564,全职,5-10年
757,4440626,测试工程师,北京,2018-04-18 11:39:14,12.0,283876,得易金服,北京得易金融信息服务有限公司,50-150人,朝阳区,本科,不需要融资,"金融,移动互联网",116.49148,39.898707,全职,3-5年
758,4013043,性能测试,深圳,2018-04-17 11:44:37,13.6,50241,Symbio-Freeborders,信必优(深圳)信息技术有限公司,2000人以上,福田区,大专,未融资,"移动互联网,电子商务",0.0,0.0,全职,3-5年
759,4107209,初级测试工程师,杭州,2018-04-12 09:00:00,8.4,26248,丁香园,观澜网络（杭州）有限公司,500-2000人,滨江区,不限,D轮及以上,"医疗健康,企业服务",0.0,0.0,全职,1-3年
760,2077031,测试工程师,北京,2018-04-10 09:02:01,12.0,53137,家园网,家园网络科技有限公司,2000人以上,东城区,本科,不需要融资,O2O,116.44672527,39.89295495,全职,3-5年
761,474838,测试,深圳,2018-04-30 10:04:56,7.2,194,墨齐,深圳墨齐致知网络科技有限公司,15-50人,南山区,本科,A轮,"移动互联网,教育",113.916496,22.49191599,全职,1-3年
762,4422458,测试工程师,广州,2018-04-29 14:35:26,5.2,256682,飞锐机器人,广州飞锐机器人科技有限公司,15-50人,黄埔区,大专,未融资,其他,113.462426,23.16069,全职,1-3年
763,4219324,测试开发工程师,北京,2018-04-28 18:23:04,24.0,311084,REDEFINE,北京瑞地科技有限公司,150-500人,朝阳区,本科,不需要融资,移动互联网,0.0,0.0,全职,5-10年
764,3304941,软件测试工程师,南京,2018-04-28 18:15:40,7.6,223084,南京转换宝网络科技,南京转换宝网络科技有限公司,50-150人,雨花台区,大专,不需要融资,"移动互联网,广告营销",118.777513,31.972736,全职,1-3年
765,4493830,高级测试工程师,厦门,2018-04-28 17:47:13,7.0,9251,美柚,厦门美柚信息科技有限公司,500-2000人,思明区,本科,D轮及以上,移动互联网,118.17884,24.48956,全职,3-5年
766,4102510,测试工程师,广州,2018-04-28 17:38:51,8.4,658,三七互娱,三七互娱（上海）科技有限公司,2000人以上,天河区,本科,上市公司,游戏,112.993461,22.994261,全职,应届毕业生
767,2368830,测试工程师,北京,2018-04-28 16:21:39,12.4,83710,iHealth,北京爱和健康科技有限公司,150-500人,海淀区,本科,不需要融资,"移动互联网,医疗健康",116.336046,40.027804,全职,1-3年
768,3913593,资深测试工程师,深圳,2018-04-28 15:31:47,18.8,71639,杉岩数据,深圳市杉岩数据技术有限公司,15-50人,南山区,本科,A轮,"企业服务,数据服务",113.970124,22.583821,全职,5-10年
769,4081338,测试工程师,上海,2018-04-28 11:50:08,9.6,197572,阿拉小优,上海炫萌网络科技有限公司,50-150人,长宁区,大专,不需要融资,"移动互联网,O2O",121.424624,31.220367,全职,1-3年
770,4467502,测试工程师,深圳,2018-04-28 10:30:25,10.8,60841,羚羊极速,深圳羚羊极速科技有限公司,50-150人,南山区,本科,A轮,移动互联网,113.936046,22.524411,全职,3-5年
771,2757969,资深测试开发工程师,杭州,2018-04-27 18:27:52,17.8,23592,讯盟,杭州讯盟科技有限公司,150-500人,西湖区,本科,A轮,移动互联网,119.993591,29.993662,全职,5-10年
772,3483884,测试工程师,杭州,2018-04-27 10:35:45,12.0,164319,纵横新创,浙江纵横新创科技有限公司,50-150人,余杭区,本科,天使轮,"金融,移动互联网",119.992047,30.276004,全职,3-5年
773,4489953,测试工程师,北京,2018-04-26 17:57:56,19.0,3786,宜信,普信恒业科技发展（北京）有限公司,2000人以上,朝阳区,本科,上市公司,金融,116.477098,39.91324,全职,3-5年
774,4213943,软件测试,上海,2018-04-26 16:33:35,14.0,159688,口袋理财,上海鱼耀金融信息服务有限公司,500-2000人,长宁区,大专,A轮,"金融,移动互联网",0.0,0.0,全职,3-5年
775,4327453,测试工程师-北研网购研发中心,北京,2018-04-26 16:09:21,19.0,53992,苏宁易购,南京苏宁软件技术有限公司,2000人以上,朝阳区,本科,上市公司,"O2O,移动互联网",116.48608,40.008453,全职,3-5年
776,4098479,测试工程师,厦门,2018-04-26 10:02:15,4.2,154193,鼎昇金服,厦门鼎昇金融技术服务有限公司,15-50人,思明区,大专,不需要融资,金融,118.194741,24.491147,全职,1-3年
