,职位编码,职位名称,所在城市,发布日期,薪资待遇(k),公司编码,公司名称,公司全称,公司规模,所在区域,最低学历,融资状态,公司类型,经度,纬度,全职/实习,工作经验,吸引条件
0,4490134,游戏测试,北京,2018-05-02 09:51:45,6.2,13241,互爱(北京)科技有限公司,互爱(北京)科技有限公司,500-2000人,海淀区,本科,C轮,"移动互联网,游戏",116.337417,39.981921,全职,1-3年,"['五险一金', '岗位晋升', '帅哥多', '弹性工作']"
1,3650444,游戏测试,深圳,2018-05-02 14:22:29,12.0,16589,禅游,深圳市禅游科技股份有限公司,150-500人,南山区,本科,B轮,游戏,113.993578,22.99368,全职,3-5年,"['绩效奖金', '年底双薪', '五险一金', '带薪年假']"
2,4339529,游戏测试,深圳,2018-05-03 09:52:10,6.2,44314,冰川网络,深圳冰川网络股份有限公司,500-2000人,南山区,本科,上市公司,游戏,113.93654,22.543735,全职,1-3年,"['节日礼物', '免费班车', '带薪年假', '绩效奖金']"
3,2668809,游戏测试员,成都,2018-05-02 14:29:08,3.8,144307,雨墨游戏,成都雨墨科技有限公司,150-500人,高新区,大专,不需要融资,"游戏,移动互联网",104.07539022,30.53873057,全职,1-3年,"['带薪年假', '定期体检', '年底双薪', '丰厚项目奖金']"
4,3782348,游戏测试,上海,2018-05-02 09:42:59,2.4,164978,拾梦文化,拾梦文化发展（上海）有限公司,50-150人,闵行区,大专,未融资,"游戏,移动互联网",121.3928,31.170044,实习,应届毕业生,"['股票期权', '绩效奖金', '节日礼物', '弹性工作']"
5,3944509,游戏测试,苏州,2018-05-02 09:13:20,4.8,243708,木子木网络,昆山木子木网络科技有限公司,15-50人,昆山市,大专,未融资,游戏,121.148172,31.288881,全职,1-3年,[]
6,1565626,游戏测试,厦门,2018-05-02 10:34:39,4.8,47683,厦门梦加,厦门梦加网络科技股份有限公司,150-500人,思明区,不限,D轮及以上,"移动互联网,游戏",118.09478657,24.46319282,全职,1-3年,"['技能培训', '年底双薪', '绩效奖金', '年度旅游']"
7,3100924,游戏测试,珠海,2018-05-02 09:56:14,4.8,122930,文景科技,珠海文景科技有限公司,50-150人,香洲区,大专,不需要融资,游戏,113.51913,22.253112,全职,1-3年,[]
8,4133749,游戏测试,深圳,2018-05-02 09:46:13,8.4,206935,奇乐互娱,深圳市奇乐互娱科技有限公司,15-50人,宝安区,大专,不需要融资,"移动互联网,游戏",113.864422,22.574423,全职,1-3年,"['绩效奖金', '带薪年假', '交通补助', '年度旅游']"
9,2497910,游戏测试,上海,2018-05-02 11:34:08,7.0,139740,天戏互娱,上海天戏互娱科技股份有限公司,50-150人,徐汇区,大专,上市公司,游戏,120.993998,30.99343,全职,1-3年,[]
10,3907308,游戏测试师,广州,2018-05-02 11:18:18,7.0,265858,赐麓网络,上海赐麓网络科技有限公司,150-500人,天河区,大专,B轮,"移动互联网,游戏",113.379844,23.121693,全职,1-3年,[]
11,4506568,游戏测试工程师,深圳,2018-05-02 17:04:48,6.8,267723,汇玩科技,汇玩（深圳）科技有限公司,少于15人,南山区,不限,不需要融资,游戏,113.951606,22.537717,全职,不限,"['绩效奖金', '专项奖金', '年终分红', '年度旅游']"
12,4195881,游戏测试,西安,2018-04-25 15:09:29,8.4,144191,BOO!,西安逆袭网络科技有限公司,50-150人,雁塔区,本科,A轮,"移动互联网,社交网络",108.880936,34.22484,全职,1-3年,"['扁平化管理', '弹性工作制', '健身福利', '设备补助']"
13,3654675,游戏测试,厦门,2018-05-03 09:34:36,4.2,26742,趣游（厦门）科技有限公司,趣游（厦门）科技有限公司,150-500人,湖里区,不限,不需要融资,移动互联网,118.156696,24.524271,全职,1-3年,"['绩效奖金', '年底双薪', '五险一金', '带薪年假']"
14,2801424,游戏测试,北京,2018-05-03 09:57:56,8.4,4286,竞技世界,竞技世界（北京）网络技术有限公司,500-2000人,海淀区,本科,不需要融资,"移动互联网,游戏",116.312028,40.03723,全职,1-3年,"['节日礼物', '技能培训', '年底双薪', '年度旅游']"
15,3574198,游戏测试员（2018应届生）,成都,2018-05-02 18:00:23,3.8,144307,雨墨游戏,成都雨墨科技有限公司,150-500人,武侯区,大专,不需要融资,"游戏,移动互联网",104.07539022,30.53873057,实习,应届毕业生,"['带薪年假', '定期体检', '年底双薪', '丰厚项目奖金']"
16,3944518,游戏测试,上海,2018-05-02 09:13:20,4.8,243708,木子木网络,昆山木子木网络科技有限公司,15-50人,嘉定区,大专,未融资,游戏,121.227007,31.273282,全职,1-3年,[]
17,3782001,游戏测试工程师,广州,2018-05-03 09:47:34,8.4,658,三七互娱,三七互娱（上海）科技有限公司,2000人以上,天河区,大专,上市公司,游戏,112.993461,22.994261,全职,1-3年,"['绩效奖金', '五险一金', '通讯津贴', '交通补助']"
18,3146346,游戏测试工程师,上海,2018-05-02 17:58:56,5.6,206418,逗屋网络,上海逗屋网络科技有限公司,50-150人,静安区,大专,B轮,游戏,121.438431,31.282085,全职,不限,[]
19,1770800,游戏测试,上海,2018-04-28 18:34:00,5.6,76949,鲸歌网络,上海鲸歌网络科技有限公司,15-50人,浦东新区,大专,A轮,"移动互联网,游戏",121.62834992,31.20841944,全职,1-3年,"['技能培训', '节日礼物', '年底双薪', '股票期权']"
20,3908421,游戏测试工程师,北京,2018-05-02 10:42:30,13.2,4286,竞技世界,竞技世界（北京）网络技术有限公司,500-2000人,海淀区,本科,不需要融资,"移动互联网,游戏",116.312136,40.037381,全职,3-5年,"['节日礼物', '技能培训', '年底双薪', '年度旅游']"
21,4338196,游戏测试工程师,福州,2018-05-03 09:59:03,10.0,173334,龙腾简合,福州龙腾简合网络技术有限公司,150-500人,台江区,大专,未融资,"游戏,移动互联网",119.278028,26.059516,全职,3-5年,[]
22,4302925,游戏测试,厦门,2018-05-03 09:07:50,5.8,9547,4399,四三九九网络股份有限公司,2000人以上,思明区,大专,不需要融资,"移动互联网,游戏",118.178308,24.488943,全职,1-3年,"['带薪年假', '免费班车', '节日礼物', '技能培训']"
23,4305254,游戏测试工程师,武汉,2018-05-02 15:40:08,4.8,218085,乐其互动,乐其互动（武汉）网络科技有限公司,50-150人,洪山区,大专,未融资,游戏,114.410314,30.482621,全职,1-3年,"['年底双薪', '年终分红', '带薪年假', '节日福利']"
24,3370602,游戏测试,深圳,2018-05-02 16:01:18,4.8,117896,天天嗨玩,深圳天天嗨玩网络科技有限公司,15-50人,南山区,本科,A轮,游戏,113.947858,22.534571,全职,不限,"['年终分红', '扁平管理', '岗位晋升', '空间大']"
25,4506439,APP手游/游戏测试员,南京,2018-05-02 14:46:43,3.8,233304,燃网络,南京网燃网络科技有限公司,少于15人,秦淮区,大专,未融资,"移动互联网,游戏",118.788719,32.049374,全职,不限,[]
26,3495892,游戏测试,成都,2018-05-02 13:58:03,5.2,65761,成都博为峰,成都博为峰软件技术有限公司,500-2000人,锦江区,大专,天使轮,"企业服务,教育",104.089636,30.647758,实习,不限,"['年底双薪', '节日礼物', '技能培训', '绩效奖金']"
27,2433791,游戏测试,广州,2018-05-03 09:52:57,7.0,120175,祺曜互娱,海南祺曜互动娱乐有限公司,150-500人,天河区,大专,不需要融资,游戏,113.384912,23.118062,全职,1-3年,"['交通补助', '带薪年假', '定期体检', '绩效奖金']"
28,4287659,游戏测试工程师,广州,2018-05-02 17:23:29,10.8,56211,雷音科技,广州雷音网络科技有限公司,50-150人,天河区,大专,不需要融资,"移动互联网,游戏",113.323844,23.096432,全职,3-5年,"['技能培训', '绩效奖金', '年度旅游', '岗位晋升']"
29,3979442,游戏测试工程师,北京,2018-05-02 15:48:49,11.2,95651,玩吧,北京默契破冰科技有限公司,50-150人,东城区,本科,B轮,"移动互联网,社交网络",116.433486,39.940836,全职,1-3年,"['去他的考勤', '高手云集', '股票期权', '年底N薪']"
30,2651045,游戏测试（喜爱打游戏）,成都,2018-05-02 13:58:03,4.8,65761,成都博为峰,成都博为峰软件技术有限公司,500-2000人,锦江区,大专,天使轮,"企业服务,教育",104.089636,30.647758,全职,不限,"['年底双薪', '节日礼物', '技能培训', '绩效奖金']"
31,4462744,游戏测试工程师,深圳,2018-05-02 13:36:50,7.6,42627,中青宝,深圳中青宝互动网络股份有限公司,500-2000人,南山区,本科,上市公司,"移动互联网,游戏",113.953448,22.52841,全职,1-3年,"['节日礼物', '年底双薪', '带薪年假', '提供工作三餐']"
32,2428659,游戏测试,北京,2018-05-02 18:39:17,6.6,31314,天锋网络,北京天锋网络科技有限公司,150-500人,朝阳区,大专,C轮,游戏,116.467425,40.018337,全职,3-5年,"['专项奖金', '带薪年假', '岗位晋升', '年度旅游']"
33,4115374,游戏测试工程师,杭州,2018-05-01 20:25:38,9.8,23599,触手,杭州开迅科技有限公司,150-500人,西湖区,本科,D轮及以上,移动互联网,120.059508,30.286594,全职,1-3年,"['年底双薪', '五险一金', '通讯津贴', '带薪年假']"
34,4433000,游戏测试工程师,广州,2018-05-03 09:41:19,7.0,55237,漫灵软件,广州市漫灵软件有限公司,150-500人,天河区,大专,未融资,移动互联网,113.375657,23.132664,全职,1-3年,"['节日礼物', '年底双薪', '带薪年假', '绩效奖金']"
35,3153848,游戏测试工程师,上海,2018-05-02 09:55:38,7.2,14983,游族网络,上海游族信息技术有限公司,500-2000人,徐汇区,不限,上市公司,"移动互联网,游戏",39.897445,116.331398,全职,1-3年,"['五险一金', '岗位晋升', '弹性工作', '扁平管理']"
36,2495609,游戏测试工程师,广州,2018-05-03 09:48:13,7.0,18159,明朝互动,广州明朝互动科技股份有限公司,150-500人,天河区,本科,D轮及以上,游戏,112.993461,22.994261,全职,不限,"['技能培训', '节日礼物', '项目奖金', '带薪年假']"
37,4339368,游戏测试,广州,2018-05-03 09:25:27,4.8,257650,广州玖维信息科技有限公司,广州玖维信息科技有限公司,150-500人,天河区,大专,上市公司,"移动互联网,数据服务",113.346731,23.148056,全职,1年以下,"['年底双薪', '专项奖金', '年终分红', '带薪年假']"
38,4137408,游戏测试员,杭州,2018-05-02 16:57:15,4.2,286403,无端科技,浙江无端科技股份有限公司,150-500人,西湖区,大专,A轮,游戏,0.0,0.0,全职,1-3年,"['节日礼物', '弹性工作', '扁平管理', '五险一金']"
39,4255451,游戏测试工程师,上海,2018-05-02 16:24:31,11.2,30830,哔哩哔哩,上海幻电信息科技有限公司,2000人以上,杨浦区,大专,上市公司,"移动互联网,文化娱乐",121.506437,31.308258,全职,3-5年,"['带薪年假', '绩效奖金', '交通补助', '午餐补助']"
40,4505396,游戏测试主管,福州,2018-05-02 11:58:57,10.0,173334,龙腾简合,福州龙腾简合网络技术有限公司,150-500人,台江区,不限,未融资,"游戏,移动互联网",119.278028,26.059516,全职,3-5年,[]
41,4206898,游戏测试（QA）,上海,2018-04-27 15:14:10,9.8,133485,2144游戏,上海剑圣网络科技有限公司,150-500人,浦东新区,不限,不需要融资,"移动互联网,游戏",121.598418,31.20745,全职,1-3年,"['绩效奖金', '带薪年假', '交通补助', '节日礼物']"
42,4323684,游戏测试工程师,深圳,2018-05-03 09:20:11,7.0,65521,泽林信息,深圳市泽林信息咨询有限公司,500-2000人,,大专,不需要融资,教育,113.953534,22.542215,全职,1-3年,"['节日礼物', '技能培训', '绩效奖金', '年度旅游']"
43,3934915,游戏测试/QA,上海,2018-05-02 09:37:51,7.0,234804,聪盛网络,上海聪盛网络科技有限公司,50-150人,闵行区,大专,不需要融资,"游戏,移动互联网",121.381709,31.112813,全职,1-3年,"['交通补助', '带薪年假', '定期体检', '绩效奖金']"
44,130599,游戏测试工程师,北京,2018-05-03 09:32:55,8.8,88,木瓜移动,北京木瓜移动科技有限公司,150-500人,海淀区,本科,B轮,移动互联网,116.353717,40.015752,全职,1-3年,"['五险一金', '岗位晋升', '技能培训', '定期体检']"
45,3572689,游戏测试工程师,深圳,2018-05-02 10:33:50,10.8,32805,尚游游戏,深圳市尚游网络科技有限公司,150-500人,南山区,本科,不需要融资,游戏,113.9519,22.53797,全职,1-3年,"['年底双薪', '节日礼物', '绩效奖金', '扁平管理']"
46,4392536,游戏测试工程师,北京,2018-05-02 10:58:33,13.2,36441,拱顶石游戏,北京拱顶石科技有限公司,50-150人,朝阳区,本科,B轮,"游戏,文化娱乐",116.453971,39.932248,全职,1-3年,"['年底双薪', '节日礼物', '专项奖金', '股票期权']"
47,4138728,游戏测试工程师,成都,2018-05-02 10:25:01,9.0,290886,百川之星,四川百川之星科技有限公司,50-150人,高新区,大专,不需要融资,游戏,0.0,0.0,全职,3-5年,"['年底双薪', '股票期权', '专项奖金', '带薪年假']"
48,3570553,资深游戏测试,上海,2018-05-02 09:43:00,7.6,164978,拾梦文化,拾梦文化发展（上海）有限公司,50-150人,闵行区,大专,未融资,"游戏,移动互联网",121.3928,31.170044,全职,1-3年,"['股票期权', '绩效奖金', '节日礼物', '弹性工作']"
49,4453981,游戏测试工程师,武汉,2018-04-25 10:13:24,6.6,72997,趣享互动,武汉趣享互动科技有限公司,15-50人,洪山区,大专,不需要融资,"移动互联网,游戏",114.412369,30.476291,全职,1-3年,"['年底双薪', '技能培训', '绩效奖金', '年度旅游']"
50,4227688,游戏测试工程师,福州,2018-05-02 19:54:55,5.6,8288,网龙网络有限公司,福建网龙计算机网络信息技术有限公司,2000人以上,鼓楼区,大专,上市公司,"移动互联网,教育",119.31312,26.09077,全职,不限,"['技能培训', '节日礼物', '绩效奖金', '岗位晋升']"
51,4497880,QA游戏测试员,上海,2018-04-28 10:58:49,6.2,2262,智明星通,北京智明星通软件科技有限公司,500-2000人,闵行区,不限,上市公司,"移动互联网,游戏",121.389451,31.169126,全职,1-3年,"['年终分红', '绩效奖金', '五险一金', '带薪年假']"
52,3410496,游戏测试,上海,2018-05-02 10:14:46,12.0,15281,上海晨之科,上海晨之科信息技术有限公司,150-500人,闵行区,大专,C轮,"移动互联网,游戏",121.38816,31.16937,全职,1-3年,"['绩效奖金', '弹性工作', '扁平管理', '带薪年假']"
53,3273678,sz-游戏测试,深圳,2018-04-26 16:43:59,9.0,29911,CMGE中手游,深圳市中手游网络科技有限公司,500-2000人,福田区,大专,上市公司,"移动互联网,游戏",113.993578,22.99368,全职,1-3年,"['节日礼物', '技能培训', '绩效奖金', '岗位晋升']"
54,348218,游戏测试专员,北京,2018-05-03 09:42:22,3.4,4178,凯奇谷,北京凯奇谷信息技术股份有限公司,150-500人,朝阳区,大专,上市公司,"移动互联网,游戏",116.462495,39.900399,全职,不限,"['技能培训', '股票期权', '年度旅游', '岗位晋升']"
55,4433064,游戏测试工程师,上海,2018-05-02 20:34:30,11.2,169809,小闲在线,重庆小闲在线科技有限公司上海分公司,150-500人,闵行区,本科,未融资,"游戏,移动互联网",121.509762,31.097295,全职,不限,"['通讯津贴', '带薪年假', '交通补助', '年底双薪']"
56,2544178,游戏测试,杭州,2018-04-28 11:52:34,10.8,114739,游卡桌游,杭州游卡网络技术有限公司,500-2000人,西湖区,大专,不需要融资,"游戏,移动互联网",120.11761,30.29091003,全职,1-3年,"['品牌IP', '福利健全', '稳定平台', '创业文化']"
57,4184995,游戏测试工程师,广州,2018-05-03 08:23:28,3.8,257650,广州玖维信息科技有限公司,广州玖维信息科技有限公司,150-500人,海珠区,大专,上市公司,"移动互联网,数据服务",113.322983,23.096894,全职,1年以下,"['年底双薪', '专项奖金', '年终分红', '带薪年假']"
58,2101877,游戏测试,北京,2018-05-01 17:54:57,4.8,40618,盖娅互娱,北京盖娅互娱网络科技股份有限公司,500-2000人,朝阳区,不限,上市公司,"移动互联网,游戏",116.486103,40.00037806,全职,不限,"['史上最牛团队', '五险一金', '超豪华办公室', '弹性工作']"
59,2292360,游戏测试工程师,上海,2018-05-03 09:47:34,7.2,658,三七互娱,三七互娱（上海）科技有限公司,2000人以上,徐汇区,不限,上市公司,游戏,121.39788,31.16134938,全职,1-3年,"['绩效奖金', '五险一金', '通讯津贴', '交通补助']"
60,4286604,游戏测试工程师,广州,2018-05-02 15:38:11,7.6,132056,小妖传媒,广州小妖传媒有限公司,15-50人,天河区,大专,未融资,"移动互联网,社交网络",0.0,0.0,全职,1-3年,"['绩效奖金', '工作时间弹性', '环境高大上', '社保齐全']"
61,1714882,游戏测试,深圳,2018-05-02 14:20:05,7.8,6638,KooGame,深圳市掌中酷柚科技有限公司,50-150人,南山区,大专,B轮,"移动互联网,游戏",113.93563597,22.54030125,全职,1-3年,"['年终分红', '绩效奖金', '专项奖金', '年底双薪']"
62,4084341,游戏测试,上海,2018-05-02 10:41:54,10.0,121964,上海墨鹍,上海墨鹍数码科技有限公司,150-500人,浦东新区,大专,不需要融资,游戏,121.59978,31.205039,全职,1-3年,['年底双薪']
63,3510275,游戏测试工程师,北京,2018-05-02 17:44:02,9.8,9365,西山居游戏,成都西山居互动娱乐科技有限公司珠海分公司,2000人以上,海淀区,大专,不需要融资,游戏,115.99339,39.99426,全职,3-5年,"['绩效奖金', '股票期权', '专项奖金', '年底双薪']"
64,3043037,游戏测试,福州,2018-05-02 10:44:13,7.0,196205,福州将神网络科技有限公司,福州将神网络科技有限公司,50-150人,鼓楼区,不限,不需要融资,"游戏,移动互联网",119.259083,26.086564,全职,不限,"['美女多', '帅哥多', '弹性工作', '领导好']"
65,349798,游戏测试,广州,2018-05-02 10:39:48,4.8,13553,广州游爱,广州游爱网络技术有限公司,500-2000人,萝岗区,不限,上市公司,"移动互联网,游戏",113.457904,23.17264,全职,1年以下,"['年终分红', '绩效奖金', '专项奖金', '年底双薪']"
66,4405020,游戏测试工程师,广州,2018-05-02 10:08:40,9.6,271701,贪玩游戏,江西贪玩信息技术有限公司广州分公司,500-2000人,天河区,大专,D轮及以上,游戏,113.368584,23.113076,全职,1-3年,"['带薪年假', '定期体检', '年度旅游', '五险一金']"
67,3992287,游戏测试工程师,苏州,2018-05-01 19:47:08,3.8,8464,苏州天魂网络,苏州天魂网络科技股份有限公司,15-50人,高新区,大专,未融资,游戏,120.537754,31.275604,全职,不限,"['领导好', '技能培训', '节日礼物', '专项奖金']"
68,4453744,游戏测试,广州,2018-04-28 18:08:33,8.4,16831,武汉佰钧成技术有限公司,武汉佰钧成技术有限责任公司,2000人以上,海珠区,大专,不需要融资,移动互联网,113.325553,23.098929,全职,1-3年,"['带薪年假', '计算机软件', '管理规范', '定期体检']"
69,4212113,游戏测试MMORPG,北京,2018-05-02 09:37:08,6.2,73666,开天创世,北京开天创世科技有限公司,150-500人,朝阳区,大专,D轮及以上,"移动互联网,游戏",116.471587,40.011925,全职,1-3年,"['技能培训', '节日礼物', '专项奖金', '带薪年假']"
70,4231242,游戏测试,福州,2018-04-10 10:20:09,3.8,173334,龙腾简合,福州龙腾简合网络技术有限公司,150-500人,台江区,本科,未融资,"游戏,移动互联网",119.278028,26.059516,全职,不限,[]
71,4279953,游戏测试工程师(东莞),东莞,2018-05-03 09:20:11,6.2,65521,泽林信息,深圳市泽林信息咨询有限公司,500-2000人,东莞市市辖区,大专,不需要融资,教育,113.739182,23.025818,全职,1-3年,"['节日礼物', '技能培训', '绩效奖金', '年度旅游']"
72,4184204,游戏测试,北京,2018-04-27 16:20:31,6.2,71948,同桌,北京同桌游戏科技有限公司,50-150人,朝阳区,本科,B轮,移动互联网,116.469352,40.013415,全职,1-3年,"['节日礼物', '技能培训', '年底双薪', '股票期权']"
73,3548445,游戏测试专员,杭州,2018-05-02 14:21:53,7.2,133485,2144游戏,上海剑圣网络科技有限公司,150-500人,滨江区,大专,不需要融资,"移动互联网,游戏",120.160742,30.184487,全职,1-3年,"['绩效奖金', '带薪年假', '交通补助', '节日礼物']"
74,4454279,游戏测试工程师,广州,2018-04-29 17:24:59,7.6,13877,6637,广州泽娱网络科技有限公司,50-150人,天河区,大专,未融资,游戏,113.42823,23.126742,全职,1-3年,"['节日礼物', '技能培训', '绩效奖金', '年度旅游']"
75,3065928,QA游戏测试,成都,2018-04-28 15:20:54,5.6,57400,NEXA,昊盈信息技术（成都）有限公司,150-500人,锦江区,本科,不需要融资,"移动互联网,游戏",103.99341,30.994233,全职,不限,"['年底双薪', '节日礼物', '技能培训', '绩效奖金']"
76,3944165,游戏测试,广州,2018-05-03 09:51:43,7.6,129227,3K游戏,上海游民网络科技有限公司,150-500人,天河区,大专,不需要融资,"游戏,移动互联网",113.380976,23.124854,全职,1年以下,"['绩效奖金', '免费包餐', '海外旅游', '环境舒适']"
77,1592442,游戏测试工程师,杭州,2018-04-25 09:53:05,9.4,10323,畅唐网络,浙江畅唐网络股份有限公司,500-2000人,滨江区,大专,不需要融资,游戏,120.221427,30.178593,全职,3-5年,"['技能培训', '免息贷款', '岗位晋升', '扁平管理']"
78,3015471,游戏测试实习生,杭州,2018-05-02 14:20:48,2.4,593,边锋,杭州边锋网络技术有限公司,500-2000人,西湖区,本科,不需要融资,"移动互联网,游戏",119.993591,29.993662,实习,应届毕业生,"['五险一金', '交通补助', '绩效奖金', '节日礼物']"
79,4505565,游戏测试工程师,上海,2018-05-02 12:30:55,6.6,60305,云望,上海云望信息科技有限公司,15-50人,闵行区,本科,不需要融资,游戏,,,全职,1-3年,"['技能培训', '节日礼物', '绩效奖金', '年度旅游']"
80,4248163,游戏测试,厦门,2018-05-02 16:16:10,5.6,221200,玩美,厦门玩美网络科技有限公司,15-50人,思明区,大专,未融资,"游戏,移动互联网",118.193405,24.492305,全职,1-3年,"['五险一金', '全勤奖', '周末双休', '加班补贴']"
81,4340085,游戏测试工程师,深圳,2018-05-02 09:27:40,6.8,108621,爱玩网络,深圳爱玩网络科技股份有限公司,150-500人,南山区,本科,上市公司,游戏,113.943551,22.548179,全职,1-3年,"['专项奖金', '带薪年假', '年终分红', '一周五天7H']"
82,4478537,游戏测试工程师,广州,2018-04-28 17:10:45,8.4,56329,久邦GOMO,广州久邦世纪科技有限公司,500-2000人,越秀区,大专,上市公司,移动互联网,112.993461,22.994261,全职,1-3年,"['技能培训', '节日礼物', '股票期权', '带薪年假']"
83,4423879,游戏测试,深圳,2018-04-20 17:36:40,8.4,16831,武汉佰钧成技术有限公司,武汉佰钧成技术有限责任公司,2000人以上,宝安区,大专,不需要融资,移动互联网,113.88402,22.555259,全职,1-3年,"['带薪年假', '计算机软件', '管理规范', '定期体检']"
84,3934335,游戏测试工程师,武汉,2018-05-03 09:24:55,6.2,13241,互爱(北京)科技有限公司,互爱(北京)科技有限公司,500-2000人,洪山区,大专,C轮,"移动互联网,游戏",114.42355721,30.47795988,全职,1-3年,"['五险一金', '岗位晋升', '帅哥多', '弹性工作']"
85,3938024,手机游戏测试工程师,成都,2018-05-02 09:11:07,3.4,4178,凯奇谷,北京凯奇谷信息技术股份有限公司,150-500人,高新区,大专,上市公司,"移动互联网,游戏",104.048199,30.585378,全职,不限,"['技能培训', '股票期权', '年度旅游', '岗位晋升']"
86,4348889,游戏测试,上海,2018-04-10 20:28:09,14.4,202104,趣头条,上海基分文化传播有限公司,500-2000人,浦东新区,本科,不需要融资,移动互联网,121.628722,31.20569,全职,3-5年,"['专项奖金', '带薪年假', '弹性工作', '管理规范']"
87,3066947,游戏测试员,无锡,2018-05-02 11:02:56,2.8,2440,七酷网络,无锡七酷网络科技有限公司,500-2000人,新吴区,大专,上市公司,游戏,120.37174,31.49462,全职,不限,[]
88,4509289,资深游戏测试,上海,2018-05-02 19:03:21,10.8,23239,DeNA China,上海纵游网络技术有限公司,150-500人,杨浦区,大专,不需要融资,"移动互联网,游戏",121.51142,31.26148,全职,1-3年,"['五险一金', '节日礼物', '午餐补助', '岗位晋升']"
89,4026952,游戏测试,上海,2018-04-28 14:27:41,4.4,129381,瀚趣网络科技有限公司,上海瀚趣网络科技有限公司,50-150人,徐汇区,本科,不需要融资,游戏,0.0,0.0,全职,不限,"['年终分红', '定期体检', '带薪年假', '年底双薪']"
90,4207750,游戏测试,深圳,2018-04-15 16:00:19,7.4,16831,武汉佰钧成技术有限公司,武汉佰钧成技术有限责任公司,2000人以上,南山区,大专,不需要融资,移动互联网,113.947593,22.546344,全职,1-3年,"['带薪年假', '计算机软件', '管理规范', '定期体检']"
91,4200774,游戏测试,广州,2018-04-26 09:28:45,6.8,30387,麦根网络,广州麦根网络科技有限公司,15-50人,海珠区,大专,不需要融资,游戏,113.384954,23.101489,全职,1-3年,"['技能培训', '带薪年假', '绩效奖金', '岗位晋升']"
92,3700366,游戏测试工程师,广州,2018-05-02 17:44:02,10.8,9365,西山居游戏,成都西山居互动娱乐科技有限公司珠海分公司,2000人以上,天河区,本科,不需要融资,游戏,113.382975,23.119043,全职,1-3年,"['绩效奖金', '股票期权', '专项奖金', '年底双薪']"
93,4317426,游戏测试主管,广州,2018-05-02 11:18:17,10.8,265858,赐麓网络,上海赐麓网络科技有限公司,150-500人,天河区,大专,B轮,"移动互联网,游戏",113.379844,23.121693,全职,3-5年,[]
94,4359876,游戏测试,广州,2018-05-02 10:17:11,7.0,68272,暗沙游戏,上海暗沙网络科技有限公司广州分公司,50-150人,天河区,大专,不需要融资,游戏,113.347271,23.143993,全职,不限,"['节日礼物', '年底双薪', '绩效奖金', '扁平管理']"
95,2853875,游戏测试QA,深圳,2018-04-25 11:33:32,7.6,146940,奥飞游戏深圳分公司,上海奥飞游戏有限公司,150-500人,南山区,不限,A轮,游戏,113.932899,22.542186,全职,1-3年,[]
96,3435112,游戏测试,上海,2018-05-02 16:57:28,5.6,205748,愉游,上海愉游网络科技有限公司,50-150人,徐汇区,大专,未融资,游戏,121.395334,31.160489,全职,不限,[]
97,3292227,游戏测试工程师,深圳,2018-05-02 10:32:37,9.8,169529,大川,深圳大川网络科技有限公司,50-150人,南山区,大专,不需要融资,"移动互联网,游戏",113.951875,22.540776,全职,1-3年,"['年底双薪', '股票期权', '年终分红', '带薪年假']"
98,4389470,手机游戏测试员,西安,2018-05-02 10:58:15,5.6,21864,乐推网络,西安乐推网络科技有限公司,50-150人,高新技术产业开发区,本科,不需要融资,移动互联网,108.88728,34.196823,全职,1-3年,"['绩效奖金', '五险一金', '带薪年假', '交通补助']"
99,4024311,游戏测试初级工程师,苏州,2018-05-01 19:47:08,4.2,8464,苏州天魂网络,苏州天魂网络科技股份有限公司,15-50人,高新区,大专,未融资,游戏,120.537754,31.275604,全职,不限,"['领导好', '技能培训', '节日礼物', '专项奖金']"
100,4426404,游戏测试-高玩-杭州,杭州,2018-04-23 15:56:45,12.0,123777,通力互联,北京通力互联技术服务有限公司,2000人以上,滨江区,大专,不需要融资,"电子商务,企业服务",120.190678,30.187641,全职,1-3年,"['绩效奖金', '交通补助', '定期体检', '通讯津贴']"
101,4476377,游戏测试/主测试(3829),北京,2018-04-24 20:47:30,19.0,10369,完美世界,完美世界（北京）软件科技发展有限公司,2000人以上,朝阳区,不限,上市公司,"移动互联网,游戏",40.009854,116.42976,全职,不限,"['绩效奖金', '五险一金', '带薪年假', '年度旅游']"
102,4468334,游戏测试,厦门,2018-04-30 14:58:14,7.0,372039,云雷网络,厦门云雷网络科技有限公司,50-150人,思明区,大专,不需要融资,游戏,118.182814,24.4888,全职,1-3年,"['""""']"
103,3451182,BJ-游戏测试,北京,2018-04-26 16:43:59,6.8,29911,CMGE中手游,深圳市中手游网络科技有限公司,500-2000人,朝阳区,本科,上市公司,"移动互联网,游戏",115.99339,39.99426,全职,1-3年,"['节日礼物', '技能培训', '绩效奖金', '岗位晋升']"
104,4038358,游戏测试工程师,北京,2018-04-25 20:30:24,12.4,6702,Zenjoy,北京创智优品科技有限公司,150-500人,东城区,大专,不需要融资,"移动互联网,游戏",116.4334,39.92111,全职,3-5年,"['节日礼物', '顶配Mac', '小而美', '扁平管理']"
105,4422864,游戏测试工程师,深圳,2018-05-03 09:32:34,6.4,16831,武汉佰钧成技术有限公司,武汉佰钧成技术有限责任公司,2000人以上,南山区,大专,不需要融资,移动互联网,0.0,0.0,全职,1-3年,"['带薪年假', '计算机软件', '管理规范', '定期体检']"
106,4358715,游戏测试工程师,重庆,2018-05-02 10:17:28,7.6,355631,全民party,重庆星坛科技有限公司,150-500人,江北区,不限,不需要融资,移动互联网,106.547263,29.584192,全职,1-3年,"['""""']"
107,3661806,游戏测试工程师,杭州,2018-05-02 11:26:02,12.0,329,网易,网易（杭州）有限公司,2000人以上,滨江区,本科,上市公司,"电子商务,移动互联网",120.192295,30.188393,全职,1-3年,"['节日礼物', '技能培训', '免费班车', '带薪年假']"
108,3259422,游戏测试工程师,深圳,2018-05-03 09:20:21,10.8,120131,指间游戏,深圳市指间网络科技有限公司,15-50人,南山区,大专,天使轮,"移动互联网,游戏",113.992969,22.589484,全职,3-5年,[]
109,3173583,游戏测试,深圳,2018-05-02 09:46:28,7.6,131507,GALASPORTS,深圳市望尘科技有限公司,150-500人,宝安区,本科,不需要融资,"游戏,移动互联网",0.0,0.0,全职,1-3年,"['专项奖金', '带薪年假', '绩效奖金', '交通补助']"
110,3695340,游戏测试专员,深圳,2018-05-02 09:37:08,7.0,73666,开天创世,北京开天创世科技有限公司,150-500人,南山区,大专,D轮及以上,"移动互联网,游戏",113.944182,22.547581,全职,1-3年,"['技能培训', '节日礼物', '专项奖金', '带薪年假']"
111,2999813,游戏测试,郑州,2018-04-25 16:01:29,3.8,61033,百易科技,郑州百易科技有限公司,50-150人,金水区,大专,未融资,游戏,113.705682,34.766166,全职,1-3年,"['技能培训', '岗位晋升', '年度旅游', '五险一金']"
112,3309366,游戏测试 QA,北京,2018-04-28 10:35:33,8.4,206984,有爱互动,北京有爱互娱科技有限公司,150-500人,海淀区,本科,B轮,游戏,116.351631,39.977163,全职,3-5年,"['年底双薪', '带薪年假', '节日礼物', '弹性工作']"
113,2509447,游戏测试,武汉,2018-04-10 10:40:06,6.2,116037,百鲤游戏,武汉百鲤网络技术有限公司,50-150人,江岸区,大专,A轮,"游戏,移动互联网",114.276692,30.595743,全职,3-5年,"['年底双薪', '专项奖金', '带薪年假', '股票期权']"
114,4391372,游戏测试工程师,深圳,2018-05-02 08:58:48,7.6,42627,中青宝,深圳中青宝互动网络股份有限公司,500-2000人,南山区,大专,上市公司,"移动互联网,游戏",113.952423,22.537373,全职,1-3年,"['节日礼物', '年底双薪', '带薪年假', '提供工作三餐']"
115,3864987,游戏测试开发工程师,北京,2018-05-02 17:44:02,12.0,9365,西山居游戏,成都西山居互动娱乐科技有限公司珠海分公司,2000人以上,海淀区,本科,不需要融资,游戏,116.328594,39.971806,全职,1-3年,"['绩效奖金', '股票期权', '专项奖金', '年底双薪']"
116,4388294,游戏测试工程师,上海,2018-05-02 15:33:12,13.2,120674,维优Viewfin,上海若灵软件技术有限公司,50-150人,徐汇区,本科,A轮,"金融,移动互联网",121.459653,31.190217,全职,1-3年,"['专项奖金', '定期体检', '带薪年假', '绩效奖金']"
117,3797894,游戏测试,北京,2018-04-24 15:03:29,4.8,58125,北京趣酷科技有限公司,北京趣酷科技有限公司,150-500人,石景山区,大专,不需要融资,游戏,116.183961,39.922441,全职,1-3年,"['技能培训', '节日礼物', '年底双薪', '带薪年假']"
118,4414186,初级游戏测试工程师,广州,2018-05-02 15:01:15,3.8,9619,擎天柱,广州市擎天柱网络科技有限公司,150-500人,天河区,本科,不需要融资,游戏,113.373871,23.123455,实习,应届毕业生,"['扁平管理', '技术实力强', '发展快前景美', '快速晋升通道']"
119,4219763,游戏测试工程师,广州,2018-05-02 14:22:15,6.8,5004,广州百田,广州百田信息科技有限公司,500-2000人,天河区,大专,上市公司,"移动互联网,游戏",113.33947484,23.12612581,全职,1-3年,"['股票期权', '专项奖金', '年底双薪', '五险一金']"
120,4429778,游戏测试,深圳,2018-04-20 17:36:40,6.4,16831,武汉佰钧成技术有限公司,武汉佰钧成技术有限责任公司,2000人以上,宝安区,大专,不需要融资,移动互联网,113.88402,22.555259,全职,1-3年,"['带薪年假', '计算机软件', '管理规范', '定期体检']"
121,4009114,游戏测试工程师,北京,2018-05-02 09:37:08,12.0,73666,开天创世,北京开天创世科技有限公司,150-500人,朝阳区,大专,D轮及以上,"移动互联网,游戏",116.471587,40.011925,全职,1-3年,"['技能培训', '节日礼物', '专项奖金', '带薪年假']"
122,4470039,游戏测试工程师,广州,2018-05-03 10:00:49,5.8,357498,欢娱游戏,广东欢娱游戏科技有限公司,50-150人,天河区,大专,天使轮,游戏,113.372361,23.122802,全职,1-3年,[]
123,3616523,游戏测试组长 QA组长,深圳,2018-04-25 11:33:32,14.6,146940,奥飞游戏深圳分公司,上海奥飞游戏有限公司,150-500人,南山区,不限,A轮,游戏,113.938808,22.542517,全职,3-5年,[]
124,3934906,游戏测试主管,上海,2018-05-02 09:37:52,10.8,234804,聪盛网络,上海聪盛网络科技有限公司,50-150人,闵行区,大专,不需要融资,"游戏,移动互联网",121.381709,31.112813,全职,3-5年,"['交通补助', '带薪年假', '定期体检', '绩效奖金']"
125,4323888,游戏测试,杭州,2018-04-24 09:31:07,12.0,85480,浙江鹰泊,浙江鹰泊品牌管理有限公司,50-150人,西湖区,不限,A轮,电子商务,120.12086,30.28155,全职,1-3年,"['节日礼物', '带薪年假', '年度旅游', '管理规范']"
126,4196447,游戏测试工程师,深圳,2018-05-01 17:28:57,9.8,304520,夸克链,誇克鏈科技有限公司,150-500人,南山区,大专,天使轮,移动互联网、电子商务,113.957389,22.537258,全职,1-3年,[]
127,3761890,游戏测试实习生（可兼职）,珠海,2018-05-02 10:20:18,1.4,105202,沙盒网络,珠海沙盒网络科技有限公司,15-50人,香洲区,大专,A轮,"移动互联网,游戏",113.54013,22.38043,全职,应届毕业生,"['节日礼物', '年底双薪', '股票期权', '带薪年假']"
128,3971513,高级游戏测试工程师,广州,2018-05-02 09:55:40,13.6,22790,网易游戏,广州博冠信息科技有限公司,2000人以上,天河区,本科,上市公司,游戏,113.321853,23.122696,全职,3-5年,"['绩效奖金', '年终分红', '专项奖金', '年底双薪']"
129,4132676,手机游戏测试,广州,2018-04-27 20:53:23,10.8,296449,星汉科技,星汉（广州）科技有限公司,50-150人,海珠区,本科,天使轮,"移动互联网,游戏",113.368263,23.096482,全职,1-3年,"['年底双薪', '股票期权', '带薪年假', '绩效奖金']"
130,4475216,游戏测试,北京,2018-04-24 17:25:29,5.6,211050,英雄互娱,成都英雄互娱科技有限公司,150-500人,朝阳区,大专,上市公司,"移动互联网,游戏",116.443108,39.92147,全职,不限,[]
131,1938867,游戏测试,深圳,2018-04-28 09:34:29,8.4,95521,红鸟网络,深圳市红鸟网络科技有限公司,150-500人,南山区,大专,上市公司,"移动互联网,企业服务",113.953534,22.542215,全职,3-5年,"['年底双薪', '岗位晋升', '扁平管理', '管理规范']"
132,4010855,高级游戏测试,广州,2018-05-02 17:40:30,21.0,56211,雷音科技,广州雷音网络科技有限公司,50-150人,天河区,大专,不需要融资,"移动互联网,游戏",113.323844,23.096432,全职,3-5年,"['技能培训', '绩效奖金', '年度旅游', '岗位晋升']"
133,4505098,游戏测试主管,北京,2018-05-02 11:33:34,8.8,3546,光宇游戏,北京光宇在线科技有限责任公司,2000人以上,海淀区,不限,上市公司,游戏,39.897445,116.331398,全职,1-3年,"['年底双薪', '绩效奖金', '专项奖金', '五险一金']"
134,4426597,游戏测试工程师-上海,上海,2018-04-23 15:56:45,12.0,123777,通力互联,北京通力互联技术服务有限公司,2000人以上,徐汇区,本科,不需要融资,"电子商务,企业服务",121.406539,31.173482,全职,1-3年,"['绩效奖金', '交通补助', '定期体检', '通讯津贴']"
135,4501512,游戏测试实习生,北京,2018-05-02 09:37:07,3.8,73666,开天创世,北京开天创世科技有限公司,150-500人,朝阳区,本科,D轮及以上,"移动互联网,游戏",116.471587,40.011925,实习,应届毕业生,"['技能培训', '节日礼物', '专项奖金', '带薪年假']"
136,4115555,游戏测试,上海,2018-04-26 14:16:33,7.6,157731,点点乐,上海点点乐信息科技有限公司,150-500人,浦东新区,大专,上市公司,游戏,121.586549,31.205397,全职,1-3年,"['年底双薪', '年终分红', '带薪年假', '交通补助']"
137,4387513,高级游戏测试工程师,上海,2018-05-03 10:08:01,12.0,292619,分众游戏,上海骏众网络科技有限公司,2000人以上,黄浦区,本科,上市公司,"移动互联网,游戏",0.0,0.0,全职,1-3年,"['年底双薪', '股票期权', '带薪年假', '扁平管理']"
138,3544745,游戏测试,广州,2018-05-02 20:13:29,3.8,589,多益网络,广州多益网络股份有限公司,500-2000人,萝岗区,不限,不需要融资,"移动互联网,游戏",113.505122,23.161058,全职,不限,"['扁平化管理', '现象级产品']"
139,2628345,手机游戏测试工程师,武汉,2018-05-02 15:48:28,8.4,148870,趣米科技,趣米（武汉）科技有限公司,50-150人,东湖新技术开发区,大专,不需要融资,"游戏,移动互联网",114.412345,30.456547,全职,1-3年,"['弹性工作', '扁平管理', '五险一金', '项目奖金']"
140,4428105,游戏测试工程师,杭州,2018-05-02 14:20:06,8.4,307665,5188,杭州好生意网络科技有限公司,15-50人,江干区,大专,未融资,"企业服务,文化娱乐",120.218846,30.315762,全职,1-3年,"['""""']"
141,2218481,游戏测试工程师,上海,2018-04-28 11:20:22,9.8,138115,巨人网络,上海巨人网络科技有限公司,500-2000人,松江区,不限,上市公司,游戏,121.26851644,31.05411493,全职,1-3年,"['年底双薪', '专项奖金', '股票期权', '绩效奖金']"
142,2095018,游戏测试工程师,上海,2018-04-24 11:32:40,10.8,34284,云游控股集团,广州菲动软件科技有限公司,150-500人,徐汇区,大专,上市公司,移动互联网,121.40402,31.17722,全职,3-5年,"['五险一金', '商业保险', '绩效奖金', '午餐补助']"
143,4088504,游戏测试开发助理,南京,2018-05-02 16:41:46,3.8,233304,燃网络,南京网燃网络科技有限公司,少于15人,秦淮区,大专,未融资,"移动互联网,游戏",118.788719,32.049374,全职,不限,[]
144,4380704,游戏测试,福州,2018-05-02 11:30:58,3.8,51037,飞鱼科技,厦门飞游信息科技有限公司,150-500人,鼓楼区,大专,上市公司,游戏,119.305087,26.086742,全职,不限,"['节日礼物', '带薪年假', '定期体检', '六险一金']"
145,4415233,游戏测试主管,成都,2018-05-02 09:47:30,6.8,245821,比高互动科技,四川比高互动科技有限公司,15-50人,高新区,大专,不需要融资,"游戏,移动互联网",104.056479,30.585961,全职,5-10年,"['带薪年假', '定期体检', '午餐补助', '专项奖金']"
146,4458622,广州--游戏测试工程师,广州,2018-04-20 17:34:13,8.4,16831,武汉佰钧成技术有限公司,武汉佰钧成技术有限责任公司,2000人以上,海珠区,大专,不需要融资,移动互联网,113.325553,23.098929,全职,1-3年,"['带薪年假', '计算机软件', '管理规范', '定期体检']"
147,3598549,游戏测试主管,深圳,2018-04-28 11:28:40,9.6,108929,深圳云中,深圳云中信息技术有限公司,150-500人,南山区,大专,未融资,移动互联网,113.993578,22.99368,全职,1-3年,"['年底双薪', '带薪年假', '年度旅游', '周末双休']"
148,4490627,游戏测试,北京,2018-04-26 20:41:07,5.4,259110,米花互动,北京米花互动科技有限公司,15-50人,朝阳区,本科,B轮,游戏,116.467206,39.885076,全职,1-3年,[]
149,3369728,游戏测试实习生,杭州,2018-05-02 11:26:02,3.4,329,网易,网易（杭州）有限公司,2000人以上,滨江区,本科,上市公司,"电子商务,移动互联网",120.192295,30.188393,实习,不限,"['节日礼物', '技能培训', '免费班车', '带薪年假']"
150,3977204,游戏测试工程师,成都,2018-05-02 20:13:29,9.8,589,多益网络,广州多益网络股份有限公司,500-2000人,高新区,不限,不需要融资,"移动互联网,游戏",104.056193,30.538832,全职,不限,"['扁平化管理', '现象级产品']"
151,4101041,游戏测试工程师,深圳,2018-05-03 09:44:43,7.6,304404,TRIWIN GAMES,深圳趣运科技有限公司,15-50人,宝安区,不限,天使轮,"移动互联网,游戏",0.0,0.0,全职,不限,"['股票期权', '年终分红', '绩效奖金', '定期体检']"
152,4367073,游戏测试,武汉,2018-04-03 15:02:58,6.2,285087,从玉网络,武汉从玉网络科技有限公司,150-500人,武昌区,不限,不需要融资,游戏,114.32162,30.57781,全职,1-3年,"['五险一金', '全勤奖金', '节日福利', '加班补贴']"
153,3728595,游戏测试工程师,杭州,2018-04-16 09:08:27,11.2,223587,星飞,浙江星飞信息技术有限公司,150-500人,滨江区,本科,天使轮,游戏,120.186588,30.188111,全职,1年以下,"['年底双薪', '绩效奖金', '股票期权', '午餐补助']"
154,4501293,游戏测试,广州,2018-05-02 11:34:40,4.8,258960,深游网络,上海深游网络科技有限公司广州分公司,50-150人,天河区,大专,未融资,游戏,113.372371,23.126223,全职,不限,[]
155,3511767,游戏测试工程师,北京,2018-04-27 10:05:24,12.0,26142,QQ炫舞,北京永航科技有限公司,500-2000人,东城区,大专,不需要融资,游戏,116.418697,39.954899,全职,3-5年,"['年终分红', '专项奖金', '五险一金', '带薪年假']"
156,3829874,游戏测试工程师,上海,2018-04-03 17:42:08,9.8,138115,巨人网络,上海巨人网络科技有限公司,500-2000人,松江区,不限,上市公司,游戏,121.26796156,31.05487245,全职,1-3年,"['年底双薪', '专项奖金', '股票期权', '绩效奖金']"
157,4384863,游戏测试-灰盒测试,北京,2018-05-02 18:56:57,14.0,159593,玄霄,北京玄霄科技有限公司,50-150人,朝阳区,本科,不需要融资,"游戏,文化娱乐",116.509734,39.911114,全职,3-5年,[]
158,4504769,游戏测试初级工程师,北京,2018-05-02 11:07:59,6.8,169904,善豹科技,北京善豹科技有限公司,50-150人,海淀区,本科,A轮,游戏,116.297596,40.0492,全职,1-3年,"['年终分红', '绩效奖金', '交通补助', '带薪年假']"
159,4197495,游戏测试开发助理,长沙,2018-05-02 11:02:44,3.8,232459,择彦网络,上海择彦网络科技有限公司,500-2000人,芙蓉区,大专,上市公司,移动互联网,112.993923,28.19463,全职,应届毕业生,[]
160,4383475,游戏测试,厦门,2018-04-08 16:48:21,6.2,231963,优托邦,厦门优托邦网络科技有限公司,15-50人,思明区,不限,未融资,"移动互联网,广告营销",118.11965,24.49773,全职,1-3年,[]
161,4430371,游戏测试,广州,2018-04-16 20:59:43,9.4,18647,要玩游戏,广州要玩娱乐网络技术股份有限公司,150-500人,海珠区,大专,上市公司,游戏,113.313295,23.053932,全职,3-5年,"['五险一金', '周末双休', '健身房', '帅哥多']"
162,2469471,游戏测试工程师,北京,2018-04-09 11:19:23,14.0,280,畅游,北京畅游天下网络技术有限公司,2000人以上,石景山区,不限,上市公司,"移动互联网,游戏",116.21223888,39.90738791,全职,不限,"['节日礼物', '技能培训', '带薪年假', '岗位晋升']"
163,4299175,游戏测试专家,杭州,2018-04-28 11:52:34,19.0,114739,游卡桌游,杭州游卡网络技术有限公司,500-2000人,西湖区,大专,不需要融资,"游戏,移动互联网",120.116811,30.290398,全职,3-5年,"['品牌IP', '福利健全', '稳定平台', '创业文化']"
164,4284140,游戏测试,成都,2018-04-27 16:04:32,5.6,85404,掌沃无限,成都掌沃无限科技有限公司,50-150人,高新区,本科,不需要融资,游戏,104.06642,30.55208,全职,1-3年,"['技能培训', '扁平管理', '领导好', '美女多']"
165,3403692,游戏测试工程师,广州,2018-04-16 09:08:26,8.4,223587,星飞,浙江星飞信息技术有限公司,150-500人,天河区,大专,天使轮,游戏,113.377194,23.124219,全职,1-3年,"['年底双薪', '绩效奖金', '股票期权', '午餐补助']"
166,4375170,游戏测试主管,重庆,2018-05-02 10:17:28,12.0,355631,全民party,重庆星坛科技有限公司,150-500人,江北区,大专,不需要融资,移动互联网,106.547263,29.584192,全职,3-5年,"['""""']"
167,3312180,游戏测试+周末双休,重庆,2018-04-19 10:26:36,5.4,163136,重庆简米网络科技有限公司,重庆简米网络科技有限公司,50-150人,江北区,大专,不需要融资,"教育,移动互联网",106.532748,29.571647,全职,不限,"['年底双薪', '年终分红', '绩效奖金', '领导好']"
168,2879301,游戏测试工程师,广州,2018-04-26 09:28:44,6.2,30387,麦根网络,广州麦根网络科技有限公司,15-50人,海珠区,大专,不需要融资,游戏,113.384954,23.101489,全职,1-3年,"['技能培训', '带薪年假', '绩效奖金', '岗位晋升']"
169,4283117,游戏测试,北京,2018-05-02 15:24:40,4.8,84339,追趣游戏,上海追趣网络科技有限公司,50-150人,海淀区,大专,A轮,"移动互联网,游戏",116.34791,40.00172,全职,不限,"['年底双薪', '绩效奖金', '岗位晋升', '扁平管理']"
170,4342609,【游戏测试】,北京,2018-04-03 10:25:05,6.8,107701,展游,北京展游科技有限公司,150-500人,海淀区,不限,不需要融资,游戏,116.351631,39.977163,全职,1-3年,[]
171,836670,游戏测试工程师,深圳,2018-05-03 09:49:38,10.8,53957,迅龙创威,深圳市迅龙创威网络技术有限公司,150-500人,南山区,大专,A轮,游戏,113.952985,22.537007,全职,1-3年,"['顶级团队', '精品研发', '精品发行', '扁平管理']"
172,3722534,游戏测试工程师,杭州,2018-04-23 11:31:08,11.2,275269,锦鲤网络,杭州锦鲤网络科技有限公司,15-50人,西湖区,大专,不需要融资,"移动互联网,游戏",120.130203,30.259324,全职,1-3年,"['绩效奖金', '带薪年假', '年终分红', '氛围超好']"
173,4440257,游戏测试工程师,福州,2018-04-18 11:17:03,5.2,175191,IGG,福州天盟数码有限公司,500-2000人,晋安区,大专,上市公司,游戏,119.316517,26.09371,全职,1-3年,[]
174,4453818,游戏测试工程师,广州,2018-05-02 11:50:13,5.6,168156,游雁游戏,上海游雁网络科技有限公司,150-500人,天河区,不限,未融资,游戏,113.375863,23.131671,全职,应届毕业生,"['年底双薪', '定期体检', '专项奖金', '带薪年假']"
175,4445960,游戏测试开发工程师——欢迎应届生投递,深圳,2018-05-02 10:33:50,11.4,32805,尚游游戏,深圳市尚游网络科技有限公司,150-500人,南山区,本科,不需要融资,游戏,113.9519,22.53797,全职,1年以下,"['年底双薪', '节日礼物', '绩效奖金', '扁平管理']"
176,4437263,阿里游戏-游戏测试工程师,广州,2018-04-26 17:58:32,19.0,216917,阿里文娱,大鱼快乐有限公司,2000人以上,天河区,本科,上市公司,"文化娱乐,移动互联网",113.340117,23.125725,全职,3-5年,"['年底双薪', '股票期权', '绩效奖金', '定期体检']"
177,4501615,游戏测试,杭州,2018-04-28 19:33:38,7.0,71987,墨风科技,杭州墨风科技有限公司,15-50人,西湖区,本科,天使轮,游戏,120.06891,30.323272,全职,不限,"['技能培训', '岗位晋升', '扁平管理', '管理规范']"
178,4317152,游戏测试（王者荣耀）,深圳,2018-04-28 17:35:13,8.4,16831,武汉佰钧成技术有限公司,武汉佰钧成技术有限责任公司,2000人以上,南山区,大专,不需要融资,移动互联网,0.0,0.0,全职,1-3年,"['带薪年假', '计算机软件', '管理规范', '定期体检']"
179,4486653,游戏测试工程师,成都,2018-04-26 13:38:05,4.8,263727,蜂鸟智库,成都蜂鸟智库科技有限公司,15-50人,高新区,大专,未融资,"移动互联网,企业服务",104.066381,30.54521,全职,1-3年,[]
180,4205389,游戏测试工程师,广州,2018-04-27 11:17:38,6.2,30387,麦根网络,广州麦根网络科技有限公司,15-50人,番禺区,大专,不需要融资,游戏,113.342878,22.978369,全职,1-3年,"['技能培训', '带薪年假', '绩效奖金', '岗位晋升']"
181,4335656,游戏测试工程师,上海,2018-04-24 13:59:13,7.0,275566,宁波比孚,宁波比孚信息科技有限公司,150-500人,徐汇区,大专,未融资,"移动互联网,游戏",121.399004,31.163303,全职,1-3年,[]
182,4335792,游戏测试,上海,2018-04-23 14:47:52,5.6,299728,桃林网络,上海上神桃林网络科技有限公司,少于15人,浦东新区,大专,未融资,移动互联网,0.0,0.0,全职,1-3年,"['""""']"
183,3202280,手机游戏测试工程师,武汉,2018-04-27 08:50:43,8.4,142081,多比特,武汉市多比特信息科技有限公司,50-150人,洪山区,本科,不需要融资,"移动互联网,文化娱乐",114.406728,30.477141,全职,1-3年,"['年底双薪', '定期体检', '带薪年假', '弹性工作']"
184,4175994,【成都】游戏测试专员-CPS010402-003,成都,2018-04-11 10:30:05,4.8,211050,英雄互娱,成都英雄互娱科技有限公司,150-500人,高新区,本科,上市公司,"移动互联网,游戏",104.061751,30.538105,全职,1-3年,[]
185,4349362,游戏测试工程师,北京,2018-05-02 09:04:02,9.6,5624,卓越游戏（locojoy）,北京乐动卓越信息技术有限公司,500-2000人,朝阳区,本科,未融资,游戏,116.416207,40.035027,全职,不限,"['带薪年假', '给力餐补', '岗位晋升', '扁平管理']"
186,4316922,游戏测试组长,北京,2018-04-10 17:55:59,7.0,54969,钛金骑士,北京钛金骑士网络科技有限公司,15-50人,昌平区,大专,不需要融资,"移动互联网,游戏",116.34877,40.06665,全职,1-3年,"['节日礼物', '股票期权', '带薪年假', '扁平管理']"
187,4165769,游戏测试,成都,2018-04-16 12:07:43,5.2,328862,手领科技,成都手领科技有限公司,15-50人,武侯区,不限,不需要融资,游戏,103.983831,30.598696,全职,1-3年,"['""""']"
188,4431372,游戏测试工程师,上海,2018-05-02 15:33:12,13.2,120674,维优Viewfin,上海若灵软件技术有限公司,50-150人,徐汇区,本科,A轮,"金融,移动互联网",121.459653,31.190217,全职,1-3年,"['专项奖金', '定期体检', '带薪年假', '绩效奖金']"
189,2938958,BJ-游戏测试主管,北京,2018-04-26 16:43:59,12.0,29911,CMGE中手游,深圳市中手游网络科技有限公司,500-2000人,朝阳区,本科,上市公司,"移动互联网,游戏",115.99339,39.99426,全职,3-5年,"['节日礼物', '技能培训', '绩效奖金', '岗位晋升']"
190,2918956,游戏测试实习生,北京,2018-05-02 14:22:43,2.8,43086,钛核互动,北京钛核互动信息技术有限公司,50-150人,朝阳区,本科,天使轮,游戏,116.50929,39.91232,实习,应届毕业生,"['股票期权', '带薪年假', '绩效奖金', '扁平管理']"
191,2925241,游戏测试总监,北京,2018-05-02 10:14:16,7.6,54730,木偶游戏,木偶星球（北京）科技有限公司,50-150人,海淀区,大专,A轮,游戏,116.33528,39.97653,全职,3-5年,"['专项奖金', '股票期权', '绩效奖金', '扁平管理']"
192,4237900,游戏测试工程师,武汉,2018-04-27 16:55:18,4.2,288994,互娱游戏,武汉百大新征科技有限公司,15-50人,武昌区,不限,天使轮,"社交网络,游戏",114.356547,30.571977,全职,不限,"['""""']"
193,3953003,游戏测试工程师,杭州,2018-05-02 11:03:24,12.0,29750,星辉游戏,广东星辉天拓互动娱乐有限公司,500-2000人,滨江区,本科,上市公司,游戏,120.195504,30.184708,全职,1-3年,"['技能培训', '年底双薪', '节日礼物', '绩效奖金']"
194,2311762,游戏测试工程师,武汉,2018-04-25 14:05:14,4.8,93408,武汉创游,武汉创游网络科技有限公司,50-150人,江夏区,不限,未融资,"移动互联网,游戏",114.401218,30.441353,全职,1-3年,"['技能培训', '节日礼物', '年底双薪', '带薪年假']"
195,3635042,游戏测试工程师,北京,2018-04-27 10:57:50,14.0,129,陌陌,北京陌陌科技有限公司,500-2000人,朝阳区,本科,上市公司,社交网络,115.99339,39.99426,全职,3-5年,"['岗位晋升', '帅哥多', '管理规范', '技能培训']"
196,3700479,游戏测试工程师（QA）,北京,2018-04-26 16:28:10,11.2,13321,FunPlus 趣加游戏,北京趣加科技有限公司,150-500人,海淀区,本科,B轮,游戏,115.99339,39.99426,全职,3-5年,"['绩效奖金', '股票期权', '专项奖金', '五险一金']"
197,3364107,游戏测试,南宁,2018-04-17 15:52:25,5.6,231052,宏玩科技,南宁宏玩网络科技有限公司,50-150人,西乡塘区,大专,未融资,移动互联网,108.280836,22.864527,全职,1-3年,[]
198,4404304,游戏测试工程师QA,福州,2018-04-11 15:31:16,4.8,112503,福州龙卷风,福州龙卷风网络科技有限公司,15-50人,台江区,大专,未融资,"移动互联网,游戏",119.279496,26.063468,全职,1-3年,[]
199,2508527,游戏测试,上海,2018-05-02 10:43:59,4.8,35893,上海域起,上海域起网络科技有限公司,50-150人,浦东新区,大专,不需要融资,"移动互联网,游戏",121.59972,31.205109,全职,不限,"['年底双薪', '带薪年假', '年度旅游', '领导好']"
200,3078933,游戏测试员,成都,2018-04-27 10:24:31,4.8,134300,成都卓杭,成都卓杭网络科技股份有限公司,50-150人,高新区,大专,上市公司,"移动互联网,游戏",104.061093,30.584604,全职,1-3年,[]
201,4340570,游戏测试QA,北京,2018-05-02 18:56:57,5.6,159593,玄霄,北京玄霄科技有限公司,50-150人,朝阳区,不限,不需要融资,"游戏,文化娱乐",116.509734,39.911114,全职,1-3年,[]
202,2925709,游戏测试工程师（应届毕业生）,深圳,2018-05-03 09:49:38,5.2,53957,迅龙创威,深圳市迅龙创威网络技术有限公司,150-500人,南山区,大专,A轮,游戏,113.953335,22.53712,全职,应届毕业生,"['顶级团队', '精品研发', '精品发行', '扁平管理']"
203,4189567,高级游戏测试开发工程师,深圳,2018-04-19 09:26:15,42.0,19875,vivo,维沃移动通信有限公司,2000人以上,福田区,本科,未融资,移动互联网,114.060635,22.567334,全职,3-5年,"['年终分红', '带薪年假', '年度旅游', '岗位晋升']"
204,4222358,手机游戏测试工程师,北京,2018-05-02 16:16:32,6.8,6070,北纬通信,北京北纬通信科技股份有限公司,500-2000人,海淀区,大专,上市公司,"移动互联网,游戏",116.326792,39.933035,全职,1-3年,"['年底双薪', '五险一金', '通讯津贴', '带薪年假']"
205,3146758,游戏测试工程师,深圳,2018-05-02 11:29:37,7.6,171181,忠益实业,深圳忠益实业发展有限公司,50-150人,南山区,大专,不需要融资,游戏,113.927273,22.532571,全职,1-3年,"['带薪年假', '五险一金', '节日福利', '下午茶']"
206,3980124,游戏测试工程师（灰盒、白盒）,深圳,2018-05-02 10:33:50,12.0,32805,尚游游戏,深圳市尚游网络科技有限公司,150-500人,南山区,本科,不需要融资,游戏,113.9519,22.53797,全职,1-3年,"['年底双薪', '节日礼物', '绩效奖金', '扁平管理']"
207,4373568,游戏测试员,无锡,2018-05-01 23:10:25,2.8,230099,无锡长永,无锡长永网络科技有限公司,50-150人,无锡新区,大专,未融资,游戏,120.40451,31.507756,全职,不限,"['年底双薪', '高额项目奖金', '高流水项目', '提供住宿']"
208,4265966,游戏测试工程师,深圳,2018-05-03 09:57:33,15.2,136094,迷你玩,深圳市迷你玩科技有限公司,15-50人,南山区,大专,天使轮,游戏,113.912219,22.510996,全职,应届毕业生,[]
209,3547288,游戏测试（接受应届生）,深圳,2018-05-02 10:02:33,4.8,254414,哈士奇通信技术有限公司,深圳市哈士奇通信技术有限公司,15-50人,福田区,大专,未融资,"游戏,移动互联网",114.031449,22.533071,全职,不限,"['弹性工作', '五险一金', '周末双休', '优秀团队']"
210,4413943,游戏测试工程师,北京,2018-04-12 18:12:42,14.0,1880,快手,北京达佳互联信息技术有限公司,500-2000人,海淀区,本科,D轮及以上,移动互联网,116.316508,39.984066,全职,1-3年,"['股票期权', '弹性工作', '定期体检', '岗位晋升']"
211,4372641,游戏测试工程师,重庆,2018-04-27 10:17:17,3.8,217365,重庆微娱,重庆微娱科技有限公司,少于15人,渝中区,大专,不需要融资,"游戏,移动互联网",106.512359,29.535564,全职,1-3年,[]
212,3981910,手机游戏测试工程师,北京,2018-05-02 10:24:07,8.8,50156,掌上明珠,北京掌上明珠信息技术有限公司,150-500人,朝阳区,大专,上市公司,游戏,115.99339,39.99426,全职,1-3年,"['美女帅哥多', '工作环境美', '研发实力强', '定期体检']"
213,4494189,游戏测试,深圳,2018-04-27 15:16:58,5.6,44314,冰川网络,深圳冰川网络股份有限公司,500-2000人,南山区,大专,上市公司,游戏,113.93654,22.543735,全职,1-3年,"['节日礼物', '免费班车', '带薪年假', '绩效奖金']"
214,4431909,游戏测试（19年毕业实习生）,上海,2018-04-17 10:39:20,5.4,593,边锋,杭州边锋网络技术有限公司,500-2000人,浦东新区,本科,不需要融资,"移动互联网,游戏",121.628494,31.210946,全职,不限,"['五险一金', '交通补助', '绩效奖金', '节日礼物']"
215,3449881,游戏测试工程师,武汉,2018-04-11 20:46:16,5.6,129682,乐谷游戏,武汉乐谷在线科技有限公司,50-150人,洪山区,大专,A轮,游戏,114.336412,30.503395,全职,不限,"['专项奖金', '带薪年假', '弹性工作', '年度旅游']"
216,3139220,游戏测试工程师,北京,2018-04-09 10:14:41,11.2,280,畅游,北京畅游天下网络技术有限公司,2000人以上,石景山区,不限,上市公司,"移动互联网,游戏",116.212239,39.907388,全职,不限,"['节日礼物', '技能培训', '带薪年假', '岗位晋升']"
217,4393403,游戏测试工程师,杭州,2018-04-28 10:48:56,10.8,211706,深圳雅乐,深圳雅乐科技有限公司,15-50人,西湖区,大专,A轮,"移动互联网,电子商务",120.094936,30.305771,全职,3-5年,"['定期体检', '带薪年假', '绩效奖金', '股票期权']"
218,4506389,游戏测试,北京,2018-05-02 14:42:41,12.0,26142,QQ炫舞,北京永航科技有限公司,500-2000人,东城区,大专,不需要融资,游戏,116.419318,39.952742,全职,1-3年,"['年终分红', '专项奖金', '五险一金', '带薪年假']"
219,4437021,游戏测试实习助理,成都,2018-05-02 13:51:45,4.8,358918,楚人融创,成都楚人融创科技有限公司,50-150人,高新区,大专,未融资,游戏,0.0,0.0,全职,应届毕业生,"['""""']"
220,4487193,游戏测试,杭州,2018-04-26 14:28:26,9.8,310293,浙江星域网络科技有限公司,浙江星域网络科技有限公司,50-150人,萧山区,本科,不需要融资,游戏,120.244824,30.238612,全职,1-3年,"['""""']"
221,4012435,游戏测试工程师,深圳,2018-05-02 19:51:04,5.2,79362,即拓互动,深圳即拓互动科技有限公司,15-50人,南山区,本科,不需要融资,"移动互联网,游戏",113.94634,22.53357,全职,1-3年,"['节日礼物', '带薪年假', '绩效奖金', '年度旅游']"
222,366412,游戏测试工程师,深圳,2018-05-02 15:07:19,5.6,978,墨麟集团,深圳市墨麟科技有限公司,500-2000人,南山区,大专,不需要融资,游戏,,,全职,1-3年,"['绩效奖金', '五险一金', '交通补助', '带薪年假']"
223,4168528,游戏测试,北京,2018-04-27 16:46:17,4.8,327148,乐海互动,北京乐海互动网络科技有限公司,150-500人,朝阳区,不限,不需要融资,"移动互联网,游戏",116.415405,40.036374,全职,1-3年,[]
224,2111524,游戏测试工程师,北京,2018-05-02 14:22:43,9.4,43086,钛核互动,北京钛核互动信息技术有限公司,50-150人,朝阳区,本科,天使轮,游戏,116.50929,39.91232,全职,1-3年,"['股票期权', '带薪年假', '绩效奖金', '扁平管理']"
225,3243498,游戏测试工程师,武汉,2018-04-27 11:57:19,15.2,99901,卓翰科技,武汉卓翰网络科技有限公司,50-150人,江夏区,本科,A轮,移动互联网,114.416888,30.453086,全职,3-5年,"['节日礼物', '年底双薪', '带薪年假', '绩效奖金']"
226,2790737,游戏测试工程师,杭州,2018-05-02 11:00:38,9.6,108934,勤路软件（Luckyo）,杭州勤路软件有限公司,50-150人,西湖区,本科,A轮,游戏,120.14572,30.278322,全职,1-3年,"['年底双薪', '绩效奖金', '带薪年假', '午餐补助']"
227,4128134,游戏测试工程师,北京,2018-05-02 09:52:11,10.8,319002,展心展力,北京展心展力信息科技有限公司,15-50人,朝阳区,本科,A轮,"移动互联网,游戏",116.472822,40.002222,全职,3-5年,"['股票期权', '午餐补助', '住房补助']"
228,4370692,游戏测试工程师/经理,广州,2018-04-26 20:41:15,14.0,24504,手游圈内人,广州赫赫信息科技有限公司,150-500人,天河区,本科,未融资,"游戏,文化娱乐",113.340117,23.125725,全职,1-3年,"['年终分红', '绩效奖金', '年底双薪', '五险一金']"
229,3928042,外派上海腾讯--游戏测试,上海,2018-04-26 18:05:23,5.8,124652,微创软件,上海微创软件股份有限公司,2000人以上,徐汇区,大专,不需要融资,"企业服务,移动互联网",0.0,0.0,全职,1-3年,[]
230,4477324,游戏测试,广州,2018-04-25 10:00:56,5.6,372339,一米互娱,广州一米互娱网络科技有限公司,15-50人,天河区,大专,未融资,游戏,113.393905,23.120925,全职,不限,"['""""']"
231,3546244,游戏测试&amp;策划,深圳,2018-04-30 18:47:49,12.0,209892,八度科技,深圳市八度时空科技有限公司,15-50人,南山区,本科,不需要融资,游戏,113.942084,22.548687,全职,不限,"['年底4薪', '年终分红', '绩效奖金', '股票期权']"
232,4219405,游戏测试,成都,2018-04-12 13:22:10,3.8,118576,Dr. Panda 熊猫博士,育乐软件（成都）有限公司,50-150人,成华区,大专,不需要融资,"移动互联网,游戏",103.99341,30.994233,全职,1-3年,"['年底双薪', '带薪年假', '午餐补助', '定期体检']"
233,4488151,游戏测试工程师,北京,2018-04-26 15:37:19,6.8,3546,光宇游戏,北京光宇在线科技有限责任公司,2000人以上,海淀区,大专,上市公司,游戏,39.897445,116.331398,全职,1-3年,"['年底双薪', '绩效奖金', '专项奖金', '五险一金']"
234,4066502,中级游戏测试工程师,重庆,2018-04-17 16:40:53,5.2,66535,迅游科技,重庆迅游科技有限公司,150-500人,渝北区,不限,不需要融资,"移动互联网,游戏",106.993437,29.994246,全职,1-3年,"['节日礼物', '绩效奖金', '定期体检', '交通补助']"
235,4169038,游戏测试,厦门,2018-04-17 10:18:46,5.6,4130,极致游戏,厦门极致互动网络技术股份有限公司,150-500人,思明区,本科,上市公司,游戏,118.1807,24.48591,全职,不限,"['年轻有活力', '竞争有激励', '求贤若渴', '六险一金']"
236,4255733,游戏测试主管,深圳,2018-04-16 12:01:33,10.8,148417,智熊网络,深圳智熊网络科技有限公司,50-150人,南山区,大专,不需要融资,"移动互联网,游戏",113.943265,22.548158,全职,3-5年,[]
237,4473249,游戏测试工程师,深圳,2018-04-24 15:09:17,6.8,255546,千柏科技,深圳市千柏科技有限公司,50-150人,南山区,大专,A轮,"移动互联网,游戏",113.991421,22.588521,全职,1年以下,[]
238,3362471,游戏测试工程师(手机游戏),北京,2018-05-02 10:21:37,12.0,487,蓝港互动集团,蓝港在线（北京）科技有限公司,500-2000人,朝阳区,不限,上市公司,游戏,116.47493,40.01206006,全职,1-3年,"['年底双薪', '节日礼物', '技能培训', '绩效奖金']"
239,4451499,游戏测试,广州,2018-05-02 09:16:23,10.8,10105,悦世界,广州悦世界信息科技有限公司,50-150人,海珠区,大专,不需要融资,"游戏,移动互联网",113.382494,23.098451,全职,应届毕业生,"['五险一金', '提供三餐', '年度旅游', '帅哥多']"
240,3590528,游戏测试师助理,沈阳,2018-04-19 10:11:28,3.8,259868,玖易科技,沈阳玖易科技有限公司,50-150人,沈河区,不限,不需要融资,"移动互联网,数据服务",123.441153,41.80591,全职,不限,[]
241,2952425,游戏测试专员,深圳,2018-05-02 16:41:20,6.8,68375,深圳市麦游互动科技有限公司,深圳市麦游互动科技有限公司,15-50人,南山区,大专,A轮,游戏,113.95001,22.555444,全职,1-3年,"['技能培训', '股票期权', '带薪年假', '岗位晋升']"
242,4441904,资深游戏测试,上海,2018-04-19 10:18:19,21.0,275566,宁波比孚,宁波比孚信息科技有限公司,150-500人,徐汇区,大专,未融资,"移动互联网,游戏",121.399004,31.163303,全职,3-5年,[]
243,2582948,游戏测试,广州,2018-04-24 11:10:36,5.6,157397,广州游瑞,广州游瑞信息科技有限公司,15-50人,天河区,大专,未融资,游戏,113.375864,23.131901,全职,1-3年,"['带薪年假', '年底双薪', '绩效奖金', '弹性工作']"
244,3620055,QA 游戏测试,上海,2018-05-02 10:39:35,7.0,138673,上海骆拓,上海骆拓信息科技有限公司,15-50人,闵行区,大专,不需要融资,"游戏,移动互联网",121.506966,31.098095,全职,1-3年,"['领导好', '年度旅游', '扁平管理', '五险一金']"
245,4235025,游戏测试（SLG）,北京,2018-05-02 09:49:03,6.2,6340,6waves,北京优脉互动科技有限公司,15-50人,朝阳区,本科,D轮及以上,游戏,116.50929,39.91232,全职,1-3年,"['技能培训', '节日礼物', '带薪年假', '绩效奖金']"
246,4353504,游戏测试主管,深圳,2018-05-02 11:12:58,10.8,226883,深圳市大象互娱网络科技有限公司,深圳大象互娱网络科技有限公司,50-150人,南山区,大专,未融资,游戏,113.937987,22.523392,全职,3-5年,[]
247,3828558,游戏测试工程师实习生,北京,2018-04-18 18:13:41,4.2,159742,萌石科技,萌石科技（北京）有限公司,15-50人,海淀区,本科,不需要融资,游戏,0.0,0.0,实习,应届毕业生,"['扁平管理', '弹性工作', '岗位晋升', '专项奖金']"
248,4191126,游戏测试工程师（中级）,深圳,2018-04-17 10:31:04,10.8,136833,史蒂夫软件,史蒂夫软件（深圳）有限公司,150-500人,南山区,大专,不需要融资,游戏,113.956668,22.539288,全职,3-5年,"['扁平管理', '岗位晋升', '绩效奖金', '周末双休']"
249,3358080,天美游戏测试经理,深圳,2018-04-11 14:17:48,24.0,451,腾讯,腾讯科技(深圳)有限公司,2000人以上,南山区,本科,上市公司,"移动互联网 ,游戏",113.9446,22.548341,全职,3-5年,"['免费班车', '成长空间', '年度旅游', '岗位晋升']"
250,2798983,棋牌游戏测试,长沙,2018-05-02 10:32:24,5.6,139601,链牌 PokerLink,深圳链牌数据科技有限公司,50-150人,岳麓区,大专,A轮,游戏,112.882949,28.230093,全职,1-3年,"['股票期权', '带薪年假', '扁平管理', '年度旅游']"
251,4486342,游戏测试工程师,广州,2018-04-26 12:14:11,6.2,348907,广州乐趣,广州乐趣科技有限公司,少于15人,番禺区,大专,不需要融资,社交网络,113.333402,22.99243,全职,1-3年,"['年底双薪', '带薪年假', '绩效奖金', '弹性考勤']"
252,4471235,游戏测试,深圳,2018-05-03 09:57:33,9.8,136094,迷你玩,深圳市迷你玩科技有限公司,15-50人,南山区,大专,天使轮,游戏,113.912219,22.510996,全职,应届毕业生,[]
253,3320158,游戏测试师,广州,2018-04-20 14:24:48,5.6,78625,鑫途游戏,广州鑫途网络科技有限公司,15-50人,天河区,大专,未融资,移动互联网,113.334935,23.132802,全职,1-3年,"['张扬个性', '股票期权', '项目分红', '年终分红']"
254,4480056,游戏测试工程师,成都,2018-04-25 14:21:35,5.8,367705,歌德传媒,成都歌德文化传媒有限公司,50-150人,,大专,未融资,文化娱乐 移动互联网,104.062933,30.546685,全职,1-3年,"['""""']"
255,4310094,游戏测试工程师,上海,2018-04-13 19:12:17,7.6,321113,火一网络,上海火一网络科技有限公司,50-150人,浦东新区,本科,A轮,游戏,121.583389,31.198769,全职,1-3年,"['定期体检', '专项奖金', '带薪年假', '绩效奖金']"
256,2897746,游戏测试实习生,成都,2018-04-27 11:13:11,2.8,179175,盛大游戏成都锦星,成都锦天科技发展有限责任公司,2000人以上,高新区,不限,不需要融资,游戏,104.072674,30.540227,实习,应届毕业生,"['专项奖金', '绩效奖金', '交通补助', '带薪年假']"
257,4191101,游戏测试工程师（高级）,深圳,2018-04-17 10:31:03,10.8,136833,史蒂夫软件,史蒂夫软件（深圳）有限公司,150-500人,南山区,大专,不需要融资,游戏,113.956668,22.539288,全职,3-5年,"['扁平管理', '岗位晋升', '绩效奖金', '周末双休']"
258,4445829,游戏测试专员,北京,2018-05-02 17:28:19,4.8,275220,猎手互娱,北京猎手互娱科技有限公司,15-50人,朝阳区,大专,A轮,"移动互联网,游戏",116.490632,39.985193,全职,1年以下,[]
259,3013409,游戏测试员（QA),武汉,2018-04-17 11:37:56,4.2,149333,升鹏科技,武汉升鹏科技有限公司,150-500人,硚口区,大专,不需要融资,"游戏,文化娱乐",114.253625,30.57844,全职,1-3年,"['五险一金', '带薪年假', '年底双薪', '领导好']"
260,4242408,游戏测试工程师,成都,2018-05-02 16:02:39,9.4,303231,乐狗,成都乐狗科技有限公司,50-150人,高新区,本科,未融资,游戏,0.0,0.0,全职,1-3年,"['年底双薪', '带薪年假', '交通补助', '定期体检']"
261,4384246,游戏测试工程师,上海,2018-05-02 15:33:23,13.2,330978,雷兽网络,上海雷兽网络科技有限公司,15-50人,徐汇区,本科,未融资,游戏,121.459667,31.190392,全职,1-3年,"['""""']"
262,4472368,游戏测试工程师,上海,2018-04-24 14:04:08,8.4,275566,宁波比孚,宁波比孚信息科技有限公司,150-500人,徐汇区,大专,未融资,"移动互联网,游戏",121.399004,31.163303,全职,1-3年,[]
263,4504791,游戏测试中级工程师,北京,2018-05-02 11:10:05,9.6,169904,善豹科技,北京善豹科技有限公司,50-150人,海淀区,本科,A轮,游戏,116.297596,40.0492,全职,1-3年,"['年终分红', '绩效奖金', '交通补助', '带薪年假']"
264,4395730,游戏测试助理,成都,2018-04-27 09:51:49,5.6,358085,四川九洲元亨企业管理咨询有限公司,四川九洲元亨企业管理咨询有限公司,50-150人,高新区,大专,未融资,游戏,0.0,0.0,全职,应届毕业生,"['""""']"
265,4393865,游戏测试工程师,上海,2018-04-10 10:37:52,10.8,42021,时年信息,上海时年信息科技有限公司,50-150人,浦东新区,本科,天使轮,"移动互联网,游戏",0.0,0.0,全职,1-3年,"['年底双薪', '绩效奖金', '股票期权', '专项奖金']"
266,4451354,游戏测试,北京,2018-04-23 10:08:18,3.4,195282,掌讯互娱,北京掌讯互娱科技有限公司,少于15人,昌平区,不限,未融资,游戏,116.347137,40.080199,全职,不限,"['年底双薪', '绩效奖金', '午餐补助', '扁平管理']"
267,4464979,初级游戏测试,成都,2018-04-23 14:18:05,2.4,286785,壹品互娱,成都壹品互娱科技有限公司,15-50人,高新区,大专,天使轮,"移动互联网,游戏",104.05991,30.552118,全职,不限,"['五险一金', '带薪年假', '餐补']"
268,3097556,手机游戏测试,上海,2018-05-02 13:42:08,8.8,14685,扬讯科技,上海扬讯计算机科技股份有限公司,150-500人,杨浦区,大专,上市公司,"移动互联网,游戏",121.51742,31.30228,全职,1年以下,"['年底双薪', '五险一金', '带薪年假', '节日礼物']"
269,4384841,游戏测试-黑盒测试,北京,2018-05-02 18:56:57,4.8,159593,玄霄,北京玄霄科技有限公司,50-150人,朝阳区,大专,不需要融资,"游戏,文化娱乐",116.509734,39.911114,全职,1-3年,[]
270,2850148,游戏测试工程师,杭州,2018-05-02 10:19:21,4.8,172058,冠赢网络杭州科技有限公司,厦门冠赢网络科技有限公司杭州分公司,50-150人,滨江区,大专,不需要融资,游戏,120.216487,30.211519,全职,1-3年,"['绩效奖金', '五险一金', '弹性工作', '领导好']"
271,3832299,游戏测试专员,成都,2018-04-04 09:00:47,5.6,284236,海德智和科技,四川海德智和科技有限公司,15-50人,锦江区,大专,不需要融资,移动互联网,104.088638,30.647956,全职,1年以下,"['绩效奖金', '年终分红', '带薪年假', '午餐补助']"
272,4197233,手机游戏测试工程师实习生,武汉,2018-04-27 08:50:44,4.4,142081,多比特,武汉市多比特信息科技有限公司,50-150人,洪山区,本科,不需要融资,"移动互联网,文化娱乐",114.406728,30.477141,全职,不限,"['年底双薪', '定期体检', '带薪年假', '弹性工作']"
273,4304686,棋牌类游戏测试工程师（实习生）,宁波,2018-04-23 17:48:30,3.4,215410,宁波睿奇软件技术有限公司,宁波睿奇软件技术有限公司,15-50人,鄞州区,不限,未融资,"游戏,移动互联网",121.596332,29.854404,实习,应届毕业生,[]
274,4340050,游戏测试（应届生/实习生）,深圳,2018-04-08 10:58:26,3.8,256843,巴德尔游戏,深圳巴德尔科技有限公司,15-50人,南山区,本科,A轮,游戏,113.939444,22.522611,实习,不限,"['年底双薪', '带薪年假', '定期体检', '五险一金']"
275,4351660,游戏测试,深圳,2018-05-02 14:02:31,6.8,168557,YIDATEC,亿达信息技术（深圳）有限公司,2000人以上,南山区,大专,不需要融资,"移动互联网,游戏",113.948041,22.53842,全职,1-3年,[]
276,4426138,游戏测试,上海,2018-05-02 09:42:39,8.4,218089,上海汉堂,上海汉堂实业有限公司,50-150人,徐汇区,大专,未融资,"企业服务,信息安全",121.417147,31.175781,全职,1-3年,"['绩效奖金', '定期体检', '带薪年假', '交通补助']"
277,3784179,游戏测试（2018校招）,广州,2018-05-02 09:17:31,6.8,62246,广州乐牛,广州乐牛软件科技有限公司,150-500人,天河区,本科,不需要融资,游戏,113.33959,23.126116,全职,应届毕业生,"['节日礼物', '年底双薪', '带薪年假', '一日三餐']"
278,3990954,游戏测试工程师,北京,2018-05-02 16:56:07,7.6,124666,牧游科技,北京牧游科技有限公司,15-50人,海淀区,大专,天使轮,游戏,116.303249,40.054375,全职,1-3年,"['年底双薪', '专项奖金', '带薪年假', '年终分红']"
279,4327418,高级游戏测试工程师,杭州,2018-05-02 10:55:06,9.6,107259,飒飒动漫,杭州飒飒动漫有限公司,50-150人,滨江区,大专,不需要融资,游戏,120.20709,30.20901,全职,1-3年,"['领导好', '热情', '合作', '五险一金']"
280,4494006,高级游戏测试工程师,北京,2018-05-02 17:38:55,12.0,115943,icesimba,北京冰狮科技有限公司,15-50人,朝阳区,大专,未融资,"移动互联网,文化娱乐",116.455294,39.937492,全职,3-5年,[]
281,4421840,游戏测试工程师,上海,2018-04-14 13:39:33,6.8,321113,火一网络,上海火一网络科技有限公司,50-150人,浦东新区,大专,A轮,游戏,39.897445,116.331398,全职,1-3年,"['定期体检', '专项奖金', '带薪年假', '绩效奖金']"
282,4313710,游戏测试工程师,上海,2018-05-02 11:07:47,10.8,1265,巨人网络,上海巨人网络集团有限公司,500-2000人,松江区,大专,上市公司,"游戏,移动互联网",121.265549,31.055243,全职,3-5年,"['带薪年假', '绩效奖金', '定期体检', '项目奖金']"
283,1235857,游戏测试,杭州,2018-04-23 10:00:32,2.4,71314,C2,C2fun网络科技有限公司,50-150人,富阳区,不限,天使轮,"移动互联网,游戏",119.986222,30.145545,全职,不限,"['技能培训', '股票期权', '有为青年', '岗位晋升']"
284,3123544,游戏测试工程师-手游,广州,2018-04-21 10:10:00,6.2,140015,啦咔网络,广州啦咔网络科技有限公司,150-500人,天河区,大专,不需要融资,"移动互联网,社交网络",113.317481,23.126786,全职,1-3年,"['年底双薪', '绩效奖金', '午餐补助', '带薪年假']"
285,4289674,游戏测试,上海,2018-05-02 09:42:39,7.0,218089,上海汉堂,上海汉堂实业有限公司,50-150人,松江区,大专,未融资,"企业服务,信息安全",121.196941,31.049607,全职,不限,"['绩效奖金', '定期体检', '带薪年假', '交通补助']"
286,4444685,游戏测试,深圳,2018-04-18 17:36:41,6.8,168557,YIDATEC,亿达信息技术（深圳）有限公司,2000人以上,南山区,大专,不需要融资,"移动互联网,游戏",113.946628,22.550455,全职,1-3年,[]
287,4423967,棋牌游戏测试（可接受应届生）,长沙,2018-05-02 09:28:00,4.2,154407,瑄晨,长沙瑄晨信息科技有限公司,15-50人,岳麓区,不限,未融资,游戏,112.88732,28.208559,全职,不限,[]
288,3476741,游戏测试工程师-MUG（H3D-MUG-QT110001）,北京,2018-04-27 10:05:24,10.8,26142,QQ炫舞,北京永航科技有限公司,500-2000人,东城区,大专,不需要融资,游戏,116.418697,39.954899,全职,1-3年,"['年终分红', '专项奖金', '五险一金', '带薪年假']"
289,4209510,游戏测试员,广州,2018-04-27 15:31:07,4.8,320363,广州铁豹,广州铁豹网络科技有限公司,50-150人,番禺区,大专,A轮,游戏,113.363767,22.97835,全职,不限,"['年底双薪', '五险一金', '岗位晋升', '带薪年假']"
290,4288137,游戏测试,北京,2018-04-23 15:28:51,14.0,318262,ME2ZEN,北京明途真科技有限公司,50-150人,朝阳区,本科,不需要融资,游戏,116.433706,39.921442,全职,1-3年,"['带薪年假', '年底多薪', '弹性办公', '免费午晚餐']"
291,4345524,游戏测试工程师（实习）,深圳,2018-05-02 12:37:01,3.4,89131,战吼,深圳战吼网络科技有限公司,15-50人,南山区,不限,A轮,"移动互联网,社交网络",113.946947,22.53064,实习,应届毕业生,"['股票期权', '全球市场', '自带光环']"
292,4333039,游戏测试员项目经理助理4k+,南京,2018-05-02 09:47:49,3.8,233304,燃网络,南京网燃网络科技有限公司,少于15人,秦淮区,大专,未融资,"移动互联网,游戏",118.788719,32.049374,全职,不限,[]
293,4205875,游戏测试工程师（社交游戏）,北京,2018-04-13 11:03:56,19.0,329,网易,网易（杭州）有限公司,2000人以上,海淀区,本科,上市公司,"电子商务,移动互联网",116.275959,40.042831,全职,不限,"['节日礼物', '技能培训', '免费班车', '带薪年假']"
294,2746157,游戏测试,北京,2018-04-20 14:51:52,4.8,80416,嘉丰永道,嘉丰永道（北京）科技有限公司,50-150人,石景山区,不限,不需要融资,游戏,116.22779,39.904089,全职,1年以下,"['带薪年假', '扁平管理', '领导好', '定期体检']"
295,3628875,韩语游戏测试工程师,沈阳,2018-04-19 10:27:46,3.8,230891,IGS CHINA,沈阳爱极思软件技术有限公司,50-150人,和平区,不限,未融资,游戏,123.405746,41.791702,全职,不限,[]
296,4429783,游戏测试专员,上海,2018-04-16 18:35:22,8.4,275566,宁波比孚,宁波比孚信息科技有限公司,150-500人,徐汇区,大专,未融资,"移动互联网,游戏",121.399004,31.163303,全职,1-3年,[]
297,4340009,1414——游戏-游戏测试工程师-上海,上海,2018-04-25 14:34:49,14.0,1686,爱奇艺,北京爱奇艺科技有限公司,2000人以上,长宁区,本科,D轮及以上,"广告营销,文化娱乐",121.34933,31.23,全职,3-5年,"['绩效奖金', '五险一金', '交通补助', '带薪年假']"
298,3576647,游戏测试,重庆,2018-04-08 13:49:08,3.8,257793,和诚筑科技有限公司,重庆和诚筑科技有限公司,150-500人,江北区,大专,未融资,移动互联网,106.532881,29.571692,全职,1年以下,[]
299,4372241,网络游戏测试,成都,2018-05-02 13:51:45,6.2,358918,楚人融创,成都楚人融创科技有限公司,50-150人,高新区,大专,未融资,游戏,0.0,0.0,全职,1年以下,"['""""']"
300,4312972,游戏测试工程师,北京,2018-04-25 16:09:16,10.8,26142,QQ炫舞,北京永航科技有限公司,500-2000人,东城区,大专,不需要融资,游戏,116.419318,39.952742,全职,1-3年,"['年终分红', '专项奖金', '五险一金', '带薪年假']"
301,2843969,游戏测试,广州,2018-04-20 19:51:58,11.2,710,4399游戏,广州四三九九信息科技有限公司,500-2000人,天河区,本科,未融资,游戏,112.993461,22.994261,全职,1-3年,"['年底双薪', '绩效奖金', '年终分红', '五险一金']"
302,4029338,游戏测试,成都,2018-04-24 13:39:06,4.2,311089,成都阿拉蕾,成都阿拉蕾科技有限公司,50-150人,高新区,不限,未融资,"移动互联网,游戏",104.055343,30.537658,全职,1年以下,"['""""']"
303,4417028,游戏测试,广州,2018-05-03 10:07:49,7.6,293862,岂动网络,广州岂动网络科技有限公司,15-50人,天河区,大专,未融资,"移动互联网,游戏",113.334935,23.132802,全职,应届毕业生,"['""""']"
304,4112621,游戏测试,长沙,2018-04-18 09:35:46,5.6,7630,久游,上海久游网络科技有限公司,150-500人,开福区,大专,D轮及以上,"移动互联网,游戏",112.97085,28.197706,全职,1-3年,"['年底双薪', '技能培训', '绩效奖金', '岗位晋升']"
305,2537374,游戏测试,广州,2018-04-23 18:32:45,8.4,42838,广州轩意,广州轩意网络科技有限公司,50-150人,天河区,大专,A轮,游戏,113.37245,23.126167,全职,1-3年,"['年底双薪', '股票期权', '带薪年假', '年度旅游']"
306,618994,游戏测试,广州,2018-04-24 10:06:12,6.2,62662,万界网络,万界（上海）网络股份有限公司广州分公司,150-500人,天河区,大专,不需要融资,游戏,113.377018,23.125227,全职,1-3年,"['技能培训', '节日礼物', '年底双薪', '专项奖金']"
307,3302549,中高级游戏测试工程师,成都,2018-05-02 09:49:54,5.2,106664,中智集团,科创控股集团,150-500人,武侯区,大专,D轮及以上,"电子商务,医疗健康",104.070592,30.549197,全职,1年以下,"['年底双薪', '带薪年假', '绩效奖金', '年度旅游']"
308,2961912,游戏测试,成都,2018-04-27 08:54:08,4.8,104931,成都火龙果科技有限公司,成都火龙果科技有限公司,15-50人,武侯区,大专,不需要融资,游戏,104.066877,30.546611,全职,1年以下,"['节日礼物', '股票期权', '带薪年假', '绩效奖金']"
309,3794615,游戏测试工程师（赴腾讯）,深圳,2018-05-02 14:13:29,5.8,80208,微创软件深圳分公司,上海微创软件股份有限公司深圳分公司,2000人以上,南山区,大专,未融资,"移动互联网,硬件",113.943551,22.548179,全职,1-3年,"['节日礼物', '免费班车', '带薪年假', '绩效奖金']"
310,4313700,游戏测试开发工程师,上海,2018-05-02 11:07:52,19.0,1265,巨人网络,上海巨人网络集团有限公司,500-2000人,松江区,本科,上市公司,"游戏,移动互联网",121.265549,31.055243,全职,3-5年,"['带薪年假', '绩效奖金', '定期体检', '项目奖金']"
311,4447015,游戏测试主管,深圳,2018-05-02 11:14:28,10.8,97901,大象游戏,深圳市大象互动网络科技有限公司,50-150人,南山区,大专,未融资,"移动互联网,广告营销",0.0,0.0,全职,3-5年,"['节日礼物', '年底双薪', '绩效奖金', '扁平管理']"
312,1561813,手游测试/手机游戏测试/游戏测试,上海,2018-05-02 08:41:35,8.2,95624,亿达信息,上海亿达信息技术服务有限公司,2000人以上,徐汇区,大专,上市公司,"移动互联网,企业服务",,,全职,1-3年,"['节日礼物', '年底双薪', '带薪年假', '岗位晋升']"
313,3953370,游戏测试工程师,北京,2018-04-18 19:43:29,14.0,133,猎豹移动,北京金山网络科技有限公司,500-2000人,朝阳区,本科,上市公司,"移动互联网,信息安全",116.53587964,39.93002992,全职,1-3年,"['带薪年假', '美女前台', '超赞年终奖', '一公里工作圈']"
314,4134661,游戏测试,广州,2018-04-27 14:46:53,3.8,323624,汇娱科技,广州汇娱信息科技有限公司,50-150人,天河区,不限,未融资,游戏,113.372659,23.122723,全职,不限,"['""""']"
315,3612737,游戏测试工程师,深圳,2018-05-02 09:58:28,9.8,33627,乐易网络,深圳市乐易网络股份有限公司,150-500人,南山区,本科,A轮,"移动互联网,游戏",113.94604,22.533413,全职,1-3年,"['技术大牛', '高逼格环境', '两次年度旅游', '福利倍儿好']"
316,4338494,游戏-游戏测试工程师-上海,上海,2018-04-26 23:50:18,14.0,1686,爱奇艺,北京爱奇艺科技有限公司,2000人以上,长宁区,本科,D轮及以上,"广告营销,文化娱乐",121.3495,31.23025,全职,3-5年,"['绩效奖金', '五险一金', '交通补助', '带薪年假']"
317,4447279,游戏测试工程师,广州,2018-04-27 09:05:59,5.6,76820,Game Hollywood,广州游莱信息科技有限公司,150-500人,海珠区,大专,上市公司,"移动互联网,游戏",113.276738,23.088267,全职,不限,"['技能培训', '节日礼物', '年底双薪', '带薪年假']"
318,4130416,游戏测试,北京,2018-04-23 16:14:05,7.2,255844,首游互动,北京首游互动科技有限公司,50-150人,朝阳区,本科,未融资,游戏、电子商务,116.417035,40.031998,全职,1-3年,[]
319,3883461,游戏测试/QA,北京,2018-04-18 10:51:59,10.0,190462,宇柯互联,宇柯互联（北京）网络科技有限公司,15-50人,朝阳区,不限,不需要融资,"游戏,移动互联网",116.41611,40.033469,全职,1-3年,"['带薪年假', '午餐补助', '弹性工作', '领导好']"
320,4314509,游戏测试,广州,2018-04-26 10:04:35,5.8,200096,广州雷神,广州雷神信息科技有限公司,50-150人,海珠区,大专,天使轮,"移动互联网,游戏",113.317388,23.083801,全职,1-3年,"['年底双薪', '带薪年假', '午餐补助', '定期体检']"
321,4150442,游戏测试工程师,广州,2018-04-19 11:48:28,4.2,232812,万兔斯瑞,广州市万兔斯瑞科技有限公司,150-500人,海珠区,不限,不需要融资,"移动互联网,广告营销",113.365337,23.09577,全职,1年以下,[]
322,2722143,游戏测试工程师,北京,2018-05-02 15:05:34,4.8,1281,创新工场涂鸦移动,北京涂鸦多得科技有限公司,150-500人,海淀区,本科,A轮,移动互联网,115.99339,39.99426,全职,不限,"['带薪年假', '年度旅游', '定期体检', '弹性工作']"
323,4276646,游戏测试,成都,2018-04-26 09:38:04,4.2,341481,成都阿瑞斯建筑工程有限公司,成都阿瑞斯建筑工程有限公司,50-150人,高新区,不限,未融资,"移动互联网,电子商务",104.061189,30.585053,全职,不限,"['""""']"
324,3067543,游戏测试工程师,深圳,2018-05-02 11:14:33,9.6,97901,大象游戏,深圳市大象互动网络科技有限公司,50-150人,南山区,大专,未融资,"移动互联网,广告营销",0.0,0.0,全职,3-5年,"['节日礼物', '年底双薪', '绩效奖金', '扁平管理']"
325,3864573,游戏测试工程师（18届）,广州,2018-04-20 19:52:01,8.8,710,4399游戏,广州四三九九信息科技有限公司,500-2000人,天河区,本科,未融资,游戏,112.993461,22.994261,全职,应届毕业生,"['年底双薪', '绩效奖金', '年终分红', '五险一金']"
326,4373964,包吃住手机游戏测试助理,深圳,2018-05-02 16:19:35,5.6,331153,深圳超时空网络科技有限公司,深圳超时空网络科技有限公司,50-150人,龙华新区,大专,未融资,"移动互联网,游戏",114.047695,22.669386,全职,不限,"['""""']"
327,3586359,游戏测试师,上海,2018-04-24 11:34:45,7.6,68752,上海逗趣,上海逗趣网络科技有限公司,15-50人,闵行区,不限,未融资,"移动互联网,社交网络",121.336624,31.151471,全职,1-3年,"['节日礼物', '绩效奖金', '岗位晋升', '帅哥多']"
328,4331975,游戏测试,深圳,2018-04-13 22:05:44,6.2,283667,尖尾燕,深圳市尖尾燕网络科技有限公司,15-50人,南山区,不限,未融资,游戏,113.950153,22.550392,全职,3-5年,"['年终分红', '美女多', '领导好', '帅哥多']"
329,3208982,游戏测试工程师,成都,2018-04-13 09:40:37,6.8,89271,成都乐曼多,成都乐曼多科技有限公司,50-150人,武侯区,不限,B轮,移动互联网,104.065885,30.548984,全职,3-5年,"['节日礼物', '年底双薪', '带薪年假', '绩效奖金']"
330,3804089,游戏测试工程师,成都,2018-04-11 14:17:53,19.0,451,腾讯,腾讯科技(深圳)有限公司,2000人以上,高新区,本科,上市公司,"移动互联网 ,游戏",104.063128,30.547809,全职,不限,"['免费班车', '成长空间', '年度旅游', '岗位晋升']"
331,3239560,游戏测试专员,北京,2018-05-02 15:54:36,9.6,190384,北京瑞亚,北京瑞亚时空网络科技有限公司,15-50人,朝阳区,不限,A轮,游戏,116.41752,40.02321,全职,1-3年,[]
332,4406312,游戏测试,北京,2018-04-17 15:08:23,4.8,310089,北京益游嘉和,北京益游嘉和网络科技有限公司,15-50人,海淀区,大专,不需要融资,"移动互联网,游戏",116.304137,40.046003,全职,不限,"['""""']"
333,4008979,软件/游戏测试讲师,广州,2018-05-02 11:47:33,14.0,303819,聚精科技,广东聚精互享科技孵化器有限公司,50-150人,天河区,大专,未融资,"移动互联网,电子商务",0.0,0.0,全职,应届毕业生,"['""""']"
334,1009539,游戏测试,北京,2018-04-10 10:25:50,7.6,81580,梦想园,北京梦想派网络科技有限公司,50-150人,东城区,不限,未融资,"移动互联网,游戏",116.4337,39.92144008,全职,1-3年,"['年底双薪', '专项奖金', '带薪年假', '绩效奖金']"
335,4437656,游戏测试,深圳,2018-04-17 18:30:57,6.8,284550,飞诺达,深圳市飞诺达科技有限公司,150-500人,南山区,大专,不需要融资,"移动互联网,电子商务",113.950863,22.539232,全职,不限,[]
336,4411516,高级游戏测试工程师,上海,2018-05-02 09:51:01,12.0,321113,火一网络,上海火一网络科技有限公司,50-150人,浦东新区,大专,A轮,游戏,39.897445,116.331398,全职,3-5年,"['定期体检', '专项奖金', '带薪年假', '绩效奖金']"
337,4182437,游戏测试（中高级）,广州,2018-04-25 10:12:20,12.6,26839,谷得游戏,广州谷得网络科技有限公司,150-500人,天河区,不限,未融资,游戏,113.37497,23.132775,全职,应届毕业生,"['技能培训', '年底双薪', '岗位晋升', '年度旅游']"
338,4365678,游戏测试,北京,2018-04-16 14:03:07,8.4,196002,北京飞逸,北京飞逸网络科技有限公司,50-150人,朝阳区,不限,上市公司,"社交网络,游戏",116.46622,39.995443,全职,1-3年,[]
339,4450516,棋牌游戏测试,深圳,2018-05-02 10:02:34,4.8,215904,猫圣科技,深圳猫圣科技有限公司,15-50人,宝安区,大专,不需要融资,游戏,113.923601,22.576189,全职,1-3年,"['年底双薪', '弹性工作', '领导好', '五险一金']"
340,4368035,网络游戏测试,成都,2018-04-27 09:51:50,6.2,358085,四川九洲元亨企业管理咨询有限公司,四川九洲元亨企业管理咨询有限公司,50-150人,高新区,大专,未融资,游戏,,,全职,不限,"['""""']"
341,4375379,游戏测试工程师（日语）,北京,2018-04-17 16:04:53,7.6,40747,破晓互动,北京破晓互动科技有限责任公司,50-150人,海淀区,不限,A轮,游戏,116.323585,39.964647,全职,1-3年,"['带薪年假', '岗位晋升', '扁平管理', '领导好']"
342,3924774,游戏测试经理,成都,2018-05-02 09:26:19,26.0,6868,tap4fun,成都尼毕鲁科技股份有限公司,150-500人,高新区,本科,不需要融资,"移动互联网,游戏",104.070076,30.548932,全职,3-5年,"['技能培训', '节日礼物', '年底双薪', '带薪年假']"
343,3206350,游戏测试工程师,北京,2018-04-26 15:27:15,6.6,148972,天美星空,北京天美星空科技有限公司,150-500人,东城区,大专,上市公司,游戏,116.43059,39.909417,全职,1-3年,"['年底双薪', '绩效奖金', '弹性工作', '带薪年假']"
344,4475382,游戏测试实习生,深圳,2018-04-24 17:40:04,4.2,255546,千柏科技,深圳市千柏科技有限公司,50-150人,南山区,大专,A轮,"移动互联网,游戏",113.99113,22.589405,实习,1年以下,[]
345,4255465,游戏测试工程师,北京,2018-04-20 13:39:17,6.8,40747,破晓互动,北京破晓互动科技有限责任公司,50-150人,海淀区,不限,A轮,游戏,116.323585,39.964647,全职,1-3年,"['带薪年假', '岗位晋升', '扁平管理', '领导好']"
346,3643452,游戏测试专员/主管,成都,2018-04-26 09:40:29,10.2,81727,微然科技,四川微然科技有限公司,50-150人,高新区,大专,不需要融资,"移动互联网,游戏",104.060023,30.573336,全职,1-3年,"['节日礼物', '年底双薪', '带薪年假', '年度旅游']"
347,2477546,游戏测试工程师,成都,2018-04-05 16:11:08,11.2,123505,91Act,成都格斗科技有限公司,50-150人,高新区,本科,不需要融资,游戏,104.06788952,30.55094962,全职,1-3年,"['年终奖金', '扁平管理', '帅哥多', '美女多']"
348,4145562,游戏测试/策划,上海,2018-04-08 09:52:20,2.4,172496,上海玄紫,上海玄沧网络科技有限公司,少于15人,徐汇区,本科,天使轮,"移动互联网,游戏",121.440641,31.193908,实习,应届毕业生,[]
349,4447154,游戏测试专员,深圳,2018-04-23 17:31:25,7.0,221501,雾中楼,深圳市雾中楼科技有限公司,15-50人,南山区,不限,不需要融资,"移动互联网,游戏",113.943473,22.548655,全职,1-3年,"['带薪年假', '绩效奖金', '激情', '团队高效']"
350,4310669,游戏测试工程师,北京,2018-04-09 09:43:25,10.8,26142,QQ炫舞,北京永航科技有限公司,500-2000人,东城区,大专,不需要融资,游戏,116.419318,39.952742,全职,1-3年,"['年终分红', '专项奖金', '五险一金', '带薪年假']"
351,3319660,游戏测试经理,成都,2018-04-11 14:17:53,26.0,451,腾讯,腾讯科技(深圳)有限公司,2000人以上,高新区,本科,上市公司,"移动互联网 ,游戏",104.063757,30.547505,全职,3-5年,"['免费班车', '成长空间', '年度旅游', '岗位晋升']"
352,4454515,高级游戏测试工程师,深圳,2018-04-20 10:36:07,7.6,121135,乐玩互娱,深圳市乐玩互娱网络技术有限公司,50-150人,宝安区,大专,不需要融资,游戏,113.90529,22.5683,全职,3-5年,[]
353,4332091,包吃住游戏测试助理4K,深圳,2018-05-02 14:47:21,5.6,308243,果粒科技,深圳果粒文化信息科技有限公司,15-50人,龙华新区,大专,不需要融资,移动互联网、游戏,114.036538,22.664085,全职,不限,"['""""']"
354,4447128,中级游戏测试,上海,2018-04-19 10:22:48,11.2,275566,宁波比孚,宁波比孚信息科技有限公司,150-500人,徐汇区,大专,未融资,"移动互联网,游戏",121.399004,31.163303,全职,1-3年,[]
355,3190222,游戏测试专员,北京,2018-04-09 10:27:31,5.6,175724,掌中智趣,北京掌中智趣科技有限公司,50-150人,朝阳区,大专,A轮,游戏,116.472294,39.991922,全职,1-3年,"['带薪年假', '交通补助', '弹性工作', '节日礼物']"
356,3518210,高级游戏测试工程师,北京,2018-04-23 15:17:46,8.8,71959,天马时空,北京天马时空网络技术有限公司,150-500人,海淀区,大专,上市公司,游戏,116.307623,40.046496,全职,3-5年,"['股票期权', '岗位晋升', '领导好', '美女多']"
357,2686453,游戏测试实习生,成都,2018-04-27 17:37:09,3.4,23617,天象互动,成都天象互动科技有限公司,500-2000人,武侯区,本科,不需要融资,"移动互联网,游戏",104.068543,30.538089,实习,应届毕业生,"['年底双薪', '带薪年假', '午餐补助', '节日礼物']"
358,4443021,游戏测试实习生,深圳,2018-04-18 15:33:49,6.2,368673,中科北方,深圳市中科北方科技有限公司,15-50人,南山区,不限,未融资,移动互联网、企业服务,,,全职,不限,"['""""']"
359,1473582,游戏测试员(实习),上海,2018-04-23 17:02:57,3.4,58538,皿鎏软件,上海皿鎏软件有限公司,150-500人,杨浦区,不限,不需要融资,游戏,121.51111723,31.2615519,实习,应届毕业生,"['技能培训', '节日礼物', '年底双薪', '股票期权']"
360,3138476,高级游戏测试工程师,成都,2018-04-11 14:17:49,22.8,451,腾讯,腾讯科技(深圳)有限公司,2000人以上,武侯区,本科,上市公司,"移动互联网 ,游戏",104.063403,30.547715,全职,3-5年,"['免费班车', '成长空间', '年度旅游', '岗位晋升']"
361,4398457,游戏测试主管,北京,2018-04-12 09:51:53,19.0,201606,HT,武汉浩淘科技有限公司,150-500人,朝阳区,本科,不需要融资,"电子商务,数据服务",116.58036,39.908472,全职,5-10年,[]
362,4093232,游戏测试见习工程师,深圳,2018-04-08 09:09:06,4.4,173366,曾点,深圳市曾点信息技术培训有限公司,150-500人,南山区,大专,不需要融资,移动互联网、企业服务,113.939728,22.525353,全职,不限,[]
363,4284711,游戏测试（MMO）(3663),北京,2018-05-02 10:28:06,12.0,10369,完美世界,完美世界（北京）软件科技发展有限公司,2000人以上,朝阳区,不限,上市公司,"移动互联网,游戏",40.009854,116.42976,全职,不限,"['绩效奖金', '五险一金', '带薪年假', '年度旅游']"
364,3797860,游戏测试（腾讯平台）,北京,2018-04-24 15:02:52,4.8,138664,横扫工作室,卓越恒光（北京）科技有限公司,50-150人,石景山区,大专,A轮,游戏,115.994034,39.993442,全职,1-3年,[]
365,4394798,网络游戏测试,成都,2018-04-23 17:35:59,6.2,360747,中科创动,成都中科创动科技有限公司,50-150人,武侯区,大专,未融资,游戏,0.0,0.0,全职,1年以下,"['""""']"
366,4296233,棋牌游戏测试,北京,2018-04-17 22:48:43,8.4,226060,烽火互动,北京烽火互动科技有限公司,少于15人,朝阳区,大专,未融资,"移动互联网,游戏",116.449303,39.961475,全职,1-3年,[]
367,3899307,Android游戏测试工程师,广州,2018-04-24 14:13:17,7.0,166065,栗子科技,广州栗树信息科技有限公司,15-50人,天河区,本科,不需要融资,"移动互联网,广告营销",113.354828,23.111676,全职,1-3年,[]
368,4211765,游戏测试专员（画江湖IP手游）,广州,2018-04-17 14:12:45,8.4,74610,御和必果,广州御和必果网络科技有限公司,50-150人,天河区,大专,天使轮,"移动互联网,游戏",113.37302,23.12259,全职,1-3年,"['年底双薪', '岗位晋升', '年度旅游', '领导好']"
369,4429048,网络游戏测试 实习生,成都,2018-04-23 17:35:59,4.8,360747,中科创动,成都中科创动科技有限公司,50-150人,武侯区,大专,未融资,游戏,0.0,0.0,全职,应届毕业生,"['""""']"
370,3871866,Android游戏测试工程师,广州,2018-04-24 14:13:18,7.0,166065,栗子科技,广州栗树信息科技有限公司,15-50人,天河区,本科,不需要融资,"移动互联网,广告营销",113.354828,23.111676,全职,1-3年,[]
371,4206316,20016-移动游戏测试开发工程师（上海）,上海,2018-04-11 14:17:50,21.0,451,腾讯,腾讯科技(深圳)有限公司,2000人以上,徐汇区,本科,上市公司,"移动互联网 ,游戏",121.39836,31.164823,全职,5-10年,"['免费班车', '成长空间', '年度旅游', '岗位晋升']"
372,4070243,HY1-游戏测试工程师（深圳）,深圳,2018-04-11 14:17:50,28.0,451,腾讯,腾讯科技(深圳)有限公司,2000人以上,南山区,本科,上市公司,"移动互联网 ,游戏",113.9446,22.548341,全职,3-5年,"['免费班车', '成长空间', '年度旅游', '岗位晋升']"
373,4361453,高级游戏测试开发工程师,深圳,2018-04-23 00:53:04,21.0,451,腾讯,腾讯科技(深圳)有限公司,2000人以上,南山区,本科,上市公司,"移动互联网 ,游戏",113.9446,22.548341,全职,3-5年,"['免费班车', '成长空间', '年度旅游', '岗位晋升']"
374,4204396,25927-游戏测试经理（成都）,成都,2018-04-16 21:04:12,21.0,451,腾讯,腾讯科技(深圳)有限公司,2000人以上,高新区,本科,上市公司,"移动互联网 ,游戏",104.063403,30.547715,全职,3-5年,"['免费班车', '成长空间', '年度旅游', '岗位晋升']"
375,4236928,高级游戏测试开发工程师,成都,2018-04-11 14:17:48,21.0,451,腾讯,腾讯科技(深圳)有限公司,2000人以上,高新区,本科,上市公司,"移动互联网 ,游戏",104.063403,30.547715,全职,不限,"['免费班车', '成长空间', '年度旅游', '岗位晋升']"
376,4215068,15776-移动游戏测试工程师（北京）,北京,2018-04-11 14:17:48,14.0,451,腾讯,腾讯科技(深圳)有限公司,2000人以上,海淀区,本科,上市公司,"移动互联网 ,游戏",116.295054,40.049249,全职,1年以下,"['免费班车', '成长空间', '年度旅游', '岗位晋升']"
377,4253162,15776-移动游戏测试工程师（北京）,北京,2018-04-11 14:17:51,21.0,451,腾讯,腾讯科技(深圳)有限公司,2000人以上,海淀区,本科,上市公司,"移动互联网 ,游戏",116.295054,40.049249,全职,1-3年,"['免费班车', '成长空间', '年度旅游', '岗位晋升']"
