,职位编码,职位名称,所在城市,发布日期,薪资待遇(k),公司编码,公司名称,公司全称,公司规模,所在区域,最低学历,融资状态,公司类型,经度,纬度,全职/实习,工作经验
0,3949675,硬件测试工程师,北京,2018-04-28 14:53:20,19.0,126957,北京算云联科,北京算云联科科技有限公司,150-500人,海淀区,本科,不需要融资,"移动互联网,硬件",116.308144,40.045415,全职,5-10年
1,3936657,硬件测试工程师,北京,2018-04-28 14:53:32,14.0,14093,瞬联软件科技（北京）有限公司,瞬联软件科技（北京）有限公司,500-2000人,朝阳区,本科,不需要融资,"移动互联网 ,企业服务",116.459244,39.949945,全职,3-5年
2,4307358,硬件测试工程师,广州,2018-04-26 18:25:58,9.6,267972,飞库智能,广东飞库科技有限公司,15-50人,海珠区,本科,不需要融资,硬件,113.384064,23.102148,全职,3-5年
3,4239380,硬件测试工程师,北京,2018-04-25 08:26:51,12.0,166854,嘉楠捷思,北京嘉楠捷思信息技术有限公司,150-500人,海淀区,本科,A轮,硬件,116.287983,40.046896,全职,3-5年
4,4295076,硬件测试工程师,武汉,2018-04-28 14:22:08,7.0,68524,编程猫,深圳点猫科技有限公司,150-500人,洪山区,本科,B轮,"移动互联网,教育",114.406728,30.477141,全职,1-3年
5,4155854,硬件测试工程师,广州,2018-04-28 09:45:17,10.8,38655,白云电气,白云电气集团有限公司,2000人以上,白云区,本科,上市公司,企业服务,113.3353,23.29826,全职,1年以下
6,4237188,硬件测试工程师,广州,2018-04-28 10:01:21,6.6,11527,蓝鸽集团,蓝鸽集团有限公司,500-2000人,白云区,本科,不需要融资,"移动互联网,企业服务",0.0,0.0,全职,1年以下
7,3671353,硬件测试主管,广州,2018-04-28 09:39:41,14.0,37398,亚美,广州亚美信息科技有限公司,150-500人,天河区,大专,不需要融资,移动互联网,113.347222,23.143984,全职,3-5年
8,4255122,硬件测试,北京,2018-04-16 14:43:51,14.0,139755,京东商城,北京京东世纪贸易有限公司,2000人以上,大兴区,本科,上市公司,电子商务,116.50601,39.793232,全职,5-10年
9,4206833,硬件测试工程师,深圳,2018-04-26 14:43:09,17.8,308188,华润物业科技,华润物业科技服务有限公司,2000人以上,南山区,本科,不需要融资,生活服务,113.952907,22.541476,全职,3-5年
10,4110765,硬件测试工程师,杭州,2018-04-25 10:09:48,5.8,122248,杭州昊方控制,杭州昊方控制设备有限公司,50-150人,余杭区,本科,不需要融资,其他,119.992137,30.276456,全职,1-3年
11,4493140,硬件测试工程师,苏州,2018-04-27 13:22:00,11.2,30997,科达,苏州科达科技股份有限公司,2000人以上,高新区,本科,上市公司,文化娱乐,120.524496,31.294245,全职,3-5年
12,4295657,硬件测试工程师,深圳,2018-04-28 10:48:58,14.0,62152,速腾聚创,深圳市速腾聚创科技有限公司,50-150人,南山区,本科,B轮,"移动互联网,硬件",113.965727,22.581303,全职,5-10年
13,4351661,硬件测试,杭州,2018-04-26 14:35:38,6.8,344535,交大微联杭州分公司,北京交大微联科技有限公司杭州分公司,50-150人,西湖区,大专,不需要融资,其他,120.125573,30.291512,全职,1-3年
14,4473002,硬件测试工程师,北京,2018-04-27 10:37:14,17.0,172285,猎户星空,北京猎户星空科技有限公司,150-500人,朝阳区,不限,A轮,"移动互联网,硬件",116.536746,39.931514,全职,3-5年
15,4084897,硬件测试工程师,深圳,2018-04-26 15:15:54,10.8,38079,GYENNO,深圳市臻络科技有限公司,50-150人,南山区,本科,B轮,医疗健康,113.943777,22.528995,全职,3-5年
16,4107489,硬件测试工程师,北京,2018-04-28 17:05:58,11.2,288177,哈弗租赁,哈弗汽车租赁有限公司,50-150人,丰台区,本科,不需要融资,移动互联网,116.284766,39.825028,全职,不限
17,4187028,硬件测试工程师,深圳,2018-04-28 14:45:16,14.0,217263,Darma,深圳市大耳马科技有限公司,50-150人,南山区,本科,A轮,"移动互联网,医疗健康",113.958713,22.543467,全职,1-3年
18,4365833,硬件测试工程师,东莞,2018-04-27 11:21:08,9.0,5794,一加手机,深圳市万普拉斯科技有限公司,500-2000人,东莞市市辖区,本科,未融资,电子商务,113.751765,23.020536,全职,1年以下
19,986593,硬件测试工程师,北京,2018-04-26 18:04:12,12.0,47865,飞驰镁物,飞驰镁物（北京）信息服务有限公司,150-500人,朝阳区,大专,B轮,"移动互联网,数据服务",116.510752,39.894157,全职,3-5年
20,4004636,硬件测试工程师,杭州,2018-03-30 15:45:09,14.0,171980,Rokid,芋头科技（杭州）有限公司,150-500人,西湖区,本科,B轮,"电子商务,移动互联网",0.0,0.0,全职,3-5年
21,4129994,硬件测试工程师,北京,2018-04-25 15:17:34,12.0,44749,ofo,东峡大通（北京）管理咨询有限公司,2000人以上,海淀区,本科,D轮及以上,移动互联网,116.310072,39.984547,全职,1-3年
22,4189927,硬件测试,北京,2018-03-31 03:00:32,6.2,331626,广信鸿业,北京广信鸿业科技有限公司,少于15人,朝阳区,不限,未融资,其他 信息安全,116.503439,39.887369,全职,不限
23,3764246,硬件测试工程师J11222,北京,2018-04-16 15:42:40,21.0,2696,G7,北京汇通天下物联科技有限公司,500-2000人,海淀区,本科,C轮,"移动互联网,数据服务",116.26564,40.03987007,全职,5-10年
24,4414019,硬件测试工程师,北京,2018-04-25 10:39:52,19.0,83580,地平线机器人,北京地平线信息技术有限公司,150-500人,海淀区,本科,A轮,"移动互联网,硬件",116.31561,39.983413,全职,3-5年
25,4501390,硬件测试工程师,西安,2018-04-28 18:14:31,12.0,194932,优克联,深圳优克云联科技有限公司,500-2000人,高新技术产业开发区,本科,A轮,移动互联网,108.879751,34.213613,全职,不限
26,4426287,硬件测试工程师,上海,2018-04-26 11:39:18,14.0,26785,芒果tv,湖南快乐阳光互动娱乐传媒有限公司,500-2000人,浦东新区,本科,B轮,文化娱乐,0.0,0.0,全职,1-3年
27,3696968,硬件测试主管,深圳,2018-04-27 10:22:20,14.0,141645,Immotor易马达科技,深圳易马达科技有限公司,150-500人,宝安区,本科,A轮,"硬件,移动互联网",113.927322,22.576979,全职,5-10年
28,3312865,硬件测试,福州,2018-04-04 09:49:44,5.6,208517,新大陆自动识别,福建新大陆自动识别技术有限公司,2000人以上,马尾区,本科,不需要融资,"硬件,电子商务",0.0,0.0,全职,1-3年
29,4500798,硬件测试工程师,深圳,2018-04-28 16:53:46,7.2,200548,万兆通,深圳市万兆通光电技术有限公司,50-150人,宝安区,大专,不需要融资,"电子商务,O2O",113.922627,22.575776,全职,1-3年
30,4498409,高级硬件测试工程师,深圳,2018-04-28 11:44:29,9.6,166781,智神信息技术,桂林智神信息技术有限公司,500-2000人,福田区,本科,未融资,"移动互联网,企业服务",114.027021,22.52845,全职,3-5年
31,2786124,硬件测试工程师,深圳,2018-04-28 11:24:57,14.6,29929,斐讯通信,上海斐讯数据通信技术有限公司,2000人以上,南山区,本科,未融资,"数据服务,硬件",113.934837,22.560367,全职,3-5年
32,4369944,硬件测试工程师,深圳,2018-04-03 20:21:20,9.6,17617,Makeblock,深圳市创客工场科技有限公司,150-500人,南山区,本科,B轮,硬件,114.005457,22.595734,全职,3-5年
33,4188142,硬件测试工程师,苏州,2018-04-03 12:04:34,8.4,30997,科达,苏州科达科技股份有限公司,2000人以上,高新区,大专,上市公司,文化娱乐,120.524421,31.294314,全职,1-3年
34,4383670,硬件测试工程师,深圳,2018-04-27 12:22:45,12.0,239050,有个机器人,上海有个机器人有限公司,15-50人,龙华新区,大专,A轮,"硬件,其他",114.018752,22.662548,全职,1-3年
35,3221596,OPL-硬件测试工程师,上海,2018-04-25 11:53:05,14.0,165,UCloud,上海优刻得信息科技有限公司,500-2000人,杨浦区,大专,D轮及以上,"数据服务,企业服务",121.99341,30.994275,全职,1-3年
36,3943289,硬件测试工程师,深圳,2018-04-28 11:53:49,5.4,184766,风云实业,深圳市风云实业有限公司,150-500人,南山区,大专,不需要融资,硬件,113.94332,22.554186,全职,1-3年
37,4143386,硬件测试工程师,深圳,2018-04-28 11:12:57,7.6,242855,哈哈便利,武汉市哈哈便利科技有限公司,50-150人,南山区,本科,A轮,"硬件,移动互联网",113.936472,22.523443,全职,1-3年
38,4220680,高级硬件测试工程师（J170719001）,北京,2018-04-27 10:10:10,33.0,2474,滴滴出行,北京嘀嘀无限科技发展有限公司,2000人以上,海淀区,本科,不需要融资,移动互联网,116.283768,40.04455,全职,3-5年
39,4232085,硬件测试工程师,杭州,2018-04-19 14:29:32,9.8,50867,檀木科技,杭州檀木科技有限公司,15-50人,滨江区,本科,A轮,"移动互联网,其他",120.18125,30.185411,全职,1-3年
40,4147306,存储硬件测试工程师,深圳,2018-04-28 11:58:27,6.2,196332,瑞耐斯,深圳市瑞耐斯技术有限公司,50-150人,南山区,大专,不需要融资,"硬件,其他",0.0,0.0,全职,1-3年
41,4356553,硬件测试工程师（深圳）-深圳-00106,深圳,2018-04-28 17:23:37,12.0,27520,智慧树,北京环宇万维科技有限公司,150-500人,南山区,本科,B轮,移动互联网,113.930476,22.533013,全职,1-3年
42,4228729,硬件测试工程师,广州,2018-04-12 12:59:30,7.6,522,广电运通,广电运通金融电子股份有限公司,2000人以上,萝岗区,本科,上市公司,"移动互联网,金融",113.446589,23.142801,全职,1-3年
43,4159746,高级硬件测试,北京,2018-04-08 20:31:14,21.0,25090,意锐,北京意锐新创科技有限公司,50-150人,海淀区,本科,B轮,移动互联网,116.298113,40.053088,全职,3-5年
44,4440818,高级硬件测试工程师,惠州,2018-04-18 11:54:17,12.0,221266,德赛西威,惠州市德赛西威汽车电子股份有限公司,2000人以上,惠城区,本科,上市公司,"硬件,其他",114.346003,23.044989,全职,1-3年
45,4426248,硬件测试,北京,2018-04-16 14:08:41,7.2,300835,紫光云数,紫光云数科技有限公司,2000人以上,海淀区,本科,不需要融资,"企业服务,数据服务",116.306955,40.04765,全职,1年以下
46,2748195,硬件测试工程师,成都,2018-04-16 16:57:23,4.2,26723,光合作用,成都世纪光合作用科技有限公司,15-50人,郫县,不限,天使轮,移动互联网,103.9536,30.74423,全职,3-5年
47,4358775,硬件测试工程师-深圳-00812,深圳,2018-04-12 17:12:43,14.0,21539,比特大陆,北京比特大陆科技有限公司,150-500人,南山区,本科,不需要融资,"移动互联网,硬件",113.958713,22.543467,全职,1-3年
48,3364547,硬件测试高级工程师-基础平台(J170525195),北京,2018-04-27 10:10:11,29.0,2474,滴滴出行,北京嘀嘀无限科技发展有限公司,2000人以上,海淀区,不限,不需要融资,移动互联网,116.28896,40.04373007,全职,不限
49,4019812,硬件测试工程师,深圳,2018-04-27 09:29:05,9.8,158509,瑞为智能,厦门瑞为信息技术有限公司深圳分公司,50-150人,南山区,大专,B轮,"硬件,移动互联网",113.94483,22.52814,全职,3-5年
50,4090391,硬件测试经理,北京,2018-04-26 15:58:00,21.0,26557,锤子科技,锤子科技（北京）股份有限公司,500-2000人,朝阳区,本科,B轮,"移动互联网,硬件",116.479423,40.012226,全职,5-10年
51,4342345,硬件测试工程师,北京,2018-04-23 17:39:19,14.0,179148,赛格威机器人,鼎力联合（北京）科技有限公司,50-150人,海淀区,本科,C轮,硬件,116.357652,40.041947,全职,不限
52,4371281,硬件测试工程师,厦门,2018-04-04 10:47:23,8.4,228519,Dynamax,厦门德诺迈斯信息技术有限公司,50-150人,思明区,大专,不需要融资,移动互联网,118.182803,24.489332,全职,1-3年
53,4368184,通讯硬件测试工程师,北京,2018-04-30 10:34:03,14.0,3994,盛世光明,北京盛世光明软件股份有限公司,150-500人,海淀区,本科,B轮,"信息安全,数据服务",116.307157,40.036457,全职,1-3年
54,4499354,手机硬件测试工程师,济南,2018-04-28 14:40:18,5.6,371352,凯尔通讯,济南凯尔通讯科技有限公司,50-150人,历城区,大专,未融资,硬件、移动互联网,117.074118,36.673765,全职,1-3年
55,4383537,硬件测试工程师,东莞,2018-04-08 16:53:58,14.0,353834,小黄狗环保科技有限公司,小黄狗环保科技有限公司,2000人以上,东莞市市辖区,大专,D轮及以上,"移动互联网,生活服务",0.0,0.0,全职,3-5年
56,4314795,硬件测试工程师,广州,2018-04-28 09:54:08,9.6,58012,亿程信息,广州亿程交通信息有限公司,500-2000人,天河区,大专,上市公司,"数据服务,信息安全",113.412361,23.172117,全职,不限
57,4463221,硬件测试工程师,武汉,2018-04-23 11:03:16,4.8,243939,艾欧创想,艾欧创想智能科技（武汉）有限公司,15-50人,东湖新技术开发区,大专,天使轮,"硬件,生活服务",114.405542,30.474969,全职,1-3年
58,4484302,硬件测试工程师,杭州,2018-04-26 09:45:15,6.8,9129,承联通信,杭州承联通信技术有限公司,50-150人,滨江区,大专,未融资,硬件,120.158371,30.181201,全职,1-3年
59,4486483,硬件测试工程师,武汉,2018-04-26 12:59:26,10.8,126467,商米科技,上海商米科技有限公司,150-500人,东湖新技术开发区,本科,C轮,O2O,114.422263,30.504462,全职,5-10年
60,4500143,硬件测试工程师,杭州,2018-04-28 16:00:44,7.0,125339,盈网科技,杭州盈网科技有限公司,50-150人,滨江区,大专,不需要融资,"硬件,医疗健康",120.139411,30.180239,全职,1-3年
61,4499131,硬件测试工程师,北京,2018-04-28 14:15:12,10.8,172180,北京旗硕基业科技股份有限公司,北京旗硕基业科技股份有限公司,15-50人,昌平区,本科,不需要融资,"移动互联网,数据服务",116.262887,40.137382,全职,1-3年
62,3847639,高级硬件测试工程师,深圳,2018-04-24 09:12:38,21.0,144396,恒大珠三角公司,恒大地产集团珠三角房地产开发有限公司,2000人以上,南山区,本科,上市公司,"移动互联网,生活服务",113.943073,22.518898,全职,5-10年
63,4078171,高级硬件测试工程师,杭州,2018-03-30 15:44:42,19.0,171980,Rokid,芋头科技（杭州）有限公司,150-500人,西湖区,本科,B轮,"电子商务,移动互联网",0.0,0.0,全职,3-5年
64,4447337,硬件测试工程师,广州,2018-04-26 18:21:13,6.8,250404,广州通达汽车电气股份有限公司,广州通达汽车电气股份有限公司,500-2000人,白云区,本科,上市公司,生活服务、企业服务,113.236251,23.180663,全职,不限
65,4090395,高级硬件测试工程师,北京,2018-04-26 15:58:00,12.0,26557,锤子科技,锤子科技（北京）股份有限公司,500-2000人,朝阳区,本科,B轮,"移动互联网,硬件",116.479423,40.012226,全职,1-3年
66,3438630,硬件测试工程师,合肥,2018-04-25 16:27:07,3.8,239841,卓远电子,合肥卓远电子科技有限公司,15-50人,经济技术开发区,大专,未融资,其他,117.148,31.83541,全职,不限
67,3930479,硬件测试工程师,杭州,2018-04-23 15:50:06,6.2,224979,图软科技,杭州图软科技有限公司,50-150人,余杭区,本科,未融资,硬件,120.104358,30.355654,全职,1-3年
68,210491,硬件测试工程师,北京,2018-04-23 09:29:00,6.8,31556,吉视汇通,北京吉视汇通科技有限责任公司,50-150人,丰台区,本科,A轮,硬件,116.28160677,39.8272524,全职,1-3年
69,4465578,硬件测试工程师,北京,2018-04-23 15:01:54,6.2,124866,北京领创,北京领创拓展科技发展有限公司,50-150人,海淀区,本科,未融资,"移动互联网,硬件",116.285175,40.044846,全职,3-5年
70,3844496,硬件测试工程师,北京,2018-04-25 10:28:14,21.0,162203,寒武纪科技,北京中科寒武纪科技有限公司,50-150人,海淀区,本科,A轮,"硬件,数据服务",116.351057,39.977249,全职,3-5年
71,2786127,高级硬件测试工程师,深圳,2018-04-28 11:24:57,22.8,29929,斐讯通信,上海斐讯数据通信技术有限公司,2000人以上,南山区,本科,未融资,"数据服务,硬件",113.934837,22.560367,全职,5-10年
72,3345012,硬件测试工程师,长沙,2018-04-26 09:38:54,6.8,66674,长城医疗科技,湖南长城医疗科技有限公司,2000人以上,长沙县,本科,上市公司,医疗健康,112.993417,27.994254,全职,3-5年
73,4497607,硬件测试实习生(J10958),北京,2018-04-28 10:34:52,4.8,175557,便利蜂,便利蜂商贸有限公司,2000人以上,朝阳区,本科,不需要融资,"移动互联网,生活服务",116.49388,39.978087,实习,1年以下
74,4122482,硬件测试工程师,深圳,2018-04-27 09:35:06,12.0,322508,光启集团,深圳光启超材料技术有限公司,500-2000人,南山区,本科,上市公司,"数据服务,硬件",113.940675,22.549226,全职,1-3年
75,4249593,资深测试工程师（硬件测试/解决方案测试）,苏州,2018-04-25 09:41:54,21.0,94,思必驰科技,苏州思必驰信息科技有限公司,150-500人,工业园区,本科,C轮,企业服务,120.723343,31.324036,全职,3-5年
76,2338538,硬件测试工程师,北京,2018-04-24 14:53:34,6.2,124649,东土军悦,北京东土军悦科技有限公司,50-150人,石景山区,本科,上市公司,"信息安全,其他",116.18895,39.93539007,全职,1年以下
77,2306491,手机硬件测试工程师,深圳,2018-04-22 15:14:37,12.0,20409,TP-LINK,普联技术有限公司,2000人以上,南山区,本科,不需要融资,硬件,113.993578,22.99368,全职,1-3年
78,4331209,硬件测试工程师,广州,2018-04-11 16:47:50,4.8,199177,丰海科技,广州市丰海科技股份有限公司,150-500人,萝岗区,大专,上市公司,"硬件,数据服务",113.496108,23.152663,全职,1-3年
79,4335799,硬件测试工程师,北京,2018-04-02 13:55:53,21.0,21539,比特大陆,北京比特大陆科技有限公司,150-500人,海淀区,本科,不需要融资,"移动互联网,硬件",116.377238,40.031997,全职,3-5年
80,3546241,硬件测试工程师,北京,2018-04-25 10:00:25,10.8,105852,悦琦医疗,北京悦琦创通科技有限公司,150-500人,大兴区,本科,不需要融资,医疗健康,116.53076,39.80637,全职,3-5年
81,4303178,硬件测试工程师,北京,2018-04-28 15:09:46,5.8,128481,海克智动,北京海克智动科技开发有限公司,15-50人,海淀区,大专,天使轮,"移动互联网,硬件",116.34695,40.01925,全职,1-3年
82,4374144,硬件测试中级工程师,广州,2018-04-28 09:54:08,8.8,58012,亿程信息,广州亿程交通信息有限公司,500-2000人,天河区,大专,上市公司,"数据服务,信息安全",113.412103,23.172089,全职,3-5年
83,4127715,硬件测试工程师,广州,2018-04-02 15:59:14,4.8,128324,乐摇摇,深圳乐摇摇信息科技有限公司广州分公司,150-500人,番禺区,本科,A轮,移动互联网,113.384129,22.937244,全职,1-3年
84,4143375,硬件测试工程师,深圳,2018-04-24 10:40:23,12.6,45943,信锐技术,深圳市信锐网科技术有限公司,500-2000人,南山区,本科,不需要融资,移动互联网,114.002362,22.591866,全职,1-3年
85,4095807,AI Lab-硬件测试工程师,北京,2018-04-10 22:41:29,21.0,3328,好未来,北京世纪好未来教育科技有限公司,2000人以上,海淀区,本科,上市公司,"移动互联网,教育",116.313701,39.978427,全职,3-5年
86,4309737,硬件测试工程师,上海,2018-04-27 15:20:15,21.0,126467,商米科技,上海商米科技有限公司,150-500人,杨浦区,本科,C轮,O2O,121.512935,31.307607,全职,3-5年
87,4426423,硬件测试助理工程师,深圳,2018-04-20 14:16:53,4.8,24016,朵唯女性手机,深圳市朵唯科技有限公司,150-500人,南山区,大专,未融资,移动互联网,113.988539,22.586502,全职,不限
88,4402586,硬件测试,武汉,2018-04-23 17:42:03,3.8,93916,东信同邦,武汉东信同邦信息技术有限公司,150-500人,武昌区,大专,未融资,移动互联网,0.0,0.0,全职,不限
89,4162189,硬件测试工程师,深圳,2018-04-03 08:57:56,4.8,79903,银河风云,深圳市银河风云网络系统股份有限公司,150-500人,南山区,大专,A轮,"移动互联网,硬件",113.94332,22.554186,全职,1-3年
90,4429425,硬件测试,北京,2018-04-28 13:38:15,15.2,3328,好未来,北京世纪好未来教育科技有限公司,2000人以上,海淀区,本科,上市公司,"移动互联网,教育",116.313701,39.978427,全职,3-5年
91,4128739,硬件测试工程师,深圳,2018-04-15 23:53:34,6.2,105305,越疆科技,深圳市越疆科技有限公司,150-500人,南山区,本科,B轮,硬件,114.12841,22.684206,全职,1-3年
92,4401284,硬件测试工程师,深圳,2018-04-27 14:41:40,7.8,98020,深圳市瑞立视,深圳市瑞立视多媒体科技有限公司,50-150人,南山区,大专,不需要融资,"游戏,文化娱乐",113.952996,22.530161,全职,1-3年
93,4454397,硬件测试工程师,上海,2018-04-25 13:20:53,7.0,58410,上海宏力达,上海宏力达信息技术有限公司,150-500人,徐汇区,本科,不需要融资,其他,121.39779,31.16459,全职,1-3年
94,4442837,硬件测试工程师,深圳,2018-04-28 09:57:56,8.4,125911,兴天实业,兴天实业（深圳）有限公司,50-150人,南山区,大专,不需要融资,硬件,113.993578,22.99368,全职,3-5年
95,3248337,硬件测试工程师,北京,2018-04-26 10:46:27,21.0,175557,便利蜂,便利蜂商贸有限公司,2000人以上,海淀区,不限,不需要融资,"移动互联网,生活服务",116.31561,39.983413,全职,1-3年
96,4333681,硬件测试,北京,2018-04-24 11:05:57,6.2,206745,知康科技,知康科技（北京）有限公司,50-150人,海淀区,本科,未融资,医疗健康,116.309199,40.040518,全职,1-3年
97,4400642,硬件测试工程师,广州,2018-04-16 14:30:26,3.8,202381,微嵌计算机,广州市微嵌计算机科技有限公司,50-150人,黄埔区,大专,未融资,"移动互联网,其他",113.562847,23.185335,全职,1年以下
98,4411213,硬件测试工程师,广州,2018-04-27 17:32:36,8.4,128324,乐摇摇,深圳乐摇摇信息科技有限公司广州分公司,150-500人,番禺区,大专,A轮,移动互联网,113.386434,23.056892,全职,1-3年
99,4105716,硬件测试,北京,2018-04-24 15:16:46,9.8,213020,中普信富,北京中普信富投资管理有限公司,500-2000人,海淀区,本科,不需要融资,"移动互联网,电子商务",116.185379,40.06076,全职,1-3年
100,4445148,硬件测试工程师,上海,2018-04-18 18:11:43,24.0,1686,爱奇艺,北京爱奇艺科技有限公司,2000人以上,长宁区,本科,D轮及以上,"广告营销,文化娱乐",121.349302,31.229924,全职,3-5年
101,2009203,硬件测试,成都,2018-04-17 16:43:36,1.4,97878,成都万创,成都万创科技有限责任公司,50-150人,武侯区,大专,上市公司,"移动互联网,硬件",103.98325025,30.63011979,实习,不限
102,4484267,硬件测试工程师（实习生可培养）,北京,2018-04-26 09:43:27,3.8,335848,北京易凯联讯,北京易凯联讯科技有限责任公司,150-500人,海淀区,大专,未融资,其他,116.355879,40.049371,全职,不限
103,4271595,硬件测试工程师,北京,2018-04-03 11:12:03,14.0,436,360,奇虎360科技有限公司,2000人以上,朝阳区,不限,上市公司,"移动互联网,游戏",116.49012,39.98343006,全职,1-3年
104,3992036,硬件测试工程师,深圳,2018-04-16 14:02:36,7.8,286056,三诺信息科技,深圳三诺信息科技有限公司,150-500人,宝安区,大专,不需要融资,硬件,113.842606,22.796092,全职,不限
105,4302900,硬件测试工程师,深圳,2018-04-23 09:21:47,8.8,348196,海邻科,深圳市海邻科信息技术有限公司,150-500人,南山区,大专,A轮,"信息安全,数据服务",113.938346,22.558411,全职,1-3年
106,4389452,硬件测试工程师,北京,2018-04-26 17:30:19,10.8,260542,德知航创,北京德知航创科技有限责任公司,50-150人,海淀区,大专,A轮,硬件,116.362342,39.97368,全职,不限
107,3582838,硬件测试工程师,深圳,2018-04-03 09:39:50,6.2,172821,亿慧云集团,亿慧云智能科技（深圳）股份有限公司,50-150人,宝安区,大专,A轮,"移动互联网,企业服务",113.92295,22.576548,全职,1-3年
108,3972667,硬件测试工程师,深圳,2018-04-10 09:26:12,7.6,145199,车葫芦科技,深圳市车葫芦科技有限公司,15-50人,龙华新区,本科,未融资,硬件,114.0349,22.62413,全职,1-3年
109,3733811,硬件测试工程师,杭州,2018-04-12 17:13:06,6.6,114161,质子科技,杭州质子科技有限公司,15-50人,西湖区,本科,A轮,"移动互联网,硬件",120.146072,30.279249,全职,不限
110,4332635,智能硬件测试工程师,杭州,2018-04-27 14:46:34,14.0,34315,涂鸦智能,杭州涂鸦信息技术有限公司,150-500人,西湖区,不限,B轮,"移动互联网,硬件",119.993591,29.993662,全职,3-5年
111,3258938,高级硬件测试工程师,北京,2018-04-26 10:46:27,21.0,175557,便利蜂,便利蜂商贸有限公司,2000人以上,海淀区,本科,不需要融资,"移动互联网,生活服务",116.31561,39.983413,全职,1-3年
112,4244970,硬件测试技术员/调试员,深圳,2018-04-10 13:44:41,4.8,340251,联兆电子,深圳市联兆电子有限公司,150-500人,龙岗区,不限,未融资,硬件,114.116552,22.652761,全职,不限
113,4066768,硬件中心-硬件测试工程师-合肥,合肥,2018-04-02 17:56:35,10.0,21980,科大讯飞,科大讯飞股份有限公司,2000人以上,高新区,本科,上市公司,"移动互联网,数据服务",117.14372,31.830538,全职,3-5年
114,4491897,硬件测试 音视频工程师,北京,2018-04-27 10:38:44,4.8,34511,易凯联讯,北京易凯联讯科技有限公司,50-150人,海淀区,大专,未融资,企业服务,116.355879,40.049371,全职,1-3年
115,4231589,网络硬件测试,杭州,2018-04-10 10:39:30,24.0,44875,印孚瑟斯,印孚瑟斯技术（中国）有限公司,2000人以上,西湖区,本科,上市公司,移动互联网,120.087746,30.129571,全职,5-10年
116,3822859,软硬件测试工程师,上海,2018-04-27 09:54:44,10.8,142682,问之信息科技,上海问之信息科技有限公司,15-50人,长宁区,本科,天使轮,"移动互联网,电子商务",121.431524,31.217958,全职,1-3年
117,4201598,智能硬件测试工程师,深圳,2018-04-28 10:43:49,14.0,64398,BluePay,深圳蓝贝科技有限公司,150-500人,南山区,本科,B轮,"移动互联网,金融",113.942712,22.526908,全职,3-5年
118,4302072,软硬件测试专员,深圳,2018-04-24 17:02:12,6.8,348642,敏锐互联,深圳市敏锐互联科技有限公司,50-150人,宝安区,不限,未融资,移动互联网,113.85828,22.586142,全职,应届毕业生
119,4427427,硬件测试工程师（模拟射频集成电路方向）,深圳,2018-04-16 15:37:34,11.2,356801,中科先见,深圳市中科先见医疗科技有限公司,少于15人,龙岗区,本科,A轮,硬件 医疗健康,114.210085,22.697548,全职,1-3年
120,4424538,无人零售智能硬件测试与数据采集实习生,上海,2018-04-16 10:47:06,2.8,51480,饿了么,拉扎斯网络科技（上海）有限公司,2000人以上,普陀区,硕士,D轮及以上,移动互联网,121.382121,31.232942,实习,应届毕业生
