,职位编码,职位名称,所在城市,发布日期,薪资待遇(k),公司编码,公司名称,公司全称,公司规模,所在区域,最低学历,融资状态,公司类型,经度,纬度,全职/实习,工作经验
0,4096763,语音识别,北京,2018-04-19 09:55:55,38.0,25439,Udesk－企业级智能客服平台,北京沃丰时代数据科技有限公司,150-500人,西城区,硕士,B轮,其他,116.357353,39.939211,全职,3-5年
1,4281281,语音识别工程师,北京,2018-04-18 14:48:09,35.0,82991,数美,北京数美时代科技有限公司,150-500人,朝阳区,硕士,B轮,"企业服务,数据服务",116.465953,40.021083,全职,1-3年
2,4286288,语音识别专家,北京,2018-04-18 11:36:15,42.0,7030,触宝,上海触乐信息科技有限公司,150-500人,朝阳区,硕士,D轮及以上,"移动互联网,数据服务",116.454668,39.919657,全职,3-5年
3,3657996,语音识别工程师,上海,2018-04-18 10:19:30,20.0,98800,竹间智能科技(上海)有限公司,竹间智能科技（上海）有限公司,150-500人,徐汇区,硕士,B轮,"移动互联网,其他",121.41768,31.17509986,全职,不限
4,4327267,语音识别工程师,苏州,2018-04-18 11:35:17,21.0,94,思必驰科技,苏州思必驰信息科技有限公司,150-500人,工业园区,硕士,C轮,企业服务,120.723343,31.324036,全职,1-3年
5,2875958,语音识别工程师,北京,2018-04-18 00:45:25,38.0,36031,一起科技,上海一起作业信息科技有限公司,500-2000人,朝阳区,本科,D轮及以上,"移动互联网,教育",116.486624,40.000825,全职,1-3年
6,3842170,数据挖掘工程师-语音识别,北京,2018-04-17 09:51:54,28.0,136443,马上金融,马上消费金融股份有限公司,2000人以上,朝阳区,本科,不需要融资,"金融,移动互联网",116.47826581,39.91290348,全职,3-5年
7,3130150,语音识别工程师,北京,2018-04-18 14:12:29,38.0,50604,roobo,北京智能管家科技有限公司,150-500人,东城区,硕士,B轮,移动互联网,116.433221,39.920718,全职,3-5年
8,4362134,语音识别工程师,杭州,2018-04-18 16:15:41,29.0,272694,一知智能,杭州一知智能科技有限公司,15-50人,萧山区,硕士,天使轮,"移动互联网,数据服务",0.0,0.0,全职,不限
9,4014812,语音识别解码器,北京,2018-04-18 20:20:46,35.0,172285,猎户星空,北京猎户星空科技有限公司,150-500人,朝阳区,硕士,A轮,"移动互联网,硬件",116.458741,39.932851,全职,不限
10,3473723,语音识别研究员,上海,2018-04-17 18:02:46,35.0,3422,英语流利说,上海流利说信息技术有限公司,500-2000人,杨浦区,硕士,C轮,"移动互联网,教育",121.50712,31.265662,全职,不限
11,4281835,高级语音识别工程师,合肥,2018-04-19 08:32:13,18.2,106555,ZOOM,软视视频软件（杭州）有限公司,500-2000人,高新区,硕士,D轮及以上,"移动互联网,社交网络",117.139029,31.838828,全职,1-3年
12,3683082,语音识别工程师,苏州,2018-04-17 09:03:10,21.0,8288,网龙网络有限公司,福建网龙计算机网络信息技术有限公司,2000人以上,工业园区,硕士,上市公司,"移动互联网,教育",120.732665,31.264799,全职,1-3年
13,3391964,语音识别研究员,北京,2018-04-17 17:09:25,26.0,113715,东芝(中国)有限公司,东芝(中国)有限公司,150-500人,朝阳区,硕士,上市公司,"移动互联网,企业服务",115.99339,39.99426,全职,1-3年
14,3245434,人工智能工程师-语音识别,大连,2018-03-29 10:48:42,24.0,80771,乐天创研,乐天创研（北京）科技有限公司,2000人以上,高新园区,硕士,上市公司,"电子商务,旅游",0.0,0.0,全职,1-3年
15,4096764,语音识别,北京,2018-04-19 09:55:55,21.0,25439,Udesk－企业级智能客服平台,北京沃丰时代数据科技有限公司,150-500人,西城区,硕士,B轮,其他,116.357353,39.939211,全职,1-3年
16,3042205,语音识别实习生,北京,2018-04-18 00:45:26,6.6,36031,一起科技,上海一起作业信息科技有限公司,500-2000人,朝阳区,本科,D轮及以上,"移动互联网,教育",116.486624,40.000825,实习,不限
17,3745292,语音识别,苏州,2018-04-16 15:00:22,21.0,56995,意能通,苏州意能通信息技术有限公司,15-50人,工业园区,硕士,A轮,移动互联网,120.744999,31.269057,全职,3-5年
18,3684958,语音识别工程师—-声学模型方向,北京,2018-04-16 16:30:25,9.6,48188,普强信息,普强信息技术（北京）有限公司,150-500人,海淀区,本科,C轮,数据服务,116.245368,40.072979,实习,应届毕业生
19,3562714,语音识别工程师J10012,北京,2018-04-14 20:07:32,38.0,1880,快手,北京达佳互联信息技术有限公司,500-2000人,海淀区,硕士,D轮及以上,移动互联网,116.330747,39.9947,全职,不限
20,4192822,语音识别工程师,上海,2018-04-17 10:18:21,42.0,21775,DJI大疆创新,深圳市大疆创新科技有限公司,2000人以上,浦东新区,硕士,未融资,"移动互联网,硬件",121.583944,31.197664,全职,5-10年
21,3342599,语音识别/语音合成/语音技术研究员,北京,2018-04-17 17:09:25,26.0,113715,东芝(中国)有限公司,东芝(中国)有限公司,150-500人,朝阳区,硕士,上市公司,"移动互联网,企业服务",115.99339,39.99426,全职,3-5年
22,4441849,FreeSwitch语音识别工程师-仁信智清,北京,2018-04-18 14:18:31,19.0,23702,真格基金,北京真格天成投资管理有限公司,50-150人,海淀区,本科,不需要融资,金融,0.0,0.0,全职,3-5年
23,4243642,语音识别研究员,北京,2018-04-02 14:39:28,21.6,1650,联想集团,联想（北京）有限公司,2000人以上,海淀区,硕士,上市公司,"移动互联网,数据服务",116.29846,40.0534,全职,1-3年
24,3944494,语音识别工程师,北京,2018-04-12 14:22:21,42.0,62,字节跳动,北京字节跳动科技有限公司,2000人以上,海淀区,硕士,C轮,"移动互联网,数据服务",116.332602,39.971268,全职,3-5年
25,4222753,语音识别高级工程师,上海,2018-04-18 11:36:15,38.0,7030,触宝,上海触乐信息科技有限公司,150-500人,徐汇区,硕士,D轮及以上,"移动互联网,数据服务",121.393969,31.172406,全职,3-5年
26,3583621,语音识别工程师,北京,2018-04-09 16:07:33,26.0,8103,汽车之家,北京车之家信息技术有限公司,2000人以上,海淀区,本科,上市公司,"移动互联网,文化娱乐",116.311989,39.979473,全职,1-3年
27,3975108,语音识别技术开发和应用工程师,北京,2018-04-09 07:21:51,23.2,126499,机器学习,北京机器学习信息技术有限公司,15-50人,海淀区,不限,不需要融资,移动互联网,116.353944,40.001756,全职,3-5年
28,4116633,语音识别工程师,深圳,2018-04-18 09:46:28,28.0,6566,金蝶,金蝶软件（中国）有限公司,2000人以上,南山区,硕士,上市公司,"移动互联网,电子商务",113.95478984,22.53412317,全职,3-5年
29,3557381,语音识别工程师,北京,2018-04-16 10:37:38,42.0,148997,汉宇海阔,北京汉宇海阔软件科技有限公司,15-50人,海淀区,硕士,A轮,"移动互联网,电子商务",116.348589,39.975201,全职,3-5年
30,3787954,语音识别工程师-语言模型方向,北京,2018-04-16 16:30:25,19.0,48188,普强信息,普强信息技术（北京）有限公司,150-500人,海淀区,本科,C轮,数据服务,116.245368,40.072979,全职,1-3年
31,3937629,语音识别工程师,深圳,2018-04-08 16:16:10,20.8,21775,DJI大疆创新,深圳市大疆创新科技有限公司,2000人以上,南山区,硕士,未融资,"移动互联网,硬件",113.952984,22.537007,全职,3-5年
32,4327294,高级语音识别工程师,苏州,2018-04-18 11:35:16,28.0,94,思必驰科技,苏州思必驰信息科技有限公司,150-500人,工业园区,硕士,C轮,企业服务,120.723343,31.324036,全职,3-5年
33,3884182,语音识别及交互项目经理(J171122037),北京,2018-04-16 14:58:07,28.0,2474,滴滴出行,北京嘀嘀无限科技发展有限公司,2000人以上,海淀区,本科,不需要融资,移动互联网,40.04683,40.04683,全职,3-5年
34,4386742,语音识别工程师,北京,2018-04-09 10:53:32,27.0,16799,猿辅导,北京粉笔未来科技有限公司,500-2000人,朝阳区,本科,D轮及以上,"移动互联网,教育",116.4745,39.992592,全职,不限
35,4121173,语音识别与多轮交互算法科学家/工程师,北京,2018-04-18 15:54:07,42.0,320770,Aibee,爱笔（北京）智能科技有限公司,50-150人,海淀区,本科,天使轮,"移动互联网,企业服务",116.307879,40.03682,全职,1-3年
36,4329513,GY0-语音识别工程师,深圳,2018-04-17 14:12:58,21.0,451,腾讯,腾讯科技(深圳)有限公司,2000人以上,南山区,硕士,上市公司,"移动互联网 ,游戏",113.93362,22.540719,全职,3-5年
37,3767241,语音识别算法,深圳,2018-04-18 14:32:31,28.0,107664,AKULAKU,岩心科技（深圳）有限公司,150-500人,南山区,本科,B轮,"移动互联网,金融",113.943847,22.529035,全职,3-5年
38,3768702,语音识别负责人,北京,2018-04-19 09:56:29,35.0,50702,美团点评,北京三快在线科技有限公司,2000人以上,朝阳区,本科,D轮及以上,"移动互联网,O2O",116.48001,39.997249,全职,3-5年
39,4175658,语音识别研发软件工程师,上海,2018-04-18 17:57:54,16.2,40015,Nuance,纽昂司软件技术（北京）有限公司,2000人以上,浦东新区,硕士,上市公司,"移动互联网,数据服务",121.528295,31.226684,全职,应届毕业生
40,4107124,语音识别工程师实习生,北京,2018-04-17 09:29:50,5.6,5748,天润融通,北京天润融通科技有限公司,150-500人,大兴区,本科,不需要融资,"企业服务,数据服务",116.496718,39.783708,全职,不限
41,4119492,自动语音识别工程师,北京,2018-04-17 18:00:31,25.2,67118,达闼科技,达闼科技（北京）有限公司,150-500人,朝阳区,本科,B轮,移动互联网,116.479397,39.995298,全职,不限
42,4317722,语音识别工程师,南京,2018-03-24 08:03:14,21.0,263233,硅基智能,南京硅基智能科技有限公司,50-150人,雨花台区,硕士,天使轮,移动互联网,118.777605,31.975495,全职,3-5年
43,4079133,语音识别工程师,北京,2018-04-16 18:13:29,62.0,49650,深圳市福客餐饮管理服务有限公司,长城宽带网络服务有限公司深圳分公司,2000人以上,朝阳区,本科,上市公司,"数据服务,其他",116.487867,39.999765,全职,3-5年
44,3767396,语音识别工程师,深圳,2018-04-16 18:03:12,38.0,156484,华夏光彩,深圳市华夏光彩显示技术有限公司,150-500人,南山区,硕士,上市公司,硬件,113.950153,22.550392,全职,3-5年
45,4166938,语音识别工程师--声学模型方向,北京,2018-04-16 16:21:55,14.0,48188,普强信息,普强信息技术（北京）有限公司,150-500人,海淀区,硕士,C轮,数据服务,116.245368,40.072979,全职,1-3年
46,4222681,语音识别主任研究员,上海,2018-04-18 11:35:17,42.0,94,思必驰科技,苏州思必驰信息科技有限公司,150-500人,徐汇区,本科,C轮,企业服务,121.451012,31.16642,全职,3-5年
47,3424633,语音识别实习生-AI Lab,北京,2018-04-05 14:21:09,2.8,62,字节跳动,北京字节跳动科技有限公司,2000人以上,海淀区,本科,C轮,"移动互联网,数据服务",116.332602,39.971268,实习,不限
48,4036899,语音识别算法工程师,北京,2018-03-26 10:58:09,28.0,4188,INK 银客集团,银客未来科技（北京）有限公司,500-2000人,海淀区,本科,C轮,"移动互联网,金融",116.356355,40.047633,全职,3-5年
49,4031472,语音识别算法工程师,北京,2018-04-18 10:49:41,21.0,16869,朗播网,北京博智天下信息技术有限公司,150-500人,海淀区,本科,B轮,教育,116.31287,40.03445,全职,1-3年
50,4314798,语音识别研发工程师,上海,2018-04-17 11:17:20,19.0,151064,傲硕科技,上海傲硕信息科技有限公司,15-50人,浦东新区,硕士,B轮,移动互联网,121.515309,31.227638,全职,1-3年
51,2760942,语音识别算法工程师(ASR),北京,2018-04-18 15:41:14,28.0,356,捷通华声,北京捷通华声科技股份有限公司,150-500人,海淀区,本科,不需要融资,"移动互联网,数据服务",116.29632768,40.05177651,全职,1-3年
52,2736815,自动语音识别工程师,北京,2018-04-17 18:00:30,35.0,67118,达闼科技,达闼科技（北京）有限公司,150-500人,朝阳区,硕士,B轮,移动互联网,116.479397,39.995298,全职,3-5年
53,4171139,高级语音识别研究员,北京,2018-04-02 14:39:29,20.8,1650,联想集团,联想（北京）有限公司,2000人以上,海淀区,硕士,上市公司,"移动互联网,数据服务",0.0,0.0,全职,1-3年
54,2055685,语音识别研发工程师(J12431),北京,2018-04-16 14:58:08,28.0,2474,滴滴出行,北京嘀嘀无限科技发展有限公司,2000人以上,海淀区,本科,不需要融资,移动互联网,116.28895999,40.04373006,全职,3-5年
55,2868104,语音识别测评工程师,北京,2018-04-19 09:33:51,21.0,1121,智课网,北京创新伙伴教育科技有限公司,500-2000人,海淀区,本科,B轮,"移动互联网,教育",115.99339,39.99426,全职,3-5年
56,4237190,语音识别算法工程师,北京,2018-04-17 13:42:31,42.0,111139,NIO蔚来,上海蔚来汽车有限公司,2000人以上,朝阳区,本科,D轮及以上,"移动互联网,硬件",116.465947,40.021473,全职,3-5年
57,4146760,语音识别工程师-中国-00507,北京,2018-03-22 15:35:03,21.0,1249,出门问问,北京羽扇智信息科技有限公司,150-500人,海淀区,本科,D轮及以上,"移动互联网,O2O",116.315034,39.9784,全职,1-3年
58,4431496,语音识别算法工程师,杭州,2018-04-19 09:32:11,21.0,154789,数心科技,杭州数心网络科技有限公司,15-50人,余杭区,本科,A轮,企业服务,120.003852,30.291585,全职,3-5年
59,3528017,语音识别工程师,北京,2018-03-30 09:45:15,17.8,234712,帝派智能,北京帝派智能科技有限公司,15-50人,朝阳区,本科,未融资,"移动互联网,数据服务",116.417366,40.03195,全职,3-5年
60,4171173,高级语音识别研究员,北京,2018-04-02 14:39:27,35.0,1650,联想集团,联想（北京）有限公司,2000人以上,海淀区,硕士,上市公司,"移动互联网,数据服务",0.0,0.0,全职,3-5年
61,3268123,语音识别工程师,北京,2018-04-01 15:29:32,35.0,33016,Eyespage,页码（北京）科技有限公司,50-150人,朝阳区,本科,A轮,移动互联网,116.47598,39.99859,全职,3-5年
62,3927286,语音识别算法工程师,北京,2018-04-18 13:35:32,21.0,23004,图灵机器人,北京光年无限科技有限公司,150-500人,海淀区,硕士,B轮,移动互联网,116.311424,40.027368,全职,不限
63,4014807,语音识别算法工程师,北京,2018-04-18 20:20:46,35.0,172285,猎户星空,北京猎户星空科技有限公司,150-500人,朝阳区,本科,A轮,"移动互联网,硬件",116.458741,39.932851,全职,不限
64,4043797,语音识别算法工程师（ASR）,北京,2018-04-18 09:10:50,28.0,356,捷通华声,北京捷通华声科技股份有限公司,150-500人,海淀区,硕士,不需要融资,"移动互联网,数据服务",116.296196,40.051616,全职,不限
65,4216534,语音识别算法工程师,杭州,2018-04-18 09:17:20,24.8,21236,微医集团,浙江康健绿线网络技术有限公司,500-2000人,西湖区,硕士,C轮,"移动互联网,医疗健康",120.135109,30.272582,全职,不限
66,4304629,语音识别算法工程师,杭州,2018-04-17 14:27:04,26.0,155938,苏州锦佰安,苏州锦佰安信息技术有限公司,15-50人,西湖区,本科,天使轮,信息安全,120.117505,30.291025,全职,3-5年
67,2038715,语音识别评测工程师,北京,2018-04-19 09:33:50,22.0,1121,智课网,北京创新伙伴教育科技有限公司,500-2000人,,硕士,B轮,"移动互联网,教育",,,全职,不限
68,3929851,AI-语音识别算法研究员,北京,2018-04-16 19:29:05,24.0,136443,马上金融,马上消费金融股份有限公司,2000人以上,朝阳区,本科,不需要融资,"金融,移动互联网",116.488656,40.002842,全职,3-5年
69,2858686,语音识别算法工程师,北京,2018-04-19 10:14:13,28.0,73653,奇点机智,北京奇点机智信息技术有限公司,15-50人,海淀区,本科,A轮,移动互联网,116.314246,39.984626,全职,1-3年
70,4434859,语音识别算法研究员 (MJ000023),深圳,2018-04-17 15:09:03,42.0,117189,追一科技,深圳追一科技有限公司,150-500人,南山区,本科,B轮,"移动互联网,企业服务",113.946882,22.546157,全职,3-5年
71,4310085,语音识别算法工程师-声学模型,北京,2018-04-18 15:40:14,38.0,151386,物灵,北京物灵智能科技有限公司,150-500人,朝阳区,硕士,不需要融资,"硬件,移动互联网",116.489053,39.99902,全职,1-3年
72,3548562,人工智能实习生-语音识别方向,深圳,2018-03-30 10:22:51,7.6,19875,vivo,维沃移动通信有限公司,2000人以上,福田区,硕士,未融资,移动互联网,113.993578,22.99368,实习,应届毕业生
73,4444601,语音识别算法工程师,北京,2018-04-18 17:28:34,34.0,23373,VIPKID,北京大米未来科技有限公司,2000人以上,东城区,本科,D轮及以上,教育,116.420845,39.948655,全职,5-10年
74,4166889,语音识别算法工程师,北京,2018-04-16 16:21:55,21.0,48188,普强信息,普强信息技术（北京）有限公司,150-500人,海淀区,硕士,C轮,数据服务,116.245368,40.072979,全职,不限
75,3857678,语音识别算法研究员,北京,2018-04-17 09:51:54,48.0,136443,马上金融,马上消费金融股份有限公司,2000人以上,朝阳区,本科,不需要融资,"金融,移动互联网",116.47826581,39.91290348,全职,3-5年
76,4042434,语音识别算法专家,北京,2018-04-18 15:41:15,42.0,356,捷通华声,北京捷通华声科技股份有限公司,150-500人,海淀区,硕士,不需要融资,"移动互联网,数据服务",116.29632768,40.05177651,全职,5-10年
77,2914813,MIG03-语音识别工程师（深圳）,深圳,2018-04-11 15:23:20,22.8,451,腾讯,腾讯科技(深圳)有限公司,2000人以上,南山区,硕士,上市公司,"移动互联网 ,游戏",113.93362,22.540719,全职,3-5年
78,3911499,语音识别研发工程师,北京,2018-04-16 10:48:10,28.0,3328,好未来,北京世纪好未来教育科技有限公司,2000人以上,海淀区,硕士,上市公司,"移动互联网,教育",116.314526,39.982338,全职,1-3年
79,4111332,语音识别研发工程师,北京,2018-04-08 16:36:44,21.0,80815,北大软件,北京北大软件工程股份有限公司,500-2000人,海淀区,本科,未融资,"移动互联网,电子商务",116.302304,39.986014,全职,1-3年
80,3788631,语音识别算法工程师,北京,2018-04-17 11:16:21,38.0,279659,虎鲸科技,北京虎鲸跳跃科技有限公司,15-50人,海淀区,硕士,不需要融资,"移动互联网,数据服务",116.333994,39.984636,全职,1-3年
81,2709509,语音识别算法工程师,北京,2018-04-16 09:40:53,21.0,147426,极限元,极限元（北京）智能科技股份有限公司,15-50人,海淀区,硕士,天使轮,"硬件,企业服务",116.314812,40.035955,全职,1-3年
82,3948362,语音识别,深圳,2018-03-19 17:34:44,14.4,302186,艾韵智能,艾韵智能（深圳）有限公司,15-50人,南山区,不限,未融资,"移动互联网,硬件",113.984644,22.587347,全职,3-5年
83,4306362,语音识别算法研发工程师-实习,成都,2018-04-18 20:18:06,2.8,85491,成都小多科技有限公司,成都小多科技有限公司,15-50人,高新区,本科,A轮,"企业服务,数据服务",104.071587,30.543891,实习,应届毕业生
84,4195464,语音识别算法工程师,北京,2018-03-30 14:15:55,28.0,83580,地平线机器人,北京地平线信息技术有限公司,150-500人,海淀区,不限,A轮,"移动互联网,硬件",116.31561,39.983413,全职,不限
85,3894340,语音识别高级工程师,北京,2018-04-10 17:59:37,28.0,87759,Libratone小鸟音响,北京小鸟听听科技有限公司,150-500人,海淀区,硕士,不需要融资,"硬件,其他",116.351596,39.977243,全职,不限
86,4233459,语音识别算法工程师,北京,2018-04-08 10:38:06,24.8,40520,清帆科技,北京清帆科技有限公司,15-50人,海淀区,硕士,A轮,"移动互联网,教育",116.292868,40.047683,全职,1-3年
87,3934899,语音识别算法实习生,广州,2018-04-19 10:03:56,2.8,134745,探迹,广州探迹科技有限公司,50-150人,番禺区,本科,A轮,"移动互联网,数据服务",113.386397,23.0566,实习,不限
88,3671360,语音识别算法研究员,上海,2018-04-17 15:09:43,21.0,143428,云知声,北京云知声信息技术有限公司,150-500人,徐汇区,硕士,C轮,移动互联网,121.404636,31.172869,全职,应届毕业生
89,4299486,语音识别算法工程师,杭州,2018-04-18 09:39:59,21.0,120212,登虹,杭州登虹科技有限公司,150-500人,西湖区,本科,B轮,移动互联网,120.116609,30.290353,全职,3-5年
90,3611130,语音识别科学家,北京,2018-04-17 21:33:35,49.0,3328,好未来,北京世纪好未来教育科技有限公司,2000人以上,海淀区,博士,上市公司,"移动互联网,教育",116.314526,39.982338,全职,3-5年
91,4319421,语音识别算法工程师（南京）,南京,2018-04-18 16:28:31,21.0,24748,平安科技,平安科技（深圳）有限公司,2000人以上,雨花台区,本科,不需要融资,金融,118.751661,31.972437,全职,1年以下
92,3449757,语音识别算法高级工程师,北京,2018-04-17 21:14:31,35.0,171980,Rokid,芋头科技（杭州）有限公司,150-500人,海淀区,硕士,B轮,"电子商务,移动互联网",116.359972,40.039972,全职,不限
93,3149009,语音识别算法工程师,深圳,2018-04-16 11:48:35,35.0,160669,SpeakIn,深圳势必可赢科技有限公司,50-150人,南山区,硕士,A轮,移动互联网,113.940877,22.544432,全职,3-5年
94,4024135,语音识别算法实习生,北京,2018-04-17 11:16:05,4.4,279659,虎鲸科技,北京虎鲸跳跃科技有限公司,15-50人,海淀区,本科,不需要融资,"移动互联网,数据服务",116.333994,39.984636,实习,不限
95,4032843,(高级)语音识别工程师-人工智能方向,北京,2018-04-12 14:25:43,21.0,114110,乐视,乐视网信息技术（北京）股份有限公司,2000人以上,朝阳区,本科,上市公司,移动互联网,116.492605,39.934758,全职,3-5年
96,2731454,高级语音识别工程师,合肥,2018-03-19 09:53:01,21.0,112633,Zoom,软视软件（合肥）有限公司,150-500人,高新区,硕士,D轮及以上,"移动互联网,企业服务",117.207974,31.863208,全职,不限
97,4310184,语音识别方向算法工程师,北京,2018-04-16 17:35:00,28.0,125449,智齿科技,北京智齿博创科技有限公司,150-500人,海淀区,本科,C轮,"移动互联网,企业服务",116.30533,39.982357,全职,3-5年
98,3769074,语音识别算法工程师,北京,2018-04-18 09:59:41,42.0,520,小米,北京小米科技有限责任公司,2000人以上,海淀区,本科,D轮及以上,移动互联网,116.33649,40.0298,全职,3-5年
99,3442601,语音识别算法工程师,北京,2018-04-18 10:15:49,28.0,130183,先声教育,北京先声教育科技有限公司,15-50人,朝阳区,硕士,A轮,移动互联网,116.400612,39.968838,全职,1-3年
100,4034493,服务端开发工程师（语音识别）,北京,2018-04-18 11:34:17,38.8,50702,美团点评,北京三快在线科技有限公司,2000人以上,朝阳区,本科,D轮及以上,"移动互联网,O2O",116.48864,40.007096,全职,3-5年
101,3929848,高级语音识别算法工程师,北京,2018-04-16 19:29:02,28.0,136443,马上金融,马上消费金融股份有限公司,2000人以上,朝阳区,本科,不需要融资,"金融,移动互联网",116.488656,40.002842,全职,5-10年
102,4141330,语音识别算法高级工程师-ASR,北京,2018-04-17 18:00:30,42.0,67118,达闼科技,达闼科技（北京）有限公司,150-500人,朝阳区,硕士,B轮,移动互联网,116.479397,39.995298,全职,5-10年
103,3816061,语音识别高级算法工程师(J171113003),北京,2018-04-17 09:50:41,28.0,2474,滴滴出行,北京嘀嘀无限科技发展有限公司,2000人以上,海淀区,本科,不需要融资,移动互联网,40.04683,40.04683,全职,3-5年
104,2207655,语音识别算法工程师,上海,2018-04-08 11:44:09,28.0,142682,问之信息科技,上海问之信息科技有限公司,15-50人,长宁区,本科,天使轮,"移动互联网,电子商务",120.993998,30.99343,全职,1-3年
105,4005142,语音识别高级研发工程师,北京,2018-04-17 11:49:54,21.0,3328,好未来,北京世纪好未来教育科技有限公司,2000人以上,海淀区,本科,上市公司,"移动互联网,教育",116.313701,39.978427,全职,1-3年
106,4246376,语音识别建模工程师,北京,2018-04-04 09:32:13,33.0,520,小米,北京小米科技有限责任公司,2000人以上,海淀区,硕士,D轮及以上,移动互联网,116.323986,40.046999,全职,1-3年
107,4310320,语音算法工程师-语音识别引擎,北京,2018-04-18 15:45:02,38.0,151386,物灵,北京物灵智能科技有限公司,150-500人,朝阳区,硕士,不需要融资,"硬件,移动互联网",116.489053,39.99902,全职,3-5年
108,4306126,语音识别服务端开发工程师,北京,2018-04-17 17:21:31,35.0,50702,美团点评,北京三快在线科技有限公司,2000人以上,朝阳区,本科,D轮及以上,"移动互联网,O2O",116.48776,40.008007,全职,3-5年
109,2738397,高级语音识别算法工程师,北京,2018-04-12 10:14:27,35.0,129,陌陌,北京陌陌科技有限公司,500-2000人,朝阳区,硕士,上市公司,社交网络,115.99339,39.99426,全职,1-3年
110,3894240,WXG02-122 语音识别研究员,北京,2018-03-22 18:32:52,28.0,451,腾讯,腾讯科技(深圳)有限公司,2000人以上,海淀区,硕士,上市公司,"移动互联网 ,游戏",116.307524,39.984207,全职,3-5年
111,4366267,语音识别算法工程师,深圳,2018-04-03 13:57:22,21.0,140499,双猴科技,深圳双猴科技有限公司,15-50人,南山区,硕士,不需要融资,"移动互联网,硬件",113.949756,22.550734,全职,3-5年
112,4310360,ASR语音识别算法工程师,北京,2018-04-09 15:22:13,48.0,125449,智齿科技,北京智齿博创科技有限公司,150-500人,海淀区,硕士,C轮,"移动互联网,企业服务",116.30533,39.982357,全职,3-5年
113,3671315,.语音识别算法研究员 - 唤醒,北京,2018-04-17 15:09:42,21.0,143428,云知声,北京云知声信息技术有限公司,150-500人,朝阳区,硕士,C轮,移动互联网,116.445782,39.970339,全职,应届毕业生
114,3929854,语音识别算法科学家,北京,2018-04-16 19:29:08,28.0,136443,马上金融,马上消费金融股份有限公司,2000人以上,朝阳区,本科,不需要融资,"金融,移动互联网",116.488656,40.002842,全职,3-5年
115,4150843,语音识别高级工程师,北京,2018-04-18 15:16:10,23.8,1575,百度,百度在线网络技术（北京）有限公司,2000人以上,海淀区,本科,不需要融资,"移动互联网,数据服务",116.272658,40.042403,全职,1-3年
116,4296918,语音识别算法工程师（解码器）,北京,2018-03-26 09:49:52,21.0,323346,智元未来,北京智元未来科技有限公司,50-150人,海淀区,本科,未融资,"移动互联网,教育",116.349329,39.974575,全职,1-3年
117,3168616,语音识别算法专家,杭州,2018-04-09 18:16:35,52.0,208018,布客,河北布客文化传播有限公司,2000人以上,上城区,硕士,上市公司,"移动互联网,数据服务",120.169329,30.242312,全职,3-5年
118,4001420,手写识别专家,北京,2018-04-14 16:58:17,35.0,36162,作业盒子,北京作业盒子科技有限公司,500-2000人,朝阳区,本科,C轮,"移动互联网,教育",116.480284,39.996202,全职,3-5年
119,4137308,【招聘】语音识别算法工程师（解码器）,北京,2018-04-16 12:14:04,26.0,324557,鲸航科技,北京鲸航科技有限公司,50-150人,海淀区,本科,天使轮,"移动互联网,教育",116.355263,39.964734,全职,1-3年
120,4362663,AI Lab-语音识别科学家,北京,2018-04-17 21:33:34,59.0,3328,好未来,北京世纪好未来教育科技有限公司,2000人以上,海淀区,博士,上市公司,"移动互联网,教育",116.313701,39.978427,全职,5-10年
121,4034515,语音识别引擎研发工程师,北京,2018-04-18 11:34:17,38.8,50702,美团点评,北京三快在线科技有限公司,2000人以上,朝阳区,本科,D轮及以上,"移动互联网,O2O",116.48864,40.007096,全职,3-5年
122,3979312,手写识别专家,北京,2018-04-17 12:09:35,28.0,36162,作业盒子,北京作业盒子科技有限公司,500-2000人,朝阳区,本科,C轮,"移动互联网,教育",116.480284,39.996202,全职,3-5年
123,3942692,语音识别（智能催收）,杭州,2018-04-16 15:07:16,35.0,6502,同盾科技,同盾科技有限公司,500-2000人,余杭区,本科,C轮,"信息安全,数据服务",120.017992,30.280276,全职,3-5年
124,4219422,视觉与识别工程师,深圳,2018-04-18 13:15:50,14.0,284198,臻像科技,深圳臻像科技有限公司,15-50人,南山区,本科,不需要融资,其他,113.942663,22.533022,全职,1-3年
125,3327136,虹膜识别工程师,北京,2018-04-04 21:59:09,35.0,534,京东金融,京东金融,2000人以上,大兴区,本科,上市公司,金融,116.56784934,39.79105081,全职,3-5年
126,3479504,语言识别研究员,北京,2018-04-02 14:39:28,28.0,1650,联想集团,联想（北京）有限公司,2000人以上,海淀区,硕士,上市公司,"移动互联网,数据服务",116.29846,40.0534,全职,1-3年
127,4029992,图像算法/模式识别工程师,上海,2018-04-18 15:15:13,21.0,82781,图麟科技,图麟信息科技（上海）有限公司,50-150人,浦东新区,硕士,A轮,"移动互联网,硬件",121.99341,30.994275,全职,1-3年
128,3412187,MIG15-语音识别算法研究员,北京,2018-04-11 15:23:22,25.2,451,腾讯,腾讯科技(深圳)有限公司,2000人以上,海淀区,硕士,上市公司,"移动互联网 ,游戏",116.307524,39.984207,全职,5-10年
129,2762058,指纹识别算法工程师（FPR）,北京,2018-04-18 15:41:14,28.0,356,捷通华声,北京捷通华声科技股份有限公司,150-500人,海淀区,硕士,不需要融资,"移动互联网,数据服务",116.29632768,40.05177651,全职,1-3年
130,3779408,今日头条语音识别科学家,北京,2018-04-05 14:21:41,35.0,62,字节跳动,北京字节跳动科技有限公司,2000人以上,海淀区,本科,C轮,"移动互联网,数据服务",116.332602,39.971268,全职,3-5年
131,3042513,研发工程师（识别算法）,北京,2018-04-18 00:45:23,38.0,36031,一起科技,上海一起作业信息科技有限公司,500-2000人,朝阳区,本科,D轮及以上,"移动互联网,教育",116.486624,40.000825,全职,1-3年
132,4277526,声纹算法工程师/说话人识别算法工程师,北京,2018-04-17 21:14:31,28.0,171980,Rokid,芋头科技（杭州）有限公司,150-500人,海淀区,硕士,B轮,"电子商务,移动互联网",116.359972,40.039972,全职,不限
133,4124909,语音识别工程师（声学模型）,北京,2018-03-26 09:49:52,26.0,323346,智元未来,北京智元未来科技有限公司,50-150人,海淀区,本科,未融资,"移动互联网,教育",116.355263,39.964734,全职,1-3年
134,3141591,智能识别研究员（南京）,南京,2018-04-18 16:28:35,21.0,24748,平安科技,平安科技（深圳）有限公司,2000人以上,雨花台区,本科,不需要融资,金融,118.751661,31.972437,全职,不限
135,3989531,手写识别专家,北京,2018-04-17 12:09:36,35.0,36162,作业盒子,北京作业盒子科技有限公司,500-2000人,朝阳区,本科,C轮,"移动互联网,教育",116.433706,39.921442,全职,3-5年
136,4042986,模式识别算法工程师,北京,2018-04-18 15:41:14,28.0,356,捷通华声,北京捷通华声科技股份有限公司,150-500人,海淀区,硕士,不需要融资,"移动互联网,数据服务",116.29632768,40.05177651,全职,1-3年
137,3723504,TEG13-语音识别算法工程师（北京）,北京,2018-04-16 10:05:22,28.0,451,腾讯,腾讯科技(深圳)有限公司,2000人以上,海淀区,硕士,上市公司,"移动互联网 ,游戏",116.306337,39.981802,全职,3-5年
138,4413655,IoT事业部-语音识别算法专家(智能语音/视频云),杭州,2018-04-12 17:44:16,35.0,86294,阿里巴巴IoT事业部,阿里巴巴YunOS事业部,2000人以上,余杭区,本科,上市公司,移动互联网,120.023507,30.280228,全职,不限
139,2927513,智能识别专家（南京）,南京,2018-04-18 16:28:35,28.0,24748,平安科技,平安科技（深圳）有限公司,2000人以上,雨花台区,本科,不需要融资,金融,118.751661,31.972437,全职,10年以上
140,4435187,声音识别算法专家-P7/P8-集团安全部-北京/杭,北京,2018-04-19 00:41:15,40.0,153849,蚂蚁金服集团,支付宝(杭州)信息技术有限公司,2000人以上,朝阳区,硕士,B轮,"金融,移动互联网",0.0,0.0,全职,3-5年
141,4438443,视觉识别工程师,北京,2018-04-17 22:48:12,24.0,278109,飞限科技,飞限（北京）科技有限公司,15-50人,朝阳区,硕士,未融资,"企业服务,电子商务",116.490603,39.971562,全职,3-5年
142,3909644,图像识别工程师,厦门,2018-04-19 09:25:59,14.0,87170,准动网络科技,准动网络科技(厦门)有限公司,150-500人,思明区,大专,B轮,"移动互联网,企业服务",118.192317,24.475824,全职,不限
143,3926373,图像识别工程师,杭州,2018-04-18 14:48:12,28.0,82991,数美,北京数美时代科技有限公司,150-500人,余杭区,本科,B轮,"企业服务,数据服务",119.97175,30.334556,全职,1-3年
144,4335891,人工智能（智能识别）,杭州,2018-03-28 10:32:27,19.0,323972,杭州户侯,杭州户侯科技有限公司,少于15人,下城区,本科,未融资,"移动互联网,社交网络",120.180895,30.281714,全职,3-5年
145,3999423,人工智能字符识别算法专家,北京,2018-04-19 09:06:52,35.0,22127,爱咔咔,北京爱咔咔信息技术有限公司,15-50人,海淀区,硕士,A轮,"移动互联网,O2O",116.31212,40.03882,全职,3-5年
146,4005130,图像处理与识别研发工程师,北京,2018-04-17 11:49:54,21.0,3328,好未来,北京世纪好未来教育科技有限公司,2000人以上,海淀区,本科,上市公司,"移动互联网,教育",116.313701,39.978427,全职,1-3年
147,3958771,数据挖掘工程师——语音识别,北京,2018-04-12 21:25:51,28.0,136443,马上金融,马上消费金融股份有限公司,2000人以上,朝阳区,本科,不需要融资,"金融,移动互联网",116.488656,40.002842,全职,3-5年
148,4391280,人脸算法识别工程师,北京,2018-04-12 11:23:03,16.8,355890,诚志海图,北京诚志重科海图科技有限公司,50-150人,海淀区,硕士,未融资,"移动互联网,电子商务",116.254776,39.980289,全职,1-3年
149,3168387,图像识别工程师,杭州,2018-04-19 09:28:27,21.0,78799,中国亿教亿学网,浙江亿教亿学网络科技有限公司,50-150人,拱墅区,本科,A轮,教育,120.11178,30.33485,全职,不限
150,3723527,TEG13-说话人识别和语种识别算法工程师（北京）,北京,2018-04-16 10:05:22,28.0,451,腾讯,腾讯科技(深圳)有限公司,2000人以上,海淀区,硕士,上市公司,"移动互联网 ,游戏",116.306337,39.981802,全职,3-5年
151,3926305,图像识别工程师,杭州,2018-04-18 14:48:10,28.0,82991,数美,北京数美时代科技有限公司,150-500人,余杭区,本科,B轮,"企业服务,数据服务",119.97175,30.334556,全职,1-3年
152,4435738,集团安全部-声音识别算法专家P7P8,北京,2018-04-18 14:52:07,40.0,153849,蚂蚁金服集团,支付宝(杭州)信息技术有限公司,2000人以上,朝阳区,硕士,B轮,"金融,移动互联网",116.486846,40.000124,全职,3-5年
153,4137282,【招聘】语音识别算法工程师（声学模型）,北京,2018-04-16 12:14:06,26.0,324557,鲸航科技,北京鲸航科技有限公司,50-150人,海淀区,本科,天使轮,"移动互联网,教育",116.355263,39.964734,全职,1-3年
154,4140134,手势识别算法工程师（实习生）,杭州,2018-03-28 14:59:12,4.4,171980,Rokid,芋头科技（杭州）有限公司,150-500人,余杭区,本科,B轮,"电子商务,移动互联网",120.044596,30.254907,实习,应届毕业生
155,3179089,图像识别工程师,杭州,2018-04-19 09:28:27,21.0,78799,中国亿教亿学网,浙江亿教亿学网络科技有限公司,50-150人,拱墅区,本科,A轮,教育,120.11178,30.33485,全职,不限
156,3999474,声纹识别研发工程师,苏州,2018-04-18 11:35:17,21.0,94,思必驰科技,苏州思必驰信息科技有限公司,150-500人,工业园区,硕士,C轮,企业服务,120.723343,31.324036,全职,1-3年
157,4308854,车联网事业部_语音识别高级研发工程师,北京,2018-03-22 15:58:56,19.0,1575,百度,百度在线网络技术（北京）有限公司,2000人以上,海淀区,本科,不需要融资,"移动互联网,数据服务",116.273399,40.043429,全职,不限
158,4439857,语音-高级产品经理,北京,2018-04-18 10:49:54,35.0,149208,田米科技,北京田米科技有限公司,2000人以上,海淀区,本科,D轮及以上,移动互联网,0.0,0.0,全职,不限
159,4426452,产品经理（生物识别方向）,北京,2018-04-16 14:26:54,11.2,522,广电运通,广电运通金融电子股份有限公司,2000人以上,西城区,本科,上市公司,"移动互联网,金融",116.375019,39.896904,全职,3-5年
160,4350914,图像识别开发工程师,北京,2018-04-17 10:47:19,12.0,51512,东信北邮,杭州东信北邮信息技术有限公司,500-2000人,海淀区,本科,未融资,"移动互联网,其他",116.349979,39.976913,全职,1-3年
161,3682870,图像识别算法工程师,北京,2018-04-18 18:20:48,14.0,136978,玖富集团,玖富金科控股集团有限责任公司,2000人以上,朝阳区,硕士,C轮,金融,116.481135,39.996731,全职,1-3年
162,4077468,大数据语音识别标注,南京,2018-04-13 17:24:47,4.2,255129,雷森信息科技,南京雷森信息科技有限公司,少于15人,栖霞区,本科,未融资,数据服务,118.96285,32.125163,兼职,不限
163,4421036,语音/音频处理研发主管,上海,2018-04-18 18:38:02,40.0,3112,沪江,沪江教育科技（上海）股份有限公司,500-2000人,浦东新区,本科,D轮及以上,"移动互联网,教育",121.603788,31.202542,全职,5-10年
164,3335208,图像识别工程师,北京,2018-04-18 17:44:09,26.0,52553,海闻科技,海闻科技有限公司,500-2000人,海淀区,本科,D轮及以上,"企业服务,金融",116.30916,39.93458,全职,3-5年
165,3926386,图像识别工程师,杭州,2018-04-18 14:48:12,28.0,82991,数美,北京数美时代科技有限公司,150-500人,余杭区,本科,B轮,"企业服务,数据服务",119.97175,30.334556,全职,1-3年
166,3179109,图像识别工程师,杭州,2018-04-19 09:28:27,21.0,78799,中国亿教亿学网,浙江亿教亿学网络科技有限公司,50-150人,拱墅区,本科,A轮,教育,120.11178,30.33485,全职,不限
167,4350887,图像识别开发工程师,南京,2018-04-17 10:47:20,12.0,51512,东信北邮,杭州东信北邮信息技术有限公司,500-2000人,建邺区,本科,未融资,"移动互联网,其他",118.734131,31.979141,全职,1-3年
168,3937363,声纹识别岗,北京,2018-04-04 21:59:10,49.0,534,京东金融,京东金融,2000人以上,大兴区,本科,上市公司,金融,116.56784934,39.79105081,全职,3-5年
169,3864032,模式识别算法工程师,成都,2018-03-29 10:24:02,19.0,101861,宜高美,宜高美信息服务（成都）有限公司,150-500人,高新区,硕士,不需要融资,"数据服务,其他",104.065191,30.550497,全职,不限
170,4421037,语音/音频处理研发主管,北京,2018-04-18 18:38:02,40.0,3112,沪江,沪江教育科技（上海）股份有限公司,500-2000人,海淀区,本科,D轮及以上,"移动互联网,教育",116.333669,39.994252,全职,5-10年
171,4038482,音频或图像处理识别算法工程师,北京,2018-04-19 09:17:06,28.0,1730,一下科技,炫一下（北京）科技有限公司,500-2000人,朝阳区,本科,D轮及以上,"移动互联网,文化娱乐",116.48919426,39.999364,全职,1-3年
172,3664310,图像识别-产品经理-北京-02782,北京,2018-04-16 09:45:57,29.0,1537,搜狗,北京搜狗科技发展有限公司,2000人以上,海淀区,本科,C轮,"移动互联网,数据服务",116.33254,39.99366006,全职,5-10年
173,4403609,视觉识别/人工智能科学家/工程师,中山,2018-04-11 14:43:45,28.0,157481,广申汽车,哈尔滨市广申汽车销售服务有限责任公司,150-500人,中山市市辖区,硕士,未融资,其他,113.38493,22.532046,全职,1-3年
174,4124309,算法工程师（图形图像处理/识别）,北京,2018-04-17 10:10:21,9.0,173610,度量科技,北京度量科技有限公司,15-50人,朝阳区,硕士,未融资,硬件,116.408871,39.980098,全职,不限
175,1081630,语音系统管理员,上海,2018-04-18 09:36:03,31.0,6796,招商银行信用卡中心,招商银行股份有限公司信用卡中心,2000人以上,浦东新区,本科,上市公司,"移动互联网,金融",121.673868,31.247248,全职,3-5年
176,3009492,语音研究员,北京,2018-04-18 14:12:29,38.0,50604,roobo,北京智能管家科技有限公司,150-500人,东城区,本科,B轮,移动互联网,116.433221,39.920718,全职,3-5年
177,3461384,图像识别算法工程师,武汉,2018-04-18 17:36:26,19.0,227215,江河瑞通,江河瑞通(北京）软件有限公司,150-500人,东湖新技术开发区,硕士,不需要融资,"数据服务,硬件",0.0,0.0,全职,1-3年
178,4062327,产品经理（图像识别方向）,北京,2018-04-18 11:02:29,26.0,181493,开拓天际,北京开拓天际科技有限公司,50-150人,海淀区,本科,A轮,"数据服务,信息安全",116.353207,39.977309,全职,3-5年
179,4392273,图像识别,北京,2018-04-17 20:04:35,31.4,332658,鲸英（深圳）科技有限公司,鲸英（深圳）科技有限公司,15-50人,海淀区,本科,不需要融资,"移动互联网,企业服务",116.33396,39.986955,全职,不限
180,4350851,图像识别开发工程师,成都,2018-04-17 10:47:19,12.0,51512,东信北邮,杭州东信北邮信息技术有限公司,500-2000人,武侯区,本科,未融资,"移动互联网,其他",104.067931,30.615761,全职,1-3年
181,3940811,智能驾驶‑唇语识别方向-北京-02909,北京,2018-04-16 09:46:01,21.0,1537,搜狗,北京搜狗科技发展有限公司,2000人以上,海淀区,本科,C轮,"移动互联网,数据服务",116.33254,39.99366006,全职,3-5年
182,4367425,图形识别算法工程师,成都,2018-04-08 16:10:55,17.0,63990,小智审图,成都小智审图科技有限公司,少于15人,高新区,大专,天使轮,移动互联网,104.068095,30.537385,全职,3-5年
183,4081078,声纹识别算法专家,北京,2018-04-18 09:10:51,42.0,356,捷通华声,北京捷通华声科技股份有限公司,150-500人,海淀区,硕士,不需要融资,"移动互联网,数据服务",116.296196,40.051616,全职,3-5年
184,2750789,图像识别工程师,深圳,2018-03-30 10:22:50,28.0,19875,vivo,维沃移动通信有限公司,2000人以上,福田区,本科,未融资,移动互联网,113.993578,22.99368,全职,3-5年
185,3171340,声纹识别工程师-滴滴研究院(J170525450),北京,2018-04-17 09:50:40,19.0,2474,滴滴出行,北京嘀嘀无限科技发展有限公司,2000人以上,海淀区,不限,不需要融资,移动互联网,116.28896,40.04373007,全职,不限
186,4116518,资深语音/音频处理研发工程师 (MJ000660),北京,2018-04-18 10:57:55,35.0,3112,沪江,沪江教育科技（上海）股份有限公司,500-2000人,海淀区,本科,D轮及以上,"移动互联网,教育",116.333669,39.994252,全职,1-3年
187,3274474,研发工程师（语音处理方向）,北京,2018-04-18 10:49:40,22.8,16869,朗播网,北京博智天下信息技术有限公司,150-500人,海淀区,本科,B轮,教育,116.31287,40.03445,全职,3-5年
188,3671355,声纹识别算法研究员,上海,2018-04-17 15:09:43,21.0,143428,云知声,北京云知声信息技术有限公司,150-500人,徐汇区,硕士,C轮,移动互联网,121.404636,31.172869,全职,应届毕业生
189,4094889,自然语音处理工程师,厦门,2018-04-19 09:05:43,17.0,46961,厦门巨龙,厦门市巨龙信息科技有限公司,150-500人,湖里区,本科,不需要融资,"信息安全,数据服务",118.12255,24.52012,全职,3-5年
190,3250849,图像识别工程师,重庆,2018-04-16 16:13:39,12.0,171578,连偶,重庆连偶科技有限公司,15-50人,渝北区,大专,A轮,"移动互联网,游戏",106.499701,29.601623,全职,3-5年
191,3767303,计算机视觉算法工程师（手势识别）,杭州,2018-03-28 14:59:42,21.0,171980,Rokid,芋头科技（杭州）有限公司,150-500人,余杭区,本科,B轮,"电子商务,移动互联网",120.044596,30.254907,全职,1-3年
192,2715294,图像识别算法工程师,北京,2018-04-18 15:46:40,28.0,151386,物灵,北京物灵智能科技有限公司,150-500人,朝阳区,硕士,不需要融资,"硬件,移动互联网",116.489053,39.99902,全职,3-5年
193,3934688,图像识别算法实习生,广州,2018-04-19 10:03:56,2.8,134745,探迹,广州探迹科技有限公司,50-150人,番禺区,本科,A轮,"移动互联网,数据服务",113.386397,23.0566,实习,不限
194,4428695,视觉识别算法工程师-上海,上海,2018-04-16 17:00:06,12.0,358008,上汽通用汽车有限公司,上汽通用汽车有限公司,2000人以上,浦东新区,本科,不需要融资,"分类信息,其他",121.634832,31.279751,全职,3-5年
195,4081071,声纹识别算法工程师（VPR）,北京,2018-04-18 09:10:51,28.0,356,捷通华声,北京捷通华声科技股份有限公司,150-500人,海淀区,硕士,不需要融资,"移动互联网,数据服务",116.296196,40.051616,全职,不限
196,4115742,资深语音/音频处理研发工程师 (MJ000660),上海,2018-04-18 10:57:55,35.0,3112,沪江,沪江教育科技（上海）股份有限公司,500-2000人,浦东新区,本科,D轮及以上,"移动互联网,教育",121.603788,31.202542,全职,1-3年
197,3053443,图像识别算法工程师,广州,2018-04-18 09:52:34,21.0,112801,麦仑科技,广州麦仑信息科技有限公司,15-50人,天河区,本科,天使轮,"移动互联网,电子商务",113.321731,23.120154,全职,不限
198,4440671,语音开发工程师,成都,2018-04-18 11:42:50,14.0,89111,千行集团,四川千行你我科技有限公司,150-500人,高新区,本科,D轮及以上,"移动互联网,电子商务",104.071932,30.492081,全职,3-5年
199,4404003,图像识别算法工程师,广州,2018-04-18 13:34:32,28.0,274523,逗号智能零售,广州逗号智能零售有限公司,50-150人,天河区,本科,不需要融资,"移动互联网,生活服务",113.321959,23.118733,全职,不限
200,4315341,图像识别算法工程师,济南,2018-04-17 16:52:26,21.0,350480,香多多,夏津县香多多食品有限公司,50-150人,高新区,本科,未融资,"电子商务,生活服务",117.121827,36.682887,全职,3-5年
201,3790625,语音/文本数据标注,成都,2018-03-28 16:47:31,4.8,136443,马上金融,马上消费金融股份有限公司,2000人以上,武侯区,本科,不需要融资,"金融,移动互联网",104.067656,30.551731,全职,1-3年
202,4287619,高级图像识别算法工程师,深圳,2018-04-19 08:59:33,26.0,6927,OPPO,广东欧珀移动通信有限公司,2000人以上,南山区,本科,不需要融资,移动互联网,113.943044,22.518792,全职,3-5年
203,4175708,语音信号处理/音频算法软件工程师,上海,2018-04-18 17:57:54,16.2,40015,Nuance,纽昂司软件技术（北京）有限公司,2000人以上,浦东新区,硕士,上市公司,"移动互联网,数据服务",121.528295,31.226684,全职,应届毕业生
204,3849676,搜狗语音-Android高级开发工程师,北京,2018-03-26 14:45:02,28.0,1537,搜狗,北京搜狗科技发展有限公司,2000人以上,海淀区,本科,C轮,"移动互联网,数据服务",116.33254,39.99366006,全职,1-3年
205,4335294,图像识别研发工程师,厦门,2018-04-03 08:43:04,12.6,23733,吉联新,上海吉联新软件股份有限公司,150-500人,湖里区,本科,上市公司,移动互联网,118.18113,24.49055,全职,1-3年
206,4164813,ZBBU-图像识别算法工程师,广州,2018-04-09 20:11:57,28.0,336,酷狗音乐,广州酷狗计算机科技有限公司,500-2000人,天河区,本科,不需要融资,"移动互联网,文化娱乐",113.386281,23.119266,全职,1-3年
207,4109374,图像算法工程师（人脸及文字识别方向）,广州,2018-04-17 10:18:21,14.0,4184,思特奇Si-tech,北京思特奇信息技术股份有限公司,2000人以上,天河区,本科,上市公司,数据服务,113.34157,23.124639,全职,1-3年
208,4185288,算法研发工程师（图像识别方向）,广州,2018-04-18 09:37:09,14.4,28393,爱云校,北京修齐治平科技有限公司,500-2000人,天河区,本科,C轮,"教育,数据服务",113.36104,23.13999,全职,1-3年
209,3794516,资深商务拓展经理-语音类产品,杭州,2018-04-18 09:25:14,21.0,329,网易,网易（杭州）有限公司,2000人以上,滨江区,本科,上市公司,"电子商务,移动互联网",120.193872,30.189927,全职,5-10年
210,4043983,智能图像识别技术总监,北京,2018-04-18 09:10:50,42.0,356,捷通华声,北京捷通华声科技股份有限公司,150-500人,海淀区,硕士,不需要融资,"移动互联网,数据服务",116.296196,40.051616,全职,5-10年
211,3852445,搜狗语音-高级产品经理,北京,2018-03-26 14:44:57,31.0,1537,搜狗,北京搜狗科技发展有限公司,2000人以上,海淀区,本科,C轮,"移动互联网,数据服务",116.33254,39.99366006,全职,3-5年
212,4150771,图像识别算法工程师,深圳,2018-04-16 11:40:54,26.0,6927,OPPO,广东欧珀移动通信有限公司,2000人以上,南山区,不限,不需要融资,移动互联网,113.943044,22.518792,全职,不限
213,2849519,产品经理（图像识别）,上海,2018-04-18 10:19:29,21.0,98800,竹间智能科技(上海)有限公司,竹间智能科技（上海）有限公司,150-500人,徐汇区,本科,B轮,"移动互联网,其他",121.41698505,31.17523207,全职,3-5年
214,4413608,VOS工程师／软交换工程师／语音工程师,上海,2018-04-17 15:18:27,5.6,300644,华侨通信,上海华侨通信网络有限公司,15-50人,黄浦区,不限,未融资,其他,0.0,0.0,全职,1-3年
215,4038496,语音信号处理工程师,北京,2018-04-18 11:34:16,43.2,50702,美团点评,北京三快在线科技有限公司,2000人以上,朝阳区,硕士,D轮及以上,"移动互联网,O2O",116.48864,40.007096,全职,3-5年
216,4101275,语音技术研发、语言技术研发、数字信号处理研发,成都,2018-04-18 13:44:00,14.0,75002,融智服务,成都融智汽车服务有限公司,500-2000人,武侯区,博士,上市公司,"电子商务,企业服务",104.038689,30.622963,全职,1-3年
217,2985897,机器学习工程师（图像识别方向）,上海,2018-04-18 10:15:51,21.0,83866,华院数据,华院数据技术（上海）有限公司,500-2000人,杨浦区,硕士,C轮,"企业服务,数据服务",39.897445,116.331398,全职,1-3年
218,3887086,语音算法研究,北京,2018-04-18 15:35:51,27.0,57353,中移在线服务有限公司,中移在线服务有限公司,2000人以上,西城区,硕士,不需要融资,移动互联网,116.362365,39.913711,全职,3-5年
219,4310237,语音算法工程师-唤醒,北京,2018-04-18 15:46:14,38.0,151386,物灵,北京物灵智能科技有限公司,150-500人,朝阳区,硕士,不需要融资,"硬件,移动互联网",116.489053,39.99902,全职,1-3年
220,4185311,高级算法研发工程师（图像识别方向）,广州,2018-04-18 09:37:09,20.8,28393,爱云校,北京修齐治平科技有限公司,500-2000人,天河区,本科,C轮,"教育,数据服务",113.36104,23.13999,全职,1-3年
221,4269812,图像识别算法工程师,厦门,2018-03-23 15:53:47,14.0,70756,一品威客网,厦门一品威客网络科技有限公司,150-500人,思明区,本科,D轮及以上,电子商务,118.182819,24.488794,全职,3-5年
222,815728,模式识别 算法工程师,杭州,2018-03-28 15:02:08,10.0,78626,回车科技,杭州回车电子科技有限公司,15-50人,西湖区,硕士,A轮,"移动互联网,硬件",,,全职,1-3年
223,4404748,语音应用开发工程师,北京,2018-04-18 10:39:16,21.0,436,360,奇虎360科技有限公司,2000人以上,朝阳区,本科,上市公司,"移动互联网,游戏",116.491128,39.983132,全职,3-5年
224,4250420,语音应用开发工程师,北京,2018-04-17 14:18:44,17.0,247880,奇点汽车,智车优行科技（北京）有限公司,150-500人,朝阳区,本科,C轮,"移动互联网,硬件",116.460783,39.928448,全职,3-5年
225,2885943,智能语音-声纹语种研究员,北京,2018-04-16 09:45:59,26.0,1537,搜狗,北京搜狗科技发展有限公司,2000人以上,海淀区,硕士,C轮,"移动互联网,数据服务",116.33254,39.99366006,全职,1-3年
226,4030756,语音算法研究,广州,2018-04-18 15:35:51,29.0,57353,中移在线服务有限公司,中移在线服务有限公司,2000人以上,海珠区,硕士,不需要融资,移动互联网,113.314719,23.101235,全职,3-5年
227,3139783,图像处理/模式识别算法工程师,北京,2018-03-26 10:43:27,15.8,3334,七鑫易维,北京七鑫易维信息技术有限公司,50-150人,朝阳区,硕士,B轮,"移动互联网,硬件",0.0,0.0,全职,1-3年
228,4101065,人工智能生物识别方向研究员,北京,2018-04-16 19:56:38,34.0,61750,一块互动,一块互动（北京）科技有限公司,15-50人,海淀区,本科,A轮,移动互联网,116.355786,40.046569,全职,1-3年
229,4424203,算法工程师（视频识别图像领域）,北京,2018-04-17 15:20:46,28.0,273658,周同科技,北京周同科技有限公司,50-150人,朝阳区,硕士,A轮,"移动互联网,数据服务",116.517303,40.039379,全职,不限
230,4434541,语音标注,北京,2018-04-18 19:03:14,7.0,111139,NIO蔚来,上海蔚来汽车有限公司,2000人以上,朝阳区,大专,D轮及以上,"移动互联网,硬件",116.465947,40.021473,全职,1-3年
231,4148785,虹膜识别 产品经理,北京,2018-03-19 09:03:50,21.0,325643,天泰集团,北京天泰博远科技发展有限公司,50-150人,西城区,本科,A轮,"数据服务,硬件",116.355773,39.890834,全职,3-5年
232,3030115,图像识别算法工程师,长沙,2018-04-04 14:19:36,10.8,173205,万为智能,湖南万为智能机器人技术有限公司,15-50人,岳麓区,本科,A轮,移动互联网,112.881941,28.208529,全职,1-3年
233,4289731,WXG08-113 微信模式识别软件开发工程师,北京,2018-03-22 18:32:53,28.0,451,腾讯,腾讯科技(深圳)有限公司,2000人以上,海淀区,本科,上市公司,"移动互联网 ,游戏",0.0,0.0,全职,3-5年
234,4430411,图像识别,北京,2018-04-16 21:26:50,31.4,332658,鲸英（深圳）科技有限公司,鲸英（深圳）科技有限公司,15-50人,海淀区,本科,不需要融资,"移动互联网,企业服务",116.33396,39.986955,全职,1-3年
235,4140391,TTS语音合成,北京,2018-04-12 14:25:57,31.0,172285,猎户星空,北京猎户星空科技有限公司,150-500人,朝阳区,本科,A轮,"移动互联网,硬件",116.458741,39.932851,全职,不限
236,4307966,AI测试-语音语义方向,深圳,2018-04-19 09:26:15,38.0,19875,vivo,维沃移动通信有限公司,2000人以上,福田区,本科,未融资,移动互联网,114.060635,22.567334,全职,5-10年
237,4166908,语音算法工程师,北京,2018-04-16 16:21:55,21.0,48188,普强信息,普强信息技术（北京）有限公司,150-500人,海淀区,硕士,C轮,数据服务,116.245368,40.072979,全职,不限
238,4096874,AI Lab语音系统工程师,北京,2018-04-12 14:23:44,28.0,62,字节跳动,北京字节跳动科技有限公司,2000人以上,海淀区,本科,C轮,"移动互联网,数据服务",116.332602,39.971268,全职,3-5年
239,4111893,语音算法工程师,广州,2018-04-11 14:05:35,28.0,237567,锦峰,广东锦峰集团有限公司广州分公司,500-2000人,天河区,本科,不需要融资,移动互联网,113.321766,23.11644,全职,3-5年
240,3083449,智能语音-服务端测试开发工程师,北京,2018-04-16 09:46:02,21.0,1537,搜狗,北京搜狗科技发展有限公司,2000人以上,海淀区,本科,C轮,"移动互联网,数据服务",116.33254,39.99366006,全职,3-5年
241,3887034,语音算法研究,郑州,2018-04-18 15:35:51,22.0,57353,中移在线服务有限公司,中移在线服务有限公司,2000人以上,高新区,硕士,不需要融资,移动互联网,39.897445,116.331398,全职,3-5年
242,4111893,语音算法工程师,广州,2018-04-11 14:05:35,28.0,237567,锦峰,广东锦峰集团有限公司广州分公司,500-2000人,天河区,本科,不需要融资,移动互联网,113.321766,23.11644,全职,3-5年
243,4190777,语音助手负责人-外卖配送,北京,2018-04-17 10:11:14,42.0,50702,美团点评,北京三快在线科技有限公司,2000人以上,朝阳区,本科,D轮及以上,"移动互联网,O2O",116.48776,40.008007,全职,5-10年
244,1299020,图像识别工程师,厦门,2018-04-16 11:28:42,10.8,88550,厦门云脉技术有限公司,厦门云脉技术有限公司,50-150人,集美区,本科,未融资,"移动互联网,其他",118.095769,24.592423,全职,不限
245,4116627,图像识别工程师,深圳,2018-04-18 09:46:27,28.0,6566,金蝶,金蝶软件（中国）有限公司,2000人以上,南山区,硕士,上市公司,"移动互联网,电子商务",113.95478984,22.53412317,全职,3-5年
246,4184735,语音信号处理开发工程师,南京,2018-03-30 14:15:54,19.0,83580,地平线机器人,北京地平线信息技术有限公司,150-500人,栖霞区,不限,A轮,"移动互联网,硬件",118.87782668,32.1369331,全职,不限
247,3111563,图像识别/深度学习工程师,深圳,2018-04-18 15:26:15,28.0,119456,云之梦科技,深圳市云之梦科技有限公司,50-150人,南山区,本科,A轮,"移动互联网,O2O",113.993578,22.99368,全职,3-5年
248,3555264,图像识别算法工程师,北京,2018-04-17 16:06:17,19.0,188419,融讯伟业（北京）科技有限公司,融讯伟业（北京）科技有限公司,50-150人,丰台区,本科,未融资,移动互联网,116.368149,39.85513,全职,3-5年
249,4394442,语音管理师,杭州,2018-04-16 11:20:48,6.2,52434,摸象大数据,杭州摸象大数据科技有限公司,50-150人,西湖区,本科,B轮,数据服务,120.11714,30.28981,全职,不限
250,4329208,图像识别/图像处理实习生,深圳,2018-04-18 10:39:09,5.6,251713,玛塔创想,深圳市玛塔创想科技有限公司,15-50人,南山区,本科,天使轮,"硬件,教育",113.96254,22.586026,实习,1年以下
251,4032430,商务经理（语音）,深圳,2018-04-17 12:19:25,14.0,29591,云之讯,深圳市云之讯网络技术有限公司,150-500人,南山区,大专,B轮,移动互联网,113.993578,22.99368,全职,不限
252,3860622,机器视觉/图像识别工程师,重庆,2018-04-19 08:40:50,12.0,124717,中冶赛迪研发中心,中冶赛迪技术研究中心有限公司,150-500人,渝北区,硕士,不需要融资,其他,106.576318,29.636325,全职,应届毕业生
253,3806495,图像识别工程师,北京,2018-04-13 10:45:08,28.0,281237,宽凳科技,贵州宽凳智云科技有限公司北京分公司,50-150人,朝阳区,本科,A轮,数据服务、企业服务,0.0,0.0,全职,1-3年
254,2884373,语音合成研究员,北京,2018-04-18 13:35:33,21.0,23004,图灵机器人,北京光年无限科技有限公司,150-500人,海淀区,硕士,B轮,移动互联网,116.312234,40.027697,全职,1-3年
255,2768118,智能语音-自然语言处理研究员,北京,2018-04-16 09:45:56,28.0,1537,搜狗,北京搜狗科技发展有限公司,2000人以上,海淀区,硕士,C轮,"移动互联网,数据服务",116.331221,39.993366,全职,1-3年
256,4184627,语音信号处理开发工程师,南京,2018-03-30 14:15:58,19.0,83580,地平线机器人,北京地平线信息技术有限公司,150-500人,栖霞区,本科,A轮,"移动互联网,硬件",118.87782668,32.1369331,全职,3-5年
257,3010886,语音合成工程师,北京,2018-04-18 13:35:33,28.0,23004,图灵机器人,北京光年无限科技有限公司,150-500人,海淀区,硕士,B轮,移动互联网,116.312234,40.027697,全职,应届毕业生
258,3683051,语音合成工程师,苏州,2018-04-17 09:03:10,21.0,8288,网龙网络有限公司,福建网龙计算机网络信息技术有限公司,2000人以上,工业园区,硕士,上市公司,"移动互联网,教育",120.732665,31.264799,全职,1-3年
259,3610186,图像识别实习生,广州,2018-04-16 15:55:22,2.4,142381,派客朴食,广州市派客朴食信息科技有限责任公司,15-50人,海珠区,不限,不需要融资,"移动互联网,电子商务",0.0,0.0,实习,应届毕业生
260,4256584,图像识别研究员,北京,2018-04-04 09:09:52,38.0,94545,行动成功教育科技股份有限公司,上海行动成功教育科技股份有限公司,150-500人,朝阳区,硕士,上市公司,"移动互联网,教育",116.443108,39.92147,全职,1-3年
261,2858767,语音合成工程师,北京,2018-04-19 10:14:12,28.0,73653,奇点机智,北京奇点机智信息技术有限公司,15-50人,海淀区,本科,A轮,移动互联网,116.314246,39.984626,全职,不限
262,4396509,图像识别算法工程师,武汉,2018-04-18 16:57:47,8.4,2238,九州通医药集团股份有限公司,九州通医药集团股份有限公司,2000人以上,汉阳区,本科,上市公司,电子商务,114.201851,30.545591,全职,1-3年
263,3070100,【东芝热聘】语音技术资深研究员,北京,2018-04-17 17:09:25,26.0,113715,东芝(中国)有限公司,东芝(中国)有限公司,150-500人,朝阳区,硕士,上市公司,"移动互联网,企业服务",115.99339,39.99426,全职,3-5年
264,2480356,语音算法工程师,深圳,2018-03-30 10:22:46,27.0,19875,vivo,维沃移动通信有限公司,2000人以上,福田区,本科,未融资,移动互联网,113.993578,22.99368,全职,3-5年
265,3864003,模式识别算法（主管）Lead Engineer,成都,2018-03-29 10:24:01,26.0,101861,宜高美,宜高美信息服务（成都）有限公司,150-500人,高新区,博士,不需要融资,"数据服务,其他",104.065191,30.550497,全职,不限
266,4193847,语音信号处理工程师,北京,2018-03-21 14:37:20,28.0,7279,Kika Tech(新美互通),北京新美互通科技有限公司,150-500人,东城区,硕士,B轮,移动互联网,116.42371001,39.95423006,全职,1-3年
267,3969958,语音处理架构师,北京,2018-04-17 21:33:34,48.0,3328,好未来,北京世纪好未来教育科技有限公司,2000人以上,海淀区,本科,上市公司,"移动互联网,教育",116.314526,39.982338,全职,5-10年
268,3133951,OCR图像识别资深工程师,北京,2018-04-18 16:47:24,26.0,534,京东金融,京东金融,2000人以上,大兴区,本科,上市公司,金融,116.52117756,39.82198934,全职,5-10年
269,3956824,资深/高级语音算法工程师,杭州,2018-04-18 09:25:14,26.0,329,网易,网易（杭州）有限公司,2000人以上,滨江区,硕士,上市公司,"电子商务,移动互联网",120.193872,30.189927,全职,3-5年
270,4395933,搜狗智能语音 - 服务端测试开发工程师,北京,2018-04-10 15:17:26,24.0,1537,搜狗,北京搜狗科技发展有限公司,2000人以上,海淀区,本科,C轮,"移动互联网,数据服务",116.33254,39.99366,全职,3-5年
271,3705366,机器识别工程师,北京,2018-04-10 11:23:33,19.0,273621,医拍智能,北京医拍智能科技有限公司,50-150人,朝阳区,硕士,A轮,"移动互联网,医疗健康",116.412297,40.003021,全职,1-3年
272,4352302,语音算法工程师/leader,北京,2018-03-30 14:50:12,21.0,18139,京东集团,北京京东世纪贸易有限公司,2000人以上,大兴区,硕士,上市公司,"电子商务,数据服务",116.505858,39.793114,全职,5-10年
273,3159194,机器学习/模式识别算法研发工程师,北京,2018-03-29 21:46:51,19.0,3454,北京三星通信研究院,北京三星通信技术研究有限公司,500-2000人,朝阳区,硕士,D轮及以上,其他,116.444661,39.972375,全职,不限
274,4378972,图像识别技术经理,北京,2018-04-19 10:24:34,24.0,29643,数据堂,数据堂（北京）科技股份有限公司,150-500人,海淀区,硕士,B轮,"数据服务,分类信息",116.317406,39.983848,全职,1-3年
275,3882859,高级手游客服-非语音,成都,2018-04-08 17:34:15,6.8,134300,成都卓杭,成都卓杭网络科技股份有限公司,50-150人,高新区,本科,上市公司,"移动互联网,游戏",104.061093,30.584604,全职,1-3年
276,4283454,语音开发工程师,北京,2018-03-19 11:58:35,4.4,312751,奥国,石家庄奥国信息咨询有限公司,少于15人,海淀区,不限,天使轮,教育 移动互联网,116.330823,39.99309,全职,不限
277,2853573,自然语言处理、语音助手资深算法工程师/专家,北京,2018-04-18 10:19:20,35.0,50702,美团点评,北京三快在线科技有限公司,2000人以上,朝阳区,本科,D轮及以上,"移动互联网,O2O",116.487622,40.006096,全职,3-5年
278,4153432,图像识别算法工程师,武汉,2018-04-18 15:56:11,11.4,53438,白虹软件,武汉白虹软件科技有限公司,150-500人,洪山区,硕士,上市公司,"移动互联网,信息安全",0.0,0.0,全职,1-3年
279,4086434,图像识别工程师,郑州,2018-03-29 13:02:07,12.6,230487,星关系,河南鼎越电子商务有限公司,15-50人,高新区,硕士,未融资,"移动互联网,文化娱乐",113.574056,34.806804,全职,不限
280,4374603,图像识别算法工程师,杭州,2018-04-16 16:04:32,19.0,117482,叙简科技,杭州叙简科技有限公司,150-500人,余杭区,本科,C轮,"信息安全,其他",120.04146,30.28582,全职,1-3年
281,4363102,语音小房间产品经理 (MJ000730),广州,2018-04-02 19:56:42,19.0,49579,欢聚时代（YY Inc）,广州华多网络科技有限公司,2000人以上,番禺区,本科,上市公司,移动互联网,113.348011,23.007841,全职,3-5年
282,4277928,语音算法专家,南京,2018-03-30 10:22:46,42.0,19875,vivo,维沃移动通信有限公司,2000人以上,雨花台区,本科,未融资,移动互联网,118.742866,31.988081,全职,5-10年
283,3050729,反spam工程师（语音算法方向）,北京,2018-04-12 10:14:26,35.0,129,陌陌,北京陌陌科技有限公司,500-2000人,朝阳区,本科,上市公司,社交网络,115.99339,39.99426,全职,3-5年
284,3682325,研究员（图像识别）,武汉,2018-04-16 09:25:14,14.0,21980,科大讯飞,科大讯飞股份有限公司,2000人以上,东湖新技术开发区,本科,上市公司,"移动互联网,数据服务",114.406831,30.474542,全职,3-5年
285,4277928,语音算法专家,南京,2018-03-30 10:22:46,42.0,19875,vivo,维沃移动通信有限公司,2000人以上,雨花台区,本科,未融资,移动互联网,118.742866,31.988081,全职,5-10年
286,4373444,AI语音助手产品经理,北京,2018-04-12 14:25:56,28.0,172285,猎户星空,北京猎户星空科技有限公司,150-500人,朝阳区,本科,A轮,"移动互联网,硬件",116.458741,39.932851,全职,3-5年
287,3050729,反spam工程师（语音算法方向）,北京,2018-04-12 10:14:26,35.0,129,陌陌,北京陌陌科技有限公司,500-2000人,朝阳区,本科,上市公司,社交网络,115.99339,39.99426,全职,3-5年
288,3682325,研究员（图像识别）,武汉,2018-04-16 09:25:14,14.0,21980,科大讯飞,科大讯飞股份有限公司,2000人以上,东湖新技术开发区,本科,上市公司,"移动互联网,数据服务",114.406831,30.474542,全职,3-5年
289,4034506,语音标注员,北京,2018-04-18 11:34:17,7.0,50702,美团点评,北京三快在线科技有限公司,2000人以上,朝阳区,大专,D轮及以上,"移动互联网,O2O",116.48864,40.007096,全职,1-3年
290,3557956,语音算法优化/DSP工程师,杭州,2018-04-17 21:14:31,16.8,171980,Rokid,芋头科技（杭州）有限公司,150-500人,余杭区,本科,B轮,"电子商务,移动互联网",120.044596,30.254907,全职,3-5年
291,4150883,语音助手后端开发工程师,深圳,2018-04-19 08:59:32,26.0,6927,OPPO,广东欧珀移动通信有限公司,2000人以上,南山区,不限,不需要融资,移动互联网,113.943044,22.518792,全职,不限
292,4409984,爬虫开发工程师（图像识别）,北京,2018-04-19 08:42:14,14.0,151381,中诚信征信,中诚信征信有限公司,150-500人,东城区,本科,不需要融资,"移动互联网,金融",116.420489,39.921853,全职,1-3年
293,3489850,C++工程师（导航路线识别）,上海,2018-04-11 18:01:43,19.0,41194,泰为,泰为信息科技（上海）有限公司,150-500人,长宁区,本科,上市公司,移动互联网,121.39854,31.20641,全职,1-3年
294,4254304,图像识别实习生,北京,2018-04-16 10:25:42,2.8,116331,浙江华治数聚科技股份有限公司,浙江华治数聚科技股份有限公司,50-150人,海淀区,大专,未融资,"移动互联网,数据服务",0.0,0.0,实习,不限
295,3484259,语音算法工程师（2018一起作业校招岗位）,北京,2018-04-18 00:45:24,14.0,36031,一起科技,上海一起作业信息科技有限公司,500-2000人,朝阳区,本科,D轮及以上,"移动互联网,教育",116.486624,40.000825,实习,应届毕业生
296,4188912,语音技术部-资深数字信号处理盲源分离工程师,北京,2018-04-18 15:16:10,42.0,1575,百度,百度在线网络技术（北京）有限公司,2000人以上,海淀区,本科,不需要融资,"移动互联网,数据服务",116.301396,40.050909,全职,3-5年
297,3082006,产品经理（语音方向）,上海,2018-04-18 10:19:29,21.0,98800,竹间智能科技(上海)有限公司,竹间智能科技（上海）有限公司,150-500人,徐汇区,本科,B轮,"移动互联网,其他",121.41698505,31.17523207,全职,1-3年
298,4042858,语音产品经理-北京-00068,北京,2018-04-18 15:35:06,21.0,205367,问众智能,问众智能信息科技（北京）有限公司,50-150人,海淀区,本科,不需要融资,"移动互联网,硬件",116.315315,39.978329,全职,5-10年
299,4373705, 语音直播产品经理,深圳,2018-04-17 14:15:25,21.4,23291,美图公司,厦门美图之家科技有限公司,500-2000人,南山区,本科,上市公司,"移动互联网,硬件",113.951875,22.540776,全职,3-5年
300,4405250,产品经理-AI语音交互,北京,2018-04-11 16:39:05,21.0,172285,猎户星空,北京猎户星空科技有限公司,150-500人,朝阳区,本科,A轮,"移动互联网,硬件",116.458741,39.932851,全职,1-3年
301,4185032,智能语音工程师,深圳,2018-04-11 16:09:54,22.0,8977,GOSCAM,深圳市高斯贝尔家居智能电子有限公司,500-2000人,宝安区,大专,A轮,"文化娱乐,硬件",113.863418,22.569449,全职,3-5年
302,3147397,语音坐席/话务中心客服,北京,2018-04-10 17:11:11,4.4,107759,ECMS Express,天津易客满国际物流有限公司北京分公司,150-500人,顺义区,大专,B轮,"电子商务,其他",116.608863,40.114589,全职,不限
303,4323410,搜狗语音-高级产品经理,北京,2018-03-26 14:59:13,21.0,1537,搜狗,北京搜狗科技发展有限公司,2000人以上,海淀区,本科,C轮,"移动互联网,数据服务",116.33254,39.99366,全职,1-3年
304,3828199,产品实习生-语音交互,北京,2018-04-19 10:34:18,3.8,88978,海知智能,上海海知智能科技有限公司,50-150人,海淀区,本科,A轮,"移动互联网,数据服务",116.302304,39.986014,实习,应届毕业生
305,4116491,高级产品经理(语音技术方向) (MJ000654),上海,2018-04-18 10:57:55,35.0,3112,沪江,沪江教育科技（上海）股份有限公司,500-2000人,浦东新区,本科,D轮及以上,"移动互联网,教育",121.603788,31.202542,全职,1-3年
306,3962336,OCR（图像文字识别）,深圳,2018-04-11 09:00:00,9.6,119788,汇金智融,汇金智融（北京）科技有限公司,150-500人,南山区,本科,上市公司,"移动互联网,电子商务",113.940221,22.545184,全职,1-3年
307,3992314,语音采集实习生,广州,2018-03-21 18:20:38,1.4,49579,欢聚时代（YY Inc）,广州华多网络科技有限公司,2000人以上,番禺区,本科,上市公司,移动互联网,39.897445,116.331398,兼职,不限
308,4202790,语音项目助理,北京,2018-04-18 11:22:39,5.4,39729,慧听科技,北京慧听科技有限公司,15-50人,海淀区,本科,不需要融资,移动互联网,116.337189,39.977954,全职,不限
309,4341785,语音技术部-架构开发工程师,北京,2018-04-18 15:16:11,19.0,1575,百度,百度在线网络技术（北京）有限公司,2000人以上,海淀区,本科,不需要融资,"移动互联网,数据服务",116.272658,40.042403,全职,1-3年
310,4183957,自然语言处理、语音助手资深算法工程师/专家,北京,2018-04-17 10:37:00,28.0,50702,美团点评,北京三快在线科技有限公司,2000人以上,朝阳区,本科,D轮及以上,"移动互联网,O2O",116.48776,40.008007,全职,3-5年
311,4203255,图像算法工程师（图像处理与识别方向）,北京,2018-04-16 16:06:50,24.0,133336,上海摩象网络科技有限公司,上海摩象网络科技有限公司,50-150人,海淀区,本科,天使轮,移动互联网,116.307278,40.035928,全职,1-3年
312,3406921,图像识别算法工程师,深圳,2018-03-31 15:44:32,21.0,69478,玩瞳科技,深圳市玩瞳科技有限公司,15-50人,福田区,本科,A轮,"移动互联网,教育",114.0575,22.5055,全职,1-3年
313,4065670,语音算法主管,厦门,2018-03-27 16:15:06,29.0,245874,快商通,厦门快商通科技股份有限公司,150-500人,思明区,硕士,上市公司,其他,118.124019,24.485444,全职,3-5年
314,4263895,大数据部-算法工程师（图像识别）,北京,2018-04-17 11:18:37,35.0,3328,好未来,北京世纪好未来教育科技有限公司,2000人以上,海淀区,本科,上市公司,"移动互联网,教育",0.0,0.0,全职,3-5年
315,3406921,图像识别算法工程师,深圳,2018-03-31 15:44:32,21.0,69478,玩瞳科技,深圳市玩瞳科技有限公司,15-50人,福田区,本科,A轮,"移动互联网,教育",114.0575,22.5055,全职,1-3年
316,4065670,语音算法主管,厦门,2018-03-27 16:15:06,29.0,245874,快商通,厦门快商通科技股份有限公司,150-500人,思明区,硕士,上市公司,其他,118.124019,24.485444,全职,3-5年
317,4263895,大数据部-算法工程师（图像识别）,北京,2018-04-17 11:18:37,35.0,3328,好未来,北京世纪好未来教育科技有限公司,2000人以上,海淀区,本科,上市公司,"移动互联网,教育",0.0,0.0,全职,3-5年
318,3055933,语音算法研发工程师,广州,2018-03-21 18:20:38,23.2,49579,欢聚时代（YY Inc）,广州华多网络科技有限公司,2000人以上,番禺区,本科,上市公司,移动互联网,39.897445,116.331398,全职,3-5年
319,4233306,助理算法工程师（语音方向）-乐视网-【2018校招】,北京,2018-04-12 14:25:43,11.2,114110,乐视,乐视网信息技术（北京）股份有限公司,2000人以上,朝阳区,本科,上市公司,移动互联网,116.492605,39.934758,全职,应届毕业生
320,4202822,语音项目助理,苏州,2018-04-18 11:22:37,5.4,39729,慧听科技,北京慧听科技有限公司,15-50人,工业园区,本科,不需要融资,移动互联网,120.722625,31.267431,全职,不限
321,4345432,图像识别算法工程师,北京,2018-03-29 14:15:11,19.0,38992,北京喂呦科技有限公司,北京喂呦科技有限公司,50-150人,朝阳区,本科,A轮,"移动互联网,硬件",116.482135,39.909494,全职,3-5年
322,4406941,语音产品经理,北京,2018-04-18 17:12:15,28.0,149208,田米科技,北京田米科技有限公司,2000人以上,海淀区,本科,D轮及以上,移动互联网,116.337479,40.026677,全职,3-5年
323,4419740,图像识别算法工程师,北京,2018-04-13 17:18:57,2.4,259413,一品威客,厦门一品威客网络科技股份有限公司北京分公司,150-500人,海淀区,本科,C轮,"电子商务,分类信息",116.313567,40.035822,全职,1-3年
324,3393482,自然语言处理、语音助手资深算法工程师/专家,北京,2018-04-12 13:54:59,42.0,50702,美团点评,北京三快在线科技有限公司,2000人以上,朝阳区,本科,D轮及以上,"移动互联网,O2O",116.487501,40.008268,全职,5-10年
325,3978357,RFID销售射频识别,北京,2018-04-17 10:52:40,8.4,290853,北京龙图三诺电子有限公司,北京龙图三诺电子有限公司,15-50人,朝阳区,不限,未融资,电子商务,116.49454,39.894271,全职,1-3年
326,3647280,高级语音算法工程师,北京,2018-04-08 09:07:35,28.0,77925,时代拓灵,北京时代拓灵科技有限公司,15-50人,东城区,硕士,天使轮,"移动互联网,硬件",115.99339,39.99426,全职,3-5年
327,3514144,博士后（人工智能语音方向）,深圳,2018-04-18 09:46:28,22.0,6566,金蝶,金蝶软件（中国）有限公司,2000人以上,南山区,博士,上市公司,"移动互联网,电子商务",113.95478984,22.53412317,全职,不限
328,4184539,语音信号处理平台工程师,南京,2018-03-30 14:15:55,14.0,83580,地平线机器人,北京地平线信息技术有限公司,150-500人,栖霞区,本科,A轮,"移动互联网,硬件",118.87782668,32.1369331,全职,3-5年
329,4229202,语音算法工程师,北京,2018-03-29 18:16:00,44.0,23373,VIPKID,北京大米未来科技有限公司,2000人以上,东城区,本科,D轮及以上,教育,0.0,0.0,全职,3-5年
330,4373689,语音合成开发工程师,北京,2018-04-04 15:25:08,19.0,3454,北京三星通信研究院,北京三星通信技术研究有限公司,500-2000人,朝阳区,硕士,D轮及以上,其他,116.444661,39.972375,全职,不限
331,4229158,语音算法负责人。,北京,2018-03-29 18:16:00,44.0,23373,VIPKID,北京大米未来科技有限公司,2000人以上,东城区,本科,D轮及以上,教育,0.0,0.0,全职,5-10年
332,4025978,AI Lab-语音算法工程师,北京,2018-04-10 22:41:29,28.0,3328,好未来,北京世纪好未来教育科技有限公司,2000人以上,海淀区,硕士,上市公司,"移动互联网,教育",116.313701,39.978427,全职,1-3年
333,4258484,语音产品经理,北京,2018-04-19 09:14:00,26.0,87977,车和家,北京车和家信息技术有限责任公司,500-2000人,朝阳区,本科,B轮,其他,116.488694,39.993232,全职,5-10年
334,4320134,深度学习图像识别研发工程师,南宁,2018-03-26 00:42:26,7.0,202892,数据海,南宁数据海信息技术有限公司,少于15人,青秀区,本科,未融资,移动互联网,108.348965,22.815456,全职,1-3年
335,4289808,WXG08-121 模式识别自然语言处理算法工程师,北京,2018-03-22 18:32:49,21.0,451,腾讯,腾讯科技(深圳)有限公司,2000人以上,海淀区,本科,上市公司,"移动互联网 ,游戏",0.0,0.0,全职,3-5年
336,4406783,销售经理（人证识别）,深圳,2018-04-11 18:43:19,19.0,51582,奥比中光,深圳奥比中光科技有限公司,50-150人,南山区,不限,C轮,"移动互联网,其他",0.0,0.0,全职,3-5年
337,3781516,产品经理（语音直播）,广州,2018-03-21 18:20:38,14.0,49579,欢聚时代（YY Inc）,广州华多网络科技有限公司,2000人以上,番禺区,本科,上市公司,移动互联网,39.897445,116.331398,全职,3-5年
338,4376816,智能语音分析专家,广州,2018-04-11 17:53:45,19.0,76433,广发信用卡中心,广发银行股份有限公司信用卡中心,2000人以上,海珠区,本科,不需要融资,金融,113.283978,23.092967,全职,3-5年
339,4380556,人工智能语音实习生,杭州,2018-04-08 11:42:30,5.4,217950,MIpitalk,杭州拜托科技有限公司,少于15人,滨江区,硕士,未融资,移动互联网,120.138541,30.186348,实习,不限
340,4232697,AI工程师（语音方向，应届研究生可投）,南京,2018-03-28 15:44:14,21.0,12163,厚建,南京厚建软件有限责任公司,150-500人,雨花台区,本科,不需要融资,"移动互联网,文化娱乐",118.764059,31.971357,全职,1-3年
341,4364861,语音信号处理工程师,上海,2018-04-03 10:51:44,19.0,187691,互问信息,上海互问信息科技有限公司,15-50人,浦东新区,硕士,不需要融资,"移动互联网,其他",121.629079,31.207591,全职,1-3年
342,3875322,图像识别算法架构师,武汉,2018-04-10 10:33:14,20.8,172854,轩辕智驾,轩辕智驾科技(深圳)有限公司,50-150人,东湖新技术开发区,本科,未融资,"硬件,其他",114.426265,30.467052,全职,5-10年
343,3819915,语音项目助理,广州,2018-04-18 11:22:33,5.4,39729,慧听科技,北京慧听科技有限公司,15-50人,番禺区,本科,不需要融资,移动互联网,113.404639,23.042171,全职,不限
344,4065634,语音算法工程师,厦门,2018-03-27 16:15:41,14.0,245874,快商通,厦门快商通科技股份有限公司,150-500人,思明区,硕士,上市公司,其他,118.124019,24.485444,全职,3-5年
345,3158727,机器学习与图像识别算法工程师,北京,2018-03-29 21:46:45,19.0,3454,北京三星通信研究院,北京三星通信技术研究有限公司,500-2000人,朝阳区,硕士,D轮及以上,其他,116.444661,39.972375,全职,不限
346,3891341,产品经理（语音项目）,广州,2018-03-21 18:20:35,21.0,49579,欢聚时代（YY Inc）,广州华多网络科技有限公司,2000人以上,番禺区,不限,上市公司,移动互联网,39.897445,116.331398,全职,3-5年
347,3918090,WXG08-121 模式识别自然语言处理算法工程师,北京,2018-03-22 18:32:55,28.0,451,腾讯,腾讯科技(深圳)有限公司,2000人以上,海淀区,硕士,上市公司,"移动互联网 ,游戏",116.307524,39.984207,全职,3-5年
348,4065634,语音算法工程师,厦门,2018-03-27 16:15:41,14.0,245874,快商通,厦门快商通科技股份有限公司,150-500人,思明区,硕士,上市公司,其他,118.124019,24.485444,全职,3-5年
349,3945739,语音算法工程师,成都,2018-04-08 14:21:28,12.0,51002,长虹技术中心,四川虹微技术股份有限公司,2000人以上,高新区,硕士,不需要融资,"移动互联网,数据服务",104.063426,30.541304,全职,不限
350,4150536,语音算法工程师,深圳,2018-03-20 17:20:02,28.0,135241,天益智网,深圳市天益智网科技有限公司,50-150人,南山区,硕士,未融资,"生活服务,其他",114.006023,22.595319,全职,不限
351,4310915,语音算法实习生,北京,2018-04-12 10:14:29,5.6,129,陌陌,北京陌陌科技有限公司,500-2000人,朝阳区,硕士,上市公司,社交网络,115.99339,39.99426,实习,应届毕业生
352,3556533,语音标注员,南京,2018-04-13 17:24:51,5.6,255129,雷森信息科技,南京雷森信息科技有限公司,少于15人,栖霞区,不限,未融资,数据服务,118.96285,32.125163,全职,不限
353,2658243,英语语音拼读老师,深圳,2018-04-01 14:18:20,7.0,162191,小鹰高飞英文书院,北京小鹰高飞教育科技有限公司,少于15人,南山区,本科,不需要融资,教育,,,全职,不限
354,3613366,语音主播招募专员,广州,2018-04-16 10:40:04,6.2,47615,趣丸,广州趣丸网络科技有限公司,150-500人,天河区,大专,不需要融资,游戏,113.375847,23.132876,全职,1-3年
355,4095161,OCR文字识别及图像处理工程师（广州）,广州,2018-03-29 13:07:45,33.0,25419,广发证券,广发证券股份有限公司,2000人以上,天河区,本科,上市公司,金融,113.342831,23.118145,全职,3-5年
356,4163608,android工程师-智能语音技术,北京,2018-04-12 15:06:30,12.2,328502,增强智能,北京增强智能科技有限公司,15-50人,昌平区,大专,A轮,移动互联网,116.347137,40.080199,全职,1-3年
357,4413422,语音产品专家,北京,2018-04-12 17:21:34,56.0,18139,京东集团,北京京东世纪贸易有限公司,2000人以上,朝阳区,本科,上市公司,"电子商务,数据服务",116.387477,40.000236,全职,5-10年
358,3942990,语音信号处理算法工程师,成都,2018-04-16 14:22:30,10.8,75002,融智服务,成都融智汽车服务有限公司,500-2000人,高新区,本科,上市公司,"电子商务,企业服务",104.038808,30.622706,全职,3-5年
359,4346264,语音产品经理,北京,2018-04-19 09:13:59,26.0,87977,车和家,北京车和家信息技术有限责任公司,500-2000人,朝阳区,本科,B轮,其他,116.488694,39.993232,全职,3-5年
360,3556533,语音标注员,南京,2018-04-13 17:24:51,5.6,255129,雷森信息科技,南京雷森信息科技有限公司,少于15人,栖霞区,不限,未融资,数据服务,118.96285,32.125163,全职,不限
361,2658243,英语语音拼读老师,深圳,2018-04-01 14:18:20,7.0,162191,小鹰高飞英文书院,北京小鹰高飞教育科技有限公司,少于15人,南山区,本科,不需要融资,教育,,,全职,不限
362,3613366,语音主播招募专员,广州,2018-04-16 10:40:04,6.2,47615,趣丸,广州趣丸网络科技有限公司,150-500人,天河区,大专,不需要融资,游戏,113.375847,23.132876,全职,1-3年
363,4095161,OCR文字识别及图像处理工程师（广州）,广州,2018-03-29 13:07:45,33.0,25419,广发证券,广发证券股份有限公司,2000人以上,天河区,本科,上市公司,金融,113.342831,23.118145,全职,3-5年
364,4163608,android工程师-智能语音技术,北京,2018-04-12 15:06:30,12.2,328502,增强智能,北京增强智能科技有限公司,15-50人,昌平区,大专,A轮,移动互联网,116.347137,40.080199,全职,1-3年
365,3942990,语音信号处理算法工程师,成都,2018-04-16 14:22:30,10.8,75002,融智服务,成都融智汽车服务有限公司,500-2000人,高新区,本科,上市公司,"电子商务,企业服务",104.038808,30.622706,全职,3-5年
366,4312989,计算机视觉/图像识别OCR方向 软件工程师,北京,2018-04-18 18:15:45,28.0,1575,百度,百度在线网络技术（北京）有限公司,2000人以上,海淀区,硕士,不需要融资,"移动互联网,数据服务",116.301396,40.050909,全职,1-3年
367,4317207,语音算法科学家 / 工程师,深圳,2018-04-09 12:01:43,28.0,341498,VoiceAI Technologies,深圳市声扬科技有限公司,少于15人,南山区,不限,天使轮,其他,113.94679,22.556374,全职,1-3年
368,4307669,电子工程师（智能语音）,深圳,2018-04-16 10:41:14,10.8,58055,倍轻松,深圳市倍轻松科技股份有限公司,500-2000人,南山区,大专,未融资,电子商务,113.940791,22.512676,全职,3-5年
369,4364561,乐窗语音产品经理,北京,2018-04-03 10:31:53,28.0,40208,联想研究院,联想(北京)研究院,2000人以上,海淀区,本科,上市公司,移动互联网,116.29844,40.05339,全职,3-5年
370,3723067,语音产品经理,北京,2018-03-29 19:30:16,17.0,520,小米,北京小米科技有限责任公司,2000人以上,海淀区,本科,D轮及以上,移动互联网,116.332469,40.039898,全职,1-3年
371,3376317,语音信号处理算法工程师/程序员,深圳,2018-04-02 14:46:51,19.0,232263,avsnest,深圳声联网科技有限公司,15-50人,南山区,本科,天使轮,"硬件,其他",113.95147,22.554269,全职,不限
372,4128790,高级/资深语音算法工程师,武汉,2018-03-22 16:01:15,22.2,37236,斗鱼直播,武汉斗鱼网络科技有限公司,2000人以上,洪山区,硕士,D轮及以上,移动互联网,114.406728,30.477141,全职,3-5年
373,4029529,语音信号处理算法工程师,北京,2018-03-30 13:25:18,21.0,312244,智听科技,深圳市智听科技有限公司,15-50人,海淀区,硕士,A轮,医疗健康,116.252103,40.08382,全职,1-3年
374,2300003,语音数据分析与处理工程师,北京,2018-04-16 13:52:24,6.2,36513,微创,上海微创软件股份有限公司北京分公司,2000人以上,海淀区,本科,不需要融资,"移动互联网,电子商务",116.31028019,39.97936959,全职,应届毕业生
375,4161996,多模搜索部-高级产品经理（语音搜索业务方向）,北京,2018-04-18 10:36:52,21.0,1575,百度,百度在线网络技术（北京）有限公司,2000人以上,海淀区,本科,不需要融资,"移动互联网,数据服务",116.301396,40.050909,全职,3-5年
376,3783910,大数据语音转写与标注,南京,2018-04-13 17:24:36,4.2,255129,雷森信息科技,南京雷森信息科技有限公司,少于15人,栖霞区,本科,未融资,数据服务,,,兼职,不限
377,4328732,语音信号处理算法工程师,天津,2018-03-30 13:25:18,21.0,312244,智听科技,深圳市智听科技有限公司,15-50人,南开区,硕士,A轮,医疗健康,117.170383,39.110144,全职,1-3年
378,4148426,同花顺--人工智能语音产品经理,杭州,2018-04-08 09:39:05,21.0,138539,同花顺,浙江核新同花顺网络信息股份有限公司北京分公司,2000人以上,余杭区,本科,上市公司,"金融,数据服务",0.0,0.0,全职,不限
379,4313047,计算机视觉/图像识别OCR方向 软件工程师,北京,2018-03-23 11:17:49,28.0,1575,百度,百度在线网络技术（北京）有限公司,2000人以上,海淀区,硕士,不需要融资,"移动互联网,数据服务",116.301396,40.050909,全职,不限
380,3359286,语音技术部_软件产品经理,北京,2018-04-13 17:57:53,22.0,1575,百度,百度在线网络技术（北京）有限公司,2000人以上,海淀区,不限,不需要融资,"移动互联网,数据服务",0.0,0.0,全职,5-10年
381,4042692,联机手写识别算法工程师（HWR）,北京,2018-04-18 15:41:14,28.0,356,捷通华声,北京捷通华声科技股份有限公司,150-500人,海淀区,硕士,不需要融资,"移动互联网,数据服务",116.29632768,40.05177651,全职,1-3年
382,3761664,图像识别工程师,杭州,2018-04-18 14:48:10,28.0,82991,数美,北京数美时代科技有限公司,150-500人,余杭区,本科,B轮,"企业服务,数据服务",120.002035,30.27563,全职,1-3年
383,3926412,图像识别工程师,杭州,2018-04-18 14:48:11,28.0,82991,数美,北京数美时代科技有限公司,150-500人,余杭区,本科,B轮,"企业服务,数据服务",119.97175,30.334556,全职,1-3年
384,3133400,图像识别工程师,北京,2018-04-18 14:48:09,28.0,82991,数美,北京数美时代科技有限公司,150-500人,朝阳区,本科,B轮,"企业服务,数据服务",116.465953,40.021083,全职,3-5年
385,3926195,图像识别工程师,北京,2018-04-18 14:48:08,28.0,82991,数美,北京数美时代科技有限公司,150-500人,朝阳区,本科,B轮,"企业服务,数据服务",116.465953,40.021083,全职,1-3年
386,4246541,高级声纹识别工程师,苏州,2018-04-18 11:35:17,28.0,94,思必驰科技,苏州思必驰信息科技有限公司,150-500人,工业园区,硕士,C轮,企业服务,120.723343,31.324036,全职,3-5年
387,2761760,声纹识别算法工程师（VPR）,北京,2018-04-18 15:41:15,28.0,356,捷通华声,北京捷通华声科技股份有限公司,150-500人,海淀区,本科,不需要融资,"移动互联网,数据服务",116.29632768,40.05177651,全职,1-3年
388,4042420,声纹识别算法专家,北京,2018-04-18 15:41:14,42.0,356,捷通华声,北京捷通华声科技股份有限公司,150-500人,海淀区,硕士,不需要融资,"移动互联网,数据服务",116.29632768,40.05177651,全职,5-10年
389,3981798,光学字符识别资深工程师(J171218006),北京,2018-04-17 09:50:40,35.0,2474,滴滴出行,北京嘀嘀无限科技发展有限公司,2000人以上,海淀区,本科,不需要融资,移动互联网,40.04683,40.04683,全职,3-5年
390,4264211,智能语音-高级Android开发,北京,2018-04-16 09:46:01,26.0,1537,搜狗,北京搜狗科技发展有限公司,2000人以上,海淀区,本科,C轮,"移动互联网,数据服务",116.33254,39.99366006,全职,3-5年
391,3396515,搜狗语音云-C++ 高级开发工程师,北京,2018-04-16 09:45:58,28.0,1537,搜狗,北京搜狗科技发展有限公司,2000人以上,海淀区,本科,C轮,"移动互联网,数据服务",116.33254,39.99366006,全职,1-3年
392,2918103,智能语音-发音评测研究员,北京,2018-04-16 09:45:58,28.0,1537,搜狗,北京搜狗科技发展有限公司,2000人以上,海淀区,硕士,C轮,"移动互联网,数据服务",116.33254,39.99366006,全职,1-3年
393,3941423,智能驾驶‑场景文字识别方向-北京-02910,北京,2018-04-16 09:45:57,21.0,1537,搜狗,北京搜狗科技发展有限公司,2000人以上,海淀区,本科,C轮,"移动互联网,数据服务",116.33254,39.99366006,全职,3-5年
394,3649583,智能语音-深度学习平台C++开发,北京,2018-04-16 09:46:02,28.0,1537,搜狗,北京搜狗科技发展有限公司,2000人以上,海淀区,本科,C轮,"移动互联网,数据服务",116.33254,39.99366006,全职,3-5年
395,3395151,智能语音-数据挖掘研究员,北京,2018-04-16 09:45:56,28.0,1537,搜狗,北京搜狗科技发展有限公司,2000人以上,海淀区,本科,C轮,"移动互联网,数据服务",116.33254,39.99366006,全职,3-5年
396,3124554,智能语音-语言模型研究员,北京,2018-04-16 09:45:57,28.0,1537,搜狗,北京搜狗科技发展有限公司,2000人以上,海淀区,硕士,C轮,"移动互联网,数据服务",116.33254,39.99366006,全职,1-3年
397,4116192,智能语音-机器翻译研究员-北京-03618,北京,2018-04-16 09:46:00,38.0,1537,搜狗,北京搜狗科技发展有限公司,2000人以上,海淀区,硕士,C轮,"移动互联网,数据服务",116.33254,39.99366006,全职,3-5年
398,4116474,智能语音-模型优化工程师-北京-03615,北京,2018-04-16 09:45:59,21.0,1537,搜狗,北京搜狗科技发展有限公司,2000人以上,海淀区,本科,C轮,"移动互联网,数据服务",116.33254,39.99366006,全职,1-3年
399,4361262,智能语音-资深产品经理（语音同传）,北京,2018-04-16 09:45:57,35.0,1537,搜狗,北京搜狗科技发展有限公司,2000人以上,海淀区,本科,C轮,"移动互联网,数据服务",116.332289,39.993798,全职,5-10年
400,2507616,搜狗智能语音-语音合成研究员,北京,2018-04-16 09:45:59,21.0,1537,搜狗,北京搜狗科技发展有限公司,2000人以上,,本科,C轮,"移动互联网,数据服务",116.33254,39.99366006,全职,1-3年
401,4120961,智能语音-语音算法研究员,杭州,2018-04-16 09:45:58,28.0,1537,搜狗,北京搜狗科技发展有限公司,2000人以上,下沙,硕士,C轮,"移动互联网,数据服务",120.335817,30.305693,全职,1-3年
402,4352553,智能语音-标注员-天津-03906,天津,2018-04-16 09:46:01,4.4,1537,搜狗,北京搜狗科技发展有限公司,2000人以上,东丽区,大专,C轮,"移动互联网,数据服务",117.398022,39.149541,全职,1-3年
403,4325297,智能语音-高级产品经理,北京,2018-04-16 09:45:58,21.0,1537,搜狗,北京搜狗科技发展有限公司,2000人以上,海淀区,硕士,C轮,"移动互联网,数据服务",115.99339,39.99426,全职,3-5年
404,2759677,光学字符识别算法工程师（OCR）,北京,2018-04-18 15:41:15,28.0,356,捷通华声,北京捷通华声科技股份有限公司,150-500人,海淀区,硕士,不需要融资,"移动互联网,数据服务",116.29632768,40.05177651,全职,1-3年
405,2507616,搜狗智能语音-语音合成研究员,北京,2018-04-16 09:45:59,21.0,1537,搜狗,北京搜狗科技发展有限公司,2000人以上,,本科,C轮,"移动互联网,数据服务",116.33254,39.99366006,全职,1-3年
406,4120961,智能语音-语音算法研究员,杭州,2018-04-16 09:45:58,28.0,1537,搜狗,北京搜狗科技发展有限公司,2000人以上,下沙,硕士,C轮,"移动互联网,数据服务",120.335817,30.305693,全职,1-3年
407,4352553,智能语音-标注员-天津-03906,天津,2018-04-16 09:46:01,4.4,1537,搜狗,北京搜狗科技发展有限公司,2000人以上,东丽区,大专,C轮,"移动互联网,数据服务",117.398022,39.149541,全职,1-3年
408,4325297,智能语音-高级产品经理,北京,2018-04-16 09:45:58,21.0,1537,搜狗,北京搜狗科技发展有限公司,2000人以上,海淀区,硕士,C轮,"移动互联网,数据服务",115.99339,39.99426,全职,3-5年
409,2759677,光学字符识别算法工程师（OCR）,北京,2018-04-18 15:41:15,28.0,356,捷通华声,北京捷通华声科技股份有限公司,150-500人,海淀区,硕士,不需要融资,"移动互联网,数据服务",116.29632768,40.05177651,全职,1-3年
410,3023153,智能语音-深度学习研究员,北京,2018-04-16 09:45:58,28.0,1537,搜狗,北京搜狗科技发展有限公司,2000人以上,海淀区,硕士,C轮,"移动互联网,数据服务",116.33254,39.99366006,全职,3-5年
411,1051698,语音信号处理算法工程师,苏州,2018-04-18 11:35:16,28.0,94,思必驰科技,苏州思必驰信息科技有限公司,150-500人,工业园区,本科,C轮,企业服务,120.723343,31.324036,全职,1-3年
412,2759999,语音合成算法工程师（TTS）,北京,2018-04-18 15:41:15,28.0,356,捷通华声,北京捷通华声科技股份有限公司,150-500人,海淀区,硕士,不需要融资,"移动互联网,数据服务",116.29632768,40.05177651,全职,1-3年
413,4329489,智能语音-标注员（派遣）-天津-03906,天津,2018-04-16 09:45:57,3.8,1537,搜狗,北京搜狗科技发展有限公司,2000人以上,东丽区,大专,C轮,"移动互联网,数据服务",117.398022,39.149541,全职,1-3年
414,3396541,搜狗语音云-前端开发工程师,北京,2018-04-16 09:46:00,21.0,1537,搜狗,北京搜狗科技发展有限公司,2000人以上,海淀区,本科,C轮,"移动互联网,数据服务",116.33254,39.99366006,全职,1-3年
415,4329382,高级语音信号处理算法工程师,苏州,2018-04-18 11:35:17,21.0,94,思必驰科技,苏州思必驰信息科技有限公司,150-500人,工业园区,本科,C轮,企业服务,120.723343,31.324036,全职,3-5年
416,3901586,语音算法工程师/专家,深圳,2018-03-30 10:22:49,35.0,19875,vivo,维沃移动通信有限公司,2000人以上,福田区,本科,未融资,移动互联网,114.060635,22.567334,全职,3-5年
417,4386513,搜狗AI云业务部-语音转写产品经理,北京,2018-04-16 09:45:56,28.0,1537,搜狗,北京搜狗科技发展有限公司,2000人以上,海淀区,本科,C轮,"移动互联网,数据服务",116.332289,39.993798,全职,3-5年
418,4042429,语音合成算法专家,北京,2018-04-18 15:41:15,42.0,356,捷通华声,北京捷通华声科技股份有限公司,150-500人,海淀区,硕士,不需要融资,"移动互联网,数据服务",116.29632768,40.05177651,全职,5-10年
419,3566471,语音合成算法工程师,北京,2018-04-18 15:40:06,38.0,151386,物灵,北京物灵智能科技有限公司,150-500人,朝阳区,硕士,不需要融资,"硬件,移动互联网",116.489053,39.99902,全职,1-3年
420,3238769,语音合成后端（声学模型）工程师-语音(J170528085),北京,2018-04-17 09:50:41,19.0,2474,滴滴出行,北京嘀嘀无限科技发展有限公司,2000人以上,海淀区,不限,不需要融资,移动互联网,116.28896,40.04373007,全职,不限
421,4219033,语音数据标注兼职,北京,2018-04-18 00:45:25,4.2,36031,一起科技,上海一起作业信息科技有限公司,500-2000人,朝阳区,不限,D轮及以上,"移动互联网,教育",116.48597,40.000355,兼职,不限
422,2654111,语音技术项目经理--大数据(J13689),北京,2018-04-17 09:50:40,21.0,2474,滴滴出行,北京嘀嘀无限科技发展有限公司,2000人以上,海淀区,本科,不需要融资,移动互联网,116.28896,40.04373007,全职,1-3年
423,4102022,WXG08-121 微信模式识别自然语言处理算法,北京,2018-03-22 18:32:50,28.0,451,腾讯,腾讯科技(深圳)有限公司,2000人以上,海淀区,本科,上市公司,"移动互联网 ,游戏",0.0,0.0,全职,3-5年
424,3918069,WXG08-121 模式识别机器学习算法工程师,北京,2018-03-22 18:32:50,28.0,451,腾讯,腾讯科技(深圳)有限公司,2000人以上,海淀区,硕士,上市公司,"移动互联网 ,游戏",116.307524,39.984207,全职,3-5年
