,职位编码,职位名称,所在城市,发布日期,薪资待遇(k),公司编码,公司名称,公司全称,公司规模,所在区域,最低学历,融资状态,公司类型,经度,纬度,全职/实习,工作经验
0,3830080,自然语言处理,北京,2018-04-28 13:39:11,21.0,25439,Udesk－企业级智能客服平台,北京沃丰时代数据科技有限公司,150-500人,西城区,本科,B轮,其他,116.357353,39.939211,全职,1-3年
1,3944112,NLP,北京,2018-04-26 19:31:34,28.0,82991,数美,北京数美时代科技有限公司,150-500人,朝阳区,本科,B轮,"企业服务,数据服务",116.465953,40.021083,全职,1-3年
2,3972208,NLP/自然语言处理,北京,2018-04-29 01:21:47,26.0,7835,金山办公软件,北京金山软件有限公司,2000人以上,海淀区,本科,上市公司,移动互联网,116.32274,40.036741,全职,3-5年
3,2547720,自然语言处理,北京,2018-04-24 09:12:58,38.0,50702,美团点评,北京三快在线科技有限公司,2000人以上,朝阳区,本科,D轮及以上,"移动互联网,O2O",116.487501,40.008268,全职,3-5年
4,1003615,自然语言处理,北京,2018-04-28 11:09:37,35.0,50604,roobo,北京智能管家科技有限公司,150-500人,东城区,本科,B轮,移动互联网,116.433221,39.920718,全职,3-5年
5,3643203,自然语言处理,北京,2018-04-27 14:21:48,31.0,48188,普强信息,普强信息技术（北京）有限公司,150-500人,海淀区,不限,C轮,数据服务,116.245368,40.072979,全职,不限
6,4493205,自然语言处理工程师,大连,2018-04-27 13:37:45,13.6,40112,华宇,华宇（大连）信息服务有限公司,500-2000人,甘井子区,本科,上市公司,数据服务,121.47543,38.96132,全职,不限
7,4376614,自然语言处理研究员,北京,2018-04-26 13:03:08,42.0,195855,转转,北京转转精神科技有限责任公司,500-2000人,海淀区,本科,A轮,"移动互联网,生活服务",116.360315,40.039775,全职,3-5年
8,3949550,自然语言处理工程师,深圳,2018-04-28 10:34:47,24.8,56,卖座网,深圳市华宇讯科技有限公司,500-2000人,南山区,本科,B轮,"移动互联网,电子商务",113.9422,22.54878,全职,3-5年
9,2429497,自然语言处理,长沙,2018-04-28 08:53:44,16.8,139603,阡寻,长沙阡寻信息科技有限公司,15-50人,岳麓区,硕士,A轮,数据服务,112.882369,28.230937,全职,1-3年
10,4135884,自然语言处理工程师,杭州,2018-04-27 14:42:13,24.0,134830,杭州明霖,杭州明霖信息技术有限公司,500-2000人,滨江区,本科,不需要融资,社交网络,120.213168,30.211897,全职,3-5年
11,4413545,自然语言处理研发工程师(NLP),北京,2018-04-25 11:19:16,26.0,109,马蜂窝,北京蚂蜂窝网络科技有限公司,500-2000人,朝阳区,本科,D轮及以上,"移动互联网,旅游",39.897445,116.331398,全职,1-3年
12,3761835,自然语言处理,北京,2018-04-28 10:52:34,28.0,128115,爱狄特,北京爱狄特信息科技有限公司,150-500人,东城区,硕士,不需要融资,"数据服务,其他",116.44223134,39.93624601,全职,3-5年
13,4501461,自然语言处理工程师,厦门,2018-04-28 18:32:29,33.0,84086,笨鸟社交,厦门笨鸟电子商务有限公司,150-500人,思明区,本科,B轮,企业服务,118.174043,24.48295,全职,1-3年
14,2387410,自然语言处理,北京,2018-04-28 13:33:53,33.0,57049,InnoTREE,北京因果树网络科技有限公司,50-150人,海淀区,本科,B轮,金融,116.30678995,39.98443439,全职,3-5年
15,4312490,自然语言处理,北京,2018-04-28 13:39:11,42.0,25439,Udesk－企业级智能客服平台,北京沃丰时代数据科技有限公司,150-500人,西城区,硕士,B轮,其他,116.357353,39.939211,全职,5-10年
16,3850751,自然语言处理,北京,2018-04-26 19:31:38,28.0,82991,数美,北京数美时代科技有限公司,150-500人,朝阳区,本科,B轮,"企业服务,数据服务",116.465953,40.021083,全职,1-3年
17,4501476,自然语言处理工程师,深圳,2018-04-28 18:37:12,33.0,84086,笨鸟社交,厦门笨鸟电子商务有限公司,150-500人,南山区,本科,B轮,企业服务,0.0,0.0,全职,1-3年
18,4310247,NLP自然语言处理,上海,2018-04-28 16:08:09,19.0,144037,眸事网,上海脉豪商务信息咨询有限公司,150-500人,虹口区,本科,天使轮,"移动互联网,企业服务",120.993464,30.994061,全职,1-3年
19,3569377,自然语言处理工程师,北京,2018-04-28 13:33:53,35.0,57049,InnoTREE,北京因果树网络科技有限公司,50-150人,海淀区,本科,B轮,金融,116.306683,39.984791,全职,不限
20,4031459,自然语言处理工程师,北京,2018-04-28 13:02:28,21.0,16869,朗播网,北京博智天下信息技术有限公司,150-500人,海淀区,本科,B轮,教育,116.31287,40.03445,全职,3-5年
21,3716636,自然语言处理工程师,厦门,2018-04-28 17:47:15,14.0,9251,美柚,厦门美柚信息科技有限公司,500-2000人,思明区,硕士,D轮及以上,移动互联网,118.17884,24.48956,全职,1-3年
22,3934471,NLP工程师,杭州,2018-04-28 11:54:02,21.0,59928,盈盈理财,杭州盈纳控股集团有限公司,500-2000人,下城区,本科,A轮,移动互联网,0.0,0.0,全职,1-3年
23,4096659,策略算法高级工程师- 智能交互/NLP,北京,2018-04-28 10:42:18,35.0,50702,美团点评,北京三快在线科技有限公司,2000人以上,朝阳区,本科,D轮及以上,"移动互联网,O2O",116.488126,40.008776,全职,3-5年
24,3856719,自然语言处理工程师,深圳,2018-04-27 15:18:46,14.0,41889,脑洞科技,深圳市脑洞科技有限公司,50-150人,南山区,本科,不需要融资,"移动互联网,教育",113.94063,22.54108,全职,1-3年
25,1837975,自然语言处理工程师,北京,2018-04-28 11:09:37,38.0,50604,roobo,北京智能管家科技有限公司,150-500人,东城区,本科,B轮,移动互联网,116.433221,39.920718,全职,3-5年
26,2105186,自然语言处理,北京,2018-04-28 11:01:53,21.0,3038,Gridsum 国双,北京国双科技有限公司,500-2000人,海淀区,本科,上市公司,"数据服务,企业服务",116.33175,39.97599007,全职,3-5年
27,3426370,自然语言处理工程师,上海,2018-04-28 09:51:04,19.0,14983,游族网络,上海游族信息技术有限公司,500-2000人,徐汇区,不限,上市公司,"移动互联网,游戏",39.897445,116.331398,全职,3-5年
28,3953080,自然语言处理研发工程师,深圳,2018-04-28 10:18:36,21.0,281631,深圳讴谱科技有限公司,深圳讴谱科技有限公司,15-50人,南山区,本科,不需要融资,信息安全 数据服务,113.950656,22.556557,全职,3-5年
29,2209361,自然语言处理,北京,2018-04-26 17:49:12,28.0,142470,蓦然认知科技,北京蓦然认知科技有限公司,50-150人,海淀区,硕士,A轮,移动互联网,116.351887,40.009524,全职,1-3年
30,4365342,NLP,北京,2018-04-27 16:26:18,42.0,25439,Udesk－企业级智能客服平台,北京沃丰时代数据科技有限公司,150-500人,西城区,硕士,B轮,其他,116.357122,39.939268,全职,3-5年
31,3047541,自然语言处理,武汉,2018-04-22 15:37:25,16.8,87751,烽火普天,武汉烽火普天信息技术有限公司,50-150人,东湖新技术开发区,本科,A轮,企业服务、数据服务,,,全职,不限
32,3596193,自然语言处理工程师,北京,2018-04-27 11:21:05,43.0,173658,逸途科技,逸途（北京）科技有限公司,50-150人,朝阳区,硕士,A轮,"移动互联网,旅游",116.490632,39.985193,全职,不限
33,3953076,自然语言处理研发工程师,深圳,2018-04-28 10:23:39,11.2,281631,深圳讴谱科技有限公司,深圳讴谱科技有限公司,15-50人,南山区,本科,不需要融资,信息安全 数据服务,113.950656,22.556557,全职,1-3年
34,3068179,自然语言处理工程师,北京,2018-04-28 09:55:52,35.0,56363,安易信,北京安易信科技有限公司,50-150人,海淀区,本科,上市公司,"金融,数据服务",116.351057,39.977249,全职,3-5年
35,3121353,自然语言处理研究员,北京,2018-04-27 16:24:25,35.0,50604,roobo,北京智能管家科技有限公司,150-500人,东城区,硕士,B轮,移动互联网,116.433221,39.920718,全职,1-3年
36,3591061,自然语言处理工程师,上海,2018-04-28 09:48:26,28.0,259846,源杉FIR.ai,源杉信息技术（上海）有限公司,15-50人,杨浦区,硕士,天使轮,"数据服务,金融",121.50694,31.30379,全职,3-5年
37,3219496,自然语言处理/机器学习工程师,北京,2018-04-28 10:09:48,35.0,98197,Moka,北京希瑞亚斯科技有限公司,50-150人,海淀区,本科,A轮,企业服务,116.313161,39.984635,全职,3-5年
38,4496259,自然语言处理工程师,广州,2018-04-27 18:56:52,19.0,205097,赛酷睿,广州市赛酷睿电子科技有限公司,2000人以上,白云区,本科,不需要融资,移动互联网,113.271506,23.175202,全职,1-3年
39,4312503,自然语言处理工程师,杭州,2018-04-27 09:54:51,19.0,35559,亲宝宝,杭州点望科技有限公司,150-500人,西湖区,硕士,B轮,"移动互联网,社交网络",120.097412,30.266811,全职,1-3年
40,4484070,自然语言处理工程师,大连,2018-04-27 13:34:42,15.2,40112,华宇,华宇（大连）信息服务有限公司,500-2000人,甘井子区,硕士,上市公司,数据服务,121.453687,38.965028,全职,1-3年
41,1891476,自然语言处理（上下文）,北京,2018-04-26 16:56:17,35.0,23004,图灵机器人,北京光年无限科技有限公司,150-500人,,硕士,B轮,移动互联网,116.31137083,40.02771557,全职,3-5年
42,4019036,NLP工程师,深圳,2018-04-28 10:34:45,25.2,56,卖座网,深圳市华宇讯科技有限公司,500-2000人,南山区,本科,B轮,"移动互联网,电子商务",113.9422,22.54878,全职,3-5年
43,4500780,自然语言处理研究员,北京,2018-04-28 16:52:00,24.8,1650,联想集团,联想（北京）有限公司,2000人以上,海淀区,硕士,上市公司,"移动互联网,数据服务",116.29846,40.0534,全职,3-5年
44,3361816,自然语言处理工程师,北京,2018-04-28 14:47:12,28.0,67118,达闼科技,达闼科技（北京）有限公司,150-500人,朝阳区,硕士,B轮,移动互联网,116.48016019,39.99690009,全职,1-3年
45,4462478,NLP,北京,2018-04-27 16:26:17,21.0,25439,Udesk－企业级智能客服平台,北京沃丰时代数据科技有限公司,150-500人,西城区,硕士,B轮,其他,116.357122,39.939268,全职,1-3年
46,3595281,NLP工程师,北京,2018-04-27 11:21:05,21.0,173658,逸途科技,逸途（北京）科技有限公司,50-150人,朝阳区,硕士,A轮,"移动互联网,旅游",116.490632,39.985193,全职,1-3年
47,4222179,NLP工程师,北京,2018-04-26 11:00:29,24.0,123070,零秒科技,北京零秒科技有限公司,15-50人,海淀区,硕士,A轮,"移动互联网,企业服务",116.308446,40.055569,全职,1-3年
48,4002100,NLP工程师,武汉,2018-04-29 01:21:47,21.0,7835,金山办公软件,北京金山软件有限公司,2000人以上,洪山区,本科,上市公司,移动互联网,114.42532,30.456379,全职,1-3年
49,3850689,NLP工程师,北京,2018-04-26 19:31:33,28.0,82991,数美,北京数美时代科技有限公司,150-500人,朝阳区,本科,B轮,"企业服务,数据服务",116.465953,40.021083,全职,1-3年
50,4246414,自然语言处理工程师,苏州,2018-04-25 09:41:54,21.0,94,思必驰科技,苏州思必驰信息科技有限公司,150-500人,工业园区,硕士,C轮,企业服务,120.723343,31.324036,全职,3-5年
51,2960555,自然语言处理/数据挖掘工程师,北京,2018-04-27 12:19:45,28.0,4510,春雨移动健康,北京春雨天下软件有限公司,150-500人,海淀区,硕士,C轮,移动互联网,116.351825,40.00853,全职,3-5年
52,4014923,自然语言处理工程师,北京,2018-04-26 10:37:19,35.0,172285,猎户星空,北京猎户星空科技有限公司,150-500人,朝阳区,本科,A轮,"移动互联网,硬件",116.458741,39.932851,全职,不限
53,4077520,算法工程师-NLP,北京,2018-04-23 08:42:17,35.0,88978,海知智能,上海海知智能科技有限公司,50-150人,海淀区,本科,A轮,"移动互联网,数据服务",0.0,0.0,全职,3-5年
54,4141312,自然语言处理高级工程师-NLP,北京,2018-04-28 14:47:12,42.0,67118,达闼科技,达闼科技（北京）有限公司,150-500人,朝阳区,硕士,B轮,移动互联网,116.479397,39.995298,全职,5-10年
55,4214492,自然语言处理工程师,上海,2018-04-29 13:55:59,28.0,133217,乐言科技,上海乐言信息科技有限公司,50-150人,徐汇区,硕士,A轮,企业服务,121.43166,31.19276,全职,不限
56,2673795,NLP自然语言处理工程师,上海,2018-04-27 10:43:43,28.0,35384,智慧芽,智慧芽信息科技（苏州）有限公司,150-500人,闸北区,博士,C轮,移动互联网,121.45252037,31.24602984,全职,不限
57,3800563,自然语言处理工程师,上海,2018-04-26 09:43:04,34.0,118456,江村市隐,上海江村市隐智能科技有限公司,50-150人,浦东新区,硕士,不需要融资,"移动互联网,企业服务",121.60192,31.20621,全职,3-5年
58,4306472,自然语言处理工程师,北京,2018-04-27 10:28:58,33.0,21732,FitTime睿健时代,北京飞拓互联科技有限公司,150-500人,朝阳区,本科,C轮,"移动互联网,社交网络",116.488426,40.000182,全职,1-3年
59,4251072,自然语言处理工程师,深圳,2018-04-27 09:23:29,21.0,10941,和而泰,深圳和而泰智能控制股份有限公司,2000人以上,南山区,硕士,上市公司,移动互联网,113.954321,22.537693,全职,3-5年
60,3595289,NLP工程师,北京,2018-04-27 11:21:05,28.0,173658,逸途科技,逸途（北京）科技有限公司,50-150人,朝阳区,硕士,A轮,"移动互联网,旅游",116.490632,39.985193,全职,1-3年
61,2735186,NLP工程师,北京,2018-04-29 01:21:48,30.2,7835,金山办公软件,北京金山软件有限公司,2000人以上,海淀区,本科,上市公司,移动互联网,116.32274,40.036741,全职,3-5年
62,2391694,文本挖掘/自然语言处理,郑州,2018-04-22 10:44:12,7.0,64166,大河网,大河网络传媒有限公司,150-500人,中原区,本科,不需要融资,文化娱乐,113.5759097,34.80743972,全职,1-3年
63,2412391,NLP研发工程师,北京,2018-04-28 09:15:04,24.0,1121,智课网,北京创新伙伴教育科技有限公司,500-2000人,海淀区,本科,B轮,"移动互联网,教育",115.99339,39.99426,全职,不限
64,4460931,nlp开发工程师,北京,2018-04-28 09:44:25,35.0,1880,快手,北京达佳互联信息技术有限公司,500-2000人,海淀区,本科,D轮及以上,移动互联网,116.316508,39.984066,全职,1-3年
65,3597665,自然语言处理工程师,北京,2018-04-27 11:15:43,19.0,28393,爱云校,北京修齐治平科技有限公司,500-2000人,朝阳区,本科,C轮,"教育,数据服务",116.481459,39.99646,全职,1-3年
66,4099697,自然语言处理/机器学习算法工程师,北京,2018-04-24 14:44:26,35.0,107423,瓜子二手车直卖网,车好多旧机动车经纪(北京)有限公司,2000人以上,海淀区,硕士,C轮,O2O,116.29993611,40.04311563,全职,3-5年
67,3152880,自然语言处理（资深 或 专家）,北京,2018-04-24 09:12:58,41.0,50702,美团点评,北京三快在线科技有限公司,2000人以上,朝阳区,硕士,D轮及以上,"移动互联网,O2O",116.466554,39.995147,全职,1-3年
68,4280464,NLP工程师-真格基金投资企业合作公司（仁信智清）,北京,2018-04-28 22:35:14,35.0,23702,真格基金,北京真格天成投资管理有限公司,50-150人,海淀区,本科,不需要融资,金融,0.0,0.0,全职,3-5年
69,1638591,自然语言处理工程师,北京,2018-04-28 11:01:53,21.0,3038,Gridsum 国双,北京国双科技有限公司,500-2000人,海淀区,本科,上市公司,"数据服务,企业服务",116.332441,39.976021,全职,3-5年
70,3774750,自然语言处理工程师,上海,2018-04-27 18:43:38,24.0,24995,泛微,上海泛微网络科技股份有限公司,2000人以上,闵行区,硕士,上市公司,"移动互联网,企业服务",121.52396,31.07979,全职,1-3年
71,4327950,自然语言处理工程师(NLP)-搜索研发中心,北京,2018-04-26 16:09:21,21.0,53992,苏宁易购,南京苏宁软件技术有限公司,2000人以上,朝阳区,本科,上市公司,"O2O,移动互联网",116.48608,40.008453,全职,3-5年
72,2563665,自然语言处理工程师,北京,2018-04-25 13:50:50,28.0,151386,物灵,北京物灵智能科技有限公司,150-500人,,硕士,不需要融资,"硬件,移动互联网",116.483242,39.997772,全职,不限
73,2725456,自然语言处理工程师,上海,2018-04-23 08:42:18,21.0,88978,海知智能,上海海知智能科技有限公司,50-150人,浦东新区,本科,A轮,"移动互联网,数据服务",121.62835,31.20842,全职,1-3年
74,4240513,自然语言处理工程师,厦门,2018-04-13 11:13:50,14.0,46961,厦门巨龙,厦门市巨龙信息科技有限公司,150-500人,湖里区,不限,不需要融资,"信息安全,数据服务",118.122723,24.520151,全职,1-3年
75,2105190,NLP工程师,北京,2018-04-28 11:01:53,21.0,3038,Gridsum 国双,北京国双科技有限公司,500-2000人,海淀区,本科,上市公司,"数据服务,企业服务",116.33175,39.97599007,全职,3-5年
76,4211206,NLP,上海,2018-04-27 17:14:23,35.0,24995,泛微,上海泛微网络科技股份有限公司,2000人以上,闵行区,硕士,上市公司,"移动互联网,企业服务",0.0,0.0,全职,1-3年
77,4236683,自然语言处理工程师,北京,2018-04-27 10:58:28,24.0,203500,坚果金服,北京坚果金服科技有限公司,150-500人,朝阳区,本科,不需要融资,金融,116.481049,39.996796,全职,1-3年
78,2853573,自然语言处理、语音助手资深算法工程师/专家,北京,2018-04-27 10:37:10,35.0,50702,美团点评,北京三快在线科技有限公司,2000人以上,朝阳区,本科,D轮及以上,"移动互联网,O2O",116.487622,40.006096,全职,3-5年
79,4178584,自然语言处理工程师,长沙,2018-03-31 08:48:22,10.6,61492,竞网,湖南竞网智赢网络技术有限公司,500-2000人,岳麓区,本科,不需要融资,移动互联网、电子商务,112.88645,28.207565,全职,1-3年
80,4015671,自然语言处理工程师,北京,2018-04-25 09:41:53,24.0,94,思必驰科技,苏州思必驰信息科技有限公司,150-500人,海淀区,本科,C轮,企业服务,116.323585,39.964647,全职,3-5年
81,4018036,NLP工程师,武汉,2018-04-28 16:06:09,14.0,7835,金山办公软件,北京金山软件有限公司,2000人以上,洪山区,本科,上市公司,移动互联网,114.42532,30.456379,全职,3-5年
82,3395753,智能问答-自然语言处理研究员,北京,2018-04-28 10:39:29,38.0,1537,搜狗,北京搜狗科技发展有限公司,2000人以上,海淀区,硕士,上市公司,"移动互联网,数据服务",116.33254,39.99366006,全职,3-5年
83,3850771,NLP研发工程师,北京,2018-04-26 19:31:35,28.0,82991,数美,北京数美时代科技有限公司,150-500人,朝阳区,本科,B轮,"企业服务,数据服务",116.465953,40.021083,全职,1-3年
84,3218888,自然语言处理,北京,2018-04-25 09:58:21,24.8,12557,百分点,北京百分点信息科技有限公司,500-2000人,朝阳区,硕士,D轮及以上,数据服务,116.38794,39.99906,全职,1-3年
85,3931087,自然语言处理专家,上海,2018-04-28 10:53:02,20.0,98800,竹间智能科技(上海)有限公司,竹间智能科技（上海）有限公司,150-500人,徐汇区,硕士,B轮,"移动互联网,其他",121.417459,31.175027,全职,不限
86,3464621,自然语言处理,杭州,2018-04-27 11:57:30,31.0,329,网易,网易（杭州）有限公司,2000人以上,滨江区,本科,上市公司,"电子商务,移动互联网",120.194421,30.189094,全职,3-5年
87,4035605,自然语言处理工程师,南京,2018-04-17 16:56:24,28.0,191905,通达海,南京通达海信息技术有限公司,500-2000人,鼓楼区,硕士,不需要融资,移动互联网,118.770427,32.050262,全职,1-3年
88,4473706,NLP（自然语言处理） leader,北京,2018-04-24 15:36:27,42.0,129068,阿博茨科技,北京阿博茨科技有限公司,50-150人,海淀区,本科,A轮,移动互联网,116.351927,40.010038,全职,不限
89,3824300,自然语言处理,北京,2018-04-09 19:49:01,35.0,5832,新浪微博,微梦创科网络科技（中国）有限公司,2000人以上,海淀区,硕士,上市公司,移动互联网,0.0,0.0,全职,3-5年
90,3783954,自然语言处理工程师,上海,2018-04-27 18:42:53,27.0,24995,泛微,上海泛微网络科技股份有限公司,2000人以上,闵行区,硕士,上市公司,"移动互联网,企业服务",121.52396,31.07979,全职,3-5年
91,3267027,自然语言处理研究员,北京,2018-04-25 14:20:42,61.0,50702,美团点评,北京三快在线科技有限公司,2000人以上,朝阳区,本科,D轮及以上,"移动互联网,O2O",116.48864,40.007096,全职,5-10年
92,4265820,自然语言处理及-真格基金投资企业合作公司-三角兽,北京,2018-04-27 18:28:57,34.0,23702,真格基金,北京真格天成投资管理有限公司,50-150人,海淀区,本科,不需要融资,金融,116.424217,39.984589,全职,3-5年
93,4019442,自然语言处理工程师,北京,2018-04-24 20:08:47,32.2,62,字节跳动,北京字节跳动科技有限公司,2000人以上,海淀区,本科,C轮,"移动互联网,数据服务",116.332602,39.971268,全职,1-3年
94,4062980,自然语言处理高级工程师,广州,2018-04-28 12:37:17,22.4,310815,经传多赢,广州经传多赢投资咨询有限公司,2000人以上,番禺区,硕士,不需要融资,"移动互联网,金融",0.0,0.0,全职,1-3年
95,3526658,自然语言处理工程师,重庆,2018-04-19 14:44:43,11.2,41553,誉存科技,重庆誉存大数据科技有限公司,50-150人,渝北区,本科,A轮,金融,106.498729,29.614292,全职,3-5年
96,3529487,智能对话-自然语言处理研究员,北京,2018-04-28 10:39:29,28.0,1537,搜狗,北京搜狗科技发展有限公司,2000人以上,海淀区,硕士,上市公司,"移动互联网,数据服务",116.33254,39.99366006,全职,3-5年
97,4389604,自然语言处理工程师,北京,2018-04-23 09:37:39,19.0,318794,汉云益生,北京汉云益生软件科技有限公司,少于15人,朝阳区,本科,不需要融资,移动互联网,116.449663,39.963051,全职,1-3年
98,4395077,自然语言处理专家,北京,2018-04-26 13:03:08,35.0,195855,转转,北京转转精神科技有限责任公司,500-2000人,海淀区,本科,A轮,"移动互联网,生活服务",116.360315,40.039775,全职,3-5年
99,3834322,自然语言处理研发工程师,上海,2018-04-28 10:07:03,28.0,7030,触宝,上海触乐信息科技有限公司,150-500人,徐汇区,本科,D轮及以上,"移动互联网,数据服务",121.393969,31.172406,全职,3-5年
100,3629604,nlp,北京,2018-04-28 18:54:27,31.0,3786,宜信,普信恒业科技发展（北京）有限公司,2000人以上,朝阳区,本科,上市公司,金融,116.48057,39.910341,全职,不限
101,3546174,自然语言处理工程师,北京,2018-04-24 18:03:23,28.0,212939,一览科技,北京一览科技有限公司,150-500人,朝阳区,本科,B轮,"移动互联网,文化娱乐",116.465903,40.020713,全职,3-5年
102,3790344,自然语言处理工程师,深圳,2018-04-23 11:34:02,21.0,54631,丝路天地,深圳丝路天地电子商务有限公司,50-150人,南山区,本科,A轮,旅游,113.914678,22.514453,全职,1-3年
103,4013924,NLP开发工程师,北京,2018-04-28 10:34:50,28.0,150239,考拉阅读,北京享阅教育科技有限公司,50-150人,海淀区,本科,B轮,"教育,移动互联网",116.30982,39.983452,全职,3-5年
104,4051131,自然语言处理负责人,北京,2018-04-27 16:24:25,41.0,50604,roobo,北京智能管家科技有限公司,150-500人,东城区,本科,B轮,移动互联网,116.433221,39.920718,全职,3-5年
105,4176036,NLP工程师/专家/研究员,北京,2018-04-27 20:24:28,56.0,50702,美团点评,北京三快在线科技有限公司,2000人以上,朝阳区,本科,D轮及以上,"移动互联网,O2O",116.488124,40.008716,全职,5-10年
106,3776995,自然语言处理工程师,上海,2018-04-27 17:14:20,28.0,24995,泛微,上海泛微网络科技股份有限公司,2000人以上,闵行区,硕士,上市公司,"移动互联网,企业服务",121.525236,31.080356,全职,1-3年
107,2711633,信息流-自然语言处理研究员,北京,2018-04-28 10:39:34,21.0,1537,搜狗,北京搜狗科技发展有限公司,2000人以上,海淀区,硕士,上市公司,"移动互联网,数据服务",116.33254,39.99366006,全职,3-5年
108,3889408,NLP自然语言处理工程师,北京,2018-04-24 18:03:23,35.0,212939,一览科技,北京一览科技有限公司,150-500人,朝阳区,本科,B轮,"移动互联网,文化娱乐",116.465903,40.020713,全职,不限
109,3723124,自然语言处理高级工程师,北京,2018-04-28 10:07:04,38.0,7030,触宝,上海触乐信息科技有限公司,150-500人,朝阳区,硕士,D轮及以上,"移动互联网,数据服务",116.454659,39.920088,全职,3-5年
110,4055838,文本挖掘/自然语言处理工程师,合肥,2018-04-26 17:28:25,10.8,36272,飞常准,飞友科技有限公司,150-500人,蜀山区,本科,A轮,移动互联网,0.0,0.0,全职,3-5年
111,4111212,NLP自然语言处理专家,北京,2018-04-18 17:36:17,42.0,129068,阿博茨科技,北京阿博茨科技有限公司,50-150人,海淀区,本科,A轮,移动互联网,116.351927,40.010038,全职,3-5年
112,3423631,自然语言处理,北京,2018-04-17 15:18:05,35.0,517,京东商城,北京京东世纪贸易有限公司,2000人以上,海淀区,硕士,D轮及以上,电子商务,116.303276,40.035542,全职,3-5年
113,4494835,自然语言处理工程师,上海,2018-04-27 16:15:17,31.0,5002,谷露软件,上海谷露软件有限公司,50-150人,黄浦区,本科,A轮,"数据服务,招聘",121.481062,31.230438,全职,不限
114,4380422,产品经理-NLP,北京,2018-04-26 10:37:19,28.0,172285,猎户星空,北京猎户星空科技有限公司,150-500人,朝阳区,本科,A轮,"移动互联网,硬件",116.458741,39.932851,全职,不限
115,3992142,自然语言处理工程师,上海,2018-04-20 11:05:45,34.0,1499,学霸君,上海谦问万答吧云计算科技有限公司,150-500人,杨浦区,硕士,C轮,"移动互联网,教育",121.51123519,31.30683942,全职,3-5年
116,4002145,NLP（自然语言处理）工程师,北京,2018-04-18 10:25:04,49.0,124962,麦达数字,深圳市麦达数字股份有限公司,500-2000人,朝阳区,本科,上市公司,"企业服务,数据服务",116.488635,40.003335,全职,3-5年
117,3380263,自然语言处理工程师（NLP）,北京,2018-04-10 10:15:02,42.0,329,网易,网易（杭州）有限公司,2000人以上,海淀区,硕士,上市公司,"电子商务,移动互联网",116.275949,40.042894,全职,3-5年
118,3525548,自然语言处理研究员,北京,2018-04-27 10:11:29,42.0,1650,联想集团,联想（北京）有限公司,2000人以上,海淀区,硕士,上市公司,"移动互联网,数据服务",116.273572,40.046061,全职,1-3年
119,3591733,自然语言处理工程师,上海,2018-04-26 16:56:40,28.0,26962,上海你我贷互联网金融信息服务,上海你我贷互联网金融信息服务有限公司,2000人以上,浦东新区,硕士,未融资,金融,121.53432,31.21679986,全职,3-5年
120,3991026,自然语言处理工程师,上海,2018-04-27 14:53:26,24.0,24995,泛微,上海泛微网络科技股份有限公司,2000人以上,闵行区,本科,上市公司,"移动互联网,企业服务",121.52396,31.07979,全职,1-3年
121,2768118,智能语音-自然语言处理研究员,北京,2018-04-28 10:39:34,28.0,1537,搜狗,北京搜狗科技发展有限公司,2000人以上,海淀区,硕士,上市公司,"移动互联网,数据服务",116.331221,39.993366,全职,1-3年
122,4183957,自然语言处理、语音助手资深算法工程师/专家,北京,2018-04-17 10:37:00,28.0,50702,美团点评,北京三快在线科技有限公司,2000人以上,朝阳区,本科,D轮及以上,"移动互联网,O2O",116.48776,40.008007,全职,3-5年
123,4184431,自然语言处理工程师,南京,2018-04-25 10:39:53,24.0,83580,地平线机器人,北京地平线信息技术有限公司,150-500人,栖霞区,本科,A轮,"移动互联网,硬件",118.87782668,32.1369331,全职,不限
124,4473635,NLP 自然语言处理专家,北京,2018-04-24 15:31:38,38.0,129068,阿博茨科技,北京阿博茨科技有限公司,50-150人,海淀区,本科,A轮,移动互联网,116.351927,40.010038,全职,3-5年
125,4481143,NLP工程师-（全球化增长）,北京,2018-04-29 03:06:40,38.0,1880,快手,北京达佳互联信息技术有限公司,500-2000人,海淀区,本科,D轮及以上,移动互联网,116.316508,39.984066,全职,不限
126,3855868,NLP,北京,2018-04-28 09:02:05,35.0,289412,时度检测,杭州时度检测技术有限公司,15-50人,朝阳区,本科,不需要融资,"企业服务,其他",116.443108,39.92147,全职,3-5年
127,4461988,自然语言处理nlp,香港特别行政区,2018-04-26 19:16:47,21.0,294517,Lanternfish,藍燈魚有限公司,少于15人,沙田区,本科,未融资,企业服务,0.0,0.0,全职,不限
128,3936188,自然语言处理工程师/数据挖掘工程师,北京,2018-04-27 11:39:47,28.0,7835,金山办公软件,北京金山软件有限公司,2000人以上,海淀区,本科,上市公司,移动互联网,116.32274,40.036741,全职,3-5年
129,1426860,NLP自然语言处理工程师,深圳,2018-04-19 09:53:39,28.0,12745,英威诺,深圳市英威诺科技有限公司,150-500人,南山区,本科,C轮,"移动互联网,数据服务",113.95222201,22.53679703,全职,3-5年
130,4038288,自然语言处理专家,北京,2018-04-02 14:39:28,38.0,1650,联想集团,联想（北京）有限公司,2000人以上,海淀区,本科,上市公司,"移动互联网,数据服务",116.273572,40.046061,全职,5-10年
131,4461336,NLP开发工程师,郑州,2018-04-22 10:41:22,9.4,64166,大河网,大河网络传媒有限公司,150-500人,中原区,本科,不需要融资,文化娱乐,113.993612,34.993681,全职,3-5年
132,4075451,自然语言处理(NLP)高级工程师,广州,2018-04-29 19:20:49,18.2,254799,小鹏汽车,广州小鹏汽车科技有限公司,150-500人,黄埔区,本科,A轮,"移动互联网,硬件",113.496556,23.153887,全职,3-5年
133,1619472,自然语言处理工程师,深圳,2018-04-26 15:47:12,28.0,117189,追一科技,深圳追一科技有限公司,150-500人,南山区,硕士,B轮,"移动互联网,企业服务",113.947593,22.546344,全职,不限
134,2660269,资深NLP工程师,北京,2018-04-28 11:01:53,35.0,3038,Gridsum 国双,北京国双科技有限公司,500-2000人,海淀区,本科,上市公司,"数据服务,企业服务",116.33175,39.97599007,全职,3-5年
135,3169736,搜狗输入法-自然语言处理研发工程师,北京,2018-04-28 10:39:31,28.0,1537,搜狗,北京搜狗科技发展有限公司,2000人以上,海淀区,本科,上市公司,"移动互联网,数据服务",116.33254,39.99366006,全职,3-5年
136,4086677,自然语言处理工程师,上海,2018-04-27 17:38:20,35.0,24995,泛微,上海泛微网络科技股份有限公司,2000人以上,闵行区,硕士,上市公司,"移动互联网,企业服务",121.52396,31.07979,全职,3-5年
137,4168225,NLP自然语言处理专家/资深工程师,北京,2018-04-13 15:48:49,35.0,129068,阿博茨科技,北京阿博茨科技有限公司,50-150人,海淀区,本科,A轮,移动互联网,116.351927,40.010038,全职,1-3年
138,3602329,自然语言处理专家,北京,2018-04-27 10:11:28,42.0,1650,联想集团,联想（北京）有限公司,2000人以上,海淀区,本科,上市公司,"移动互联网,数据服务",116.29846,40.0534,全职,5-10年
139,4435084,NLP领域专家,北京,2018-04-25 19:56:39,42.0,6927,OPPO,广东欧珀移动通信有限公司,2000人以上,朝阳区,本科,不需要融资,移动互联网,116.474022,39.935669,全职,3-5年
140,4151435,NLP算法,北京,2018-04-28 16:40:00,28.0,210070,深睿医疗,北京深睿博联科技有限责任公司,50-150人,海淀区,硕士,B轮,"移动互联网,医疗健康",116.312183,39.981536,全职,1-3年
141,4095703,NLP Intern(实习可转正）,上海,2018-04-27 10:43:43,21.0,35384,智慧芽,智慧芽信息科技（苏州）有限公司,150-500人,闸北区,硕士,C轮,移动互联网,121.45252,31.24603,全职,应届毕业生
142,4206349,NLP自然语言处理高级工程师,北京,2018-04-29 01:21:47,26.0,7835,金山办公软件,北京金山软件有限公司,2000人以上,海淀区,本科,上市公司,移动互联网,116.32274,40.036741,全职,3-5年
143,3201125,自然语言处理工程师,北京,2018-04-27 17:38:57,26.0,26087,美洽,成都美洽网络科技有限公司,50-150人,昌平区,本科,B轮,企业服务,116.313544,40.067385,全职,1-3年
144,3266843,自然语言处理资深专家,北京,2018-04-25 14:20:42,61.0,50702,美团点评,北京三快在线科技有限公司,2000人以上,朝阳区,本科,D轮及以上,"移动互联网,O2O",116.48864,40.007096,全职,5-10年
145,3449731,自然语言处理高级工程师,北京,2018-04-24 17:25:48,35.0,171980,Rokid,芋头科技（杭州）有限公司,150-500人,海淀区,硕士,B轮,"电子商务,移动互联网",116.359972,40.039972,全职,不限
146,2546986,自然语言处理专家,上海,2018-04-28 10:17:07,28.0,126031,Datatist,上海画龙信息科技有限公司,15-50人,徐汇区,硕士,A轮,"数据服务,广告营销",121.430695,31.187352,全职,3-5年
147,4426505,自然语言处理,北京,2018-04-16 14:30:30,21.0,355369,艾漫数据,北京艾漫数据科技股份有限公司,50-150人,朝阳区,硕士,上市公司,移动互联网 文化娱乐,116.504359,39.983643,全职,1-3年
148,3929858,自然语言处理工程师NLP,北京,2018-04-26 09:37:53,28.0,136443,马上金融,马上消费金融股份有限公司,2000人以上,朝阳区,硕士,不需要融资,"金融,移动互联网",116.488656,40.002842,全职,3-5年
149,4461482,NLP工程师,杭州,2018-04-22 13:39:47,21.0,166067,暄暄科技,北京暄暄科技有限公司,50-150人,西湖区,本科,A轮,"企业服务,教育",120.13775,30.27575,全职,1-3年
150,4405850,自然语言处理工程师,上海,2018-04-27 17:38:19,35.0,24995,泛微,上海泛微网络科技股份有限公司,2000人以上,闵行区,硕士,上市公司,"移动互联网,企业服务",121.52396,31.07979,全职,3-5年
151,4458832,自然语言处理,北京,2018-04-20 17:54:22,10.8,160863,金准基因,北京金准基因科技有限责任公司,50-150人,海淀区,不限,未融资,医疗健康,116.568441,39.780613,全职,不限
152,3519867,NLP工程师,北京,2018-04-13 15:25:58,35.0,25592,新浪网,新浪网技术（中国）有限公司,2000人以上,海淀区,本科,上市公司,文化娱乐,116.27596971,40.04193985,全职,1-3年
153,3668785,自然语言处理（NLP）工程师,北京,2018-04-28 17:06:47,49.0,234053,任你说,杭州任你说智能科技有限公司,15-50人,海淀区,本科,不需要融资,硬件,116.288015,40.046741,全职,1-3年
154,2636814,自然语言处理专家,上海,2018-04-28 10:17:07,21.0,126031,Datatist,上海画龙信息科技有限公司,15-50人,徐汇区,本科,A轮,"数据服务,广告营销",0.0,0.0,全职,3-5年
155,4429641,自然语言处理（NLP）专家,杭州,2018-04-23 13:43:06,48.0,22790,网易游戏,广州博冠信息科技有限公司,2000人以上,滨江区,硕士,上市公司,游戏,120.19207,30.191349,全职,不限
156,4404070,自然语言处理工程师（NLP）,广州,2018-04-28 18:14:45,28.0,274523,逗号智能零售,广州逗号智能零售有限公司,50-150人,天河区,本科,不需要融资,"移动互联网,生活服务",113.321959,23.118733,全职,不限
157,4497046,机器学习-NLP方向,北京,2018-04-28 09:47:15,22.8,236405,曜辉科技,北京曜辉信息科技有限公司,15-50人,朝阳区,本科,未融资,"移动互联网,企业服务",116.465953,40.021083,全职,不限
158,4494617,自然语言处理工程师,广州,2018-04-27 15:56:35,14.0,205323,业速教育,广州业速教育科技有限公司,15-50人,荔湾区,本科,未融资,移动互联网,113.241093,23.150006,全职,1-3年
159,2124630,自然语言处理,杭州,2018-04-26 16:44:38,14.0,80625,杭州数睿科技,杭州数睿科技有限公司,50-150人,西湖区,硕士,A轮,"医疗健康,移动互联网",120.149113,30.281483,全职,不限
160,3475192,NLP自然语言处理工程师,上海,2018-04-22 14:34:57,19.0,97882,达观数据,达而观信息科技（上海）有限公司,50-150人,浦东新区,硕士,A轮,移动互联网,121.60245,31.199732,全职,1-3年
161,3890849,NLP工程师,北京,2018-04-17 10:55:04,36.0,106303,搜狐集团,北京搜狐新媒体信息技术有限公司,2000人以上,海淀区,本科,上市公司,"移动互联网,广告营销",0.0,0.0,全职,3-5年
162,3454449,自然语言处理工程师（可实习）,南京,2018-04-28 13:51:56,16.8,13789,扇贝,南京贝湾教育科技有限公司,150-500人,玄武区,不限,B轮,"移动互联网,教育",118.883177,32.082556,全职,1-3年
163,4375444,NLP研究员,北京,2018-04-24 13:37:28,35.0,70,宝宝树,宝宝树（北京）信息技术有限公司,500-2000人,朝阳区,本科,D轮及以上,社交网络,116.462261,39.92798,全职,1-3年
164,3654494,NLP工程师,深圳,2018-04-08 11:31:54,19.0,184532,Bello,深圳呗佬智能有限公司,15-50人,南山区,本科,A轮,移动互联网,113.938223,22.523806,全职,1-3年
165,3782680,自然语言处理工程师,上海,2018-04-27 14:53:24,34.0,24995,泛微,上海泛微网络科技股份有限公司,2000人以上,闵行区,本科,上市公司,"移动互联网,企业服务",121.52396,31.07979,全职,3-5年
166,3306990,自然语言处理工程师,北京,2018-04-25 09:35:56,28.0,25592,新浪网,新浪网技术（中国）有限公司,2000人以上,海淀区,本科,上市公司,文化娱乐,116.276316,40.041543,全职,1-3年
167,3195029,AI工程师/NLP,上海,2018-04-08 11:05:10,28.0,105718,平安健康互联网,平安健康互联网股份有限公司上海分公司,2000人以上,徐汇区,本科,A轮,"移动互联网,医疗健康",121.456311,31.182764,全职,5-10年
168,2770809,NLP/数据挖掘工程师,北京,2018-04-27 11:04:10,15.0,6364,新华网,新华网股份有限公司,500-2000人,西城区,硕士,上市公司,"移动互联网,文化娱乐",116.359914,39.900372,全职,3-5年
169,4492628,自然语言处理工程师,厦门,2018-04-27 11:40:02,17.0,374426,多维树,厦门多维树信息科技有限公司,少于15人,思明区,硕士,天使轮,数据服务,118.182556,24.485157,全职,1-3年
170,4489872,自然语言处理工程师,南京,2018-04-26 17:50:55,19.0,106228,小视科技,南京甄视智能科技有限公司,50-150人,江宁区,本科,B轮,"移动互联网,金融",118.89317,31.926099,全职,3-5年
171,3390563,NLP中级工程师,武汉,2018-04-26 14:53:15,10.8,111175,ZingFront智线,智线云科技（北京）有限公司,50-150人,洪山区,本科,A轮,"移动互联网,数据服务",0.0,0.0,全职,1-3年
172,4268871,自然语言处理研究员,北京,2018-04-19 15:04:08,38.0,341348,孚臻咨询,北京孚臻咨询顾问有限公司,少于15人,海淀区,硕士,不需要融资,不限,116.317971,39.975484,全职,3-5年
173,3450269,NLP资深专家,北京,2018-04-28 13:33:52,34.0,57049,InnoTREE,北京因果树网络科技有限公司,50-150人,海淀区,本科,B轮,金融,116.306683,39.984791,全职,5-10年
174,1530650,NLP 研发工程师,北京,2018-04-27 11:18:12,24.0,62831,明略数据,北京明略软件系统有限公司,150-500人,朝阳区,本科,C轮,数据服务,116.41208054,40.04674874,全职,不限
175,2228002,自然语言处理工程师,北京,2018-04-27 10:57:52,28.0,129,陌陌,北京陌陌科技有限公司,500-2000人,朝阳区,硕士,上市公司,社交网络,115.99339,39.99426,全职,1-3年
176,3856120,自然语言处理实习生,北京,2018-04-24 19:20:24,4.4,21421,多牛传媒,北京多牛互动传媒股份有限公司,150-500人,海淀区,硕士,上市公司,文化娱乐,116.377085,40.035285,实习,应届毕业生
177,4188539,自然语言处理NLP/机器学习,北京,2018-04-28 21:04:02,42.0,93936,生命奇点,生命奇点（北京）科技有限公司,50-150人,海淀区,硕士,A轮,"医疗健康,数据服务",,,全职,1-3年
178,4381600,自然语言处理工程师,北京,2018-04-26 14:00:18,21.0,328502,增强智能,北京增强智能科技有限公司,15-50人,昌平区,本科,A轮,移动互联网,116.347137,40.080199,全职,1-3年
179,4454097,全栈开发工程师 Java+NLP,上海,2018-04-26 10:43:48,28.0,93845,花旗金融,花旗金融信息服务(中国)有限公司,2000人以上,浦东新区,本科,不需要融资,"金融,数据服务",121.60139,31.20003,全职,5-10年
180,3941679,nlp,上海,2018-04-27 17:14:22,28.0,24995,泛微,上海泛微网络科技股份有限公司,2000人以上,闵行区,硕士,上市公司,"移动互联网,企业服务",121.525236,31.080356,全职,1-3年
181,4274121,自然语言处理,上海,2018-04-29 17:25:50,34.0,308721,贤广信科,上海贤广信息科技有限公司,少于15人,嘉定区,本科,未融资,"移动互联网,硬件",121.162584,31.290153,全职,5-10年
182,1409231,NLP 中级工程师,北京,2018-04-26 14:53:15,18.6,111175,ZingFront智线,智线云科技（北京）有限公司,50-150人,朝阳区,本科,A轮,"移动互联网,数据服务",116.472483,39.93868,全职,3-5年
183,4222715,自然语言处理主任研究员,上海,2018-04-25 09:41:54,28.0,94,思必驰科技,苏州思必驰信息科技有限公司,150-500人,徐汇区,本科,C轮,企业服务,121.451012,31.16642,全职,3-5年
184,4461489,NLP实习生,杭州,2018-04-22 13:44:45,5.6,166067,暄暄科技,北京暄暄科技有限公司,50-150人,西湖区,硕士,A轮,"企业服务,教育",120.13775,30.27575,实习,应届毕业生
185,3662533,自然语言处理工程师-ICTR,北京,2018-04-28 09:45:37,19.0,71380,CTR,央视市场研究股份有限公司,500-2000人,西城区,本科,D轮及以上,广告营销,116.379479,39.964612,全职,1-3年
186,3167178,自然语言处理研发工程师-滴滴研究院(J000800),北京,2018-04-28 10:26:35,28.0,2474,滴滴出行,北京嘀嘀无限科技发展有限公司,2000人以上,海淀区,不限,不需要融资,移动互联网,116.28896,40.04373007,全职,不限
187,3723137,自然语言处理高级工程师,上海,2018-04-28 10:07:03,38.0,7030,触宝,上海触乐信息科技有限公司,150-500人,徐汇区,硕士,D轮及以上,"移动互联网,数据服务",121.393969,31.172406,全职,3-5年
188,4421030,NLP自然语言处理研发主管,北京,2018-04-28 00:05:52,40.0,3112,沪江,沪江教育科技（上海）股份有限公司,500-2000人,海淀区,本科,D轮及以上,"移动互联网,教育",116.333669,39.994252,全职,5-10年
189,3541129,高级自然语言处理工程师NLP,北京,2018-04-24 09:12:59,37.2,50702,美团点评,北京三快在线科技有限公司,2000人以上,朝阳区,硕士,D轮及以上,"移动互联网,O2O",116.466554,39.995147,全职,1-3年
190,4451041,自然语言处理专家,上海,2018-04-19 16:13:20,33.0,39497,易鑫集团,北京看看车科技有限公司,2000人以上,静安区,本科,上市公司,企业服务,121.452581,31.226442,全职,不限
191,3729122,自然语言处理工程师,广州,2018-04-19 09:49:32,21.0,20473,广州棒谷科技股份有限公司,广州棒谷科技股份有限公司,2000人以上,白云区,硕士,不需要融资,电子商务,113.271506,23.175202,全职,1-3年
192,4398663,自然语言处理专家,深圳,2018-04-18 09:42:47,47.0,2352,鹏元征信有限公司,鹏元征信有限公司,150-500人,福田区,硕士,不需要融资,"金融,数据服务",113.993578,22.99368,全职,5-10年
193,4358473,自然语言处理/机器学习专家,成都,2018-04-28 11:16:13,38.0,139755,京东商城,北京京东世纪贸易有限公司,2000人以上,武侯区,本科,上市公司,电子商务,103.97669,30.634318,全职,5-10年
194,3963395,自然语言处理高级工程师,北京,2018-04-25 16:57:42,29.0,40520,清帆科技,北京清帆科技有限公司,15-50人,海淀区,硕士,A轮,"移动互联网,教育",116.292868,40.047683,全职,3-5年
195,4455592,nlp开发工程师,上海,2018-04-27 17:14:22,28.0,24995,泛微,上海泛微网络科技股份有限公司,2000人以上,闵行区,硕士,上市公司,"移动互联网,企业服务",0.0,0.0,全职,1-3年
196,4246437,高级自然语言处理工程师,苏州,2018-04-25 09:41:53,28.0,94,思必驰科技,苏州思必驰信息科技有限公司,150-500人,工业园区,大专,C轮,企业服务,120.723343,31.324036,全职,5-10年
197,3520643,高级自然语言处理工程师,上海,2018-04-28 00:05:52,38.0,3112,沪江,沪江教育科技（上海）股份有限公司,500-2000人,浦东新区,本科,D轮及以上,"移动互联网,教育",121.603788,31.202542,全职,3-5年
198,4490844,资深自然语言处理工程师（NLP）,上海,2018-04-27 17:23:49,35.0,50702,美团点评,北京三快在线科技有限公司,2000人以上,长宁区,本科,D轮及以上,"移动互联网,O2O",0.0,0.0,全职,3-5年
199,3512330,NLP研发工程师,北京,2018-04-23 19:56:47,35.0,6542,小红书,行吟信息科技（上海）有限公司,500-2000人,朝阳区,本科,C轮,"生活服务,电子商务",116.488635,40.003335,全职,3-5年
200,4054617,NLP算法,北京,2018-04-23 17:12:40,28.0,1880,快手,北京达佳互联信息技术有限公司,500-2000人,海淀区,本科,D轮及以上,移动互联网,116.331194,39.993965,全职,3-5年
201,3746499,自然语言处理算法工程师,北京,2018-04-28 17:01:24,26.0,153842,健科云,北京健科云网科技有限公司,50-150人,海淀区,本科,不需要融资,"移动互联网,医疗健康",116.314898,40.036109,全职,3-5年
202,3194364,自然语言处理算法工程师,上海,2018-04-28 14:09:09,22.8,27962,星环科技,星环信息科技（上海）有限公司,150-500人,徐汇区,硕士,C轮,数据服务,121.41044957,31.17032939,全职,不限
203,1937499,NLP 中级工程师,廊坊,2018-04-26 14:53:15,10.8,111175,ZingFront智线,智线云科技（北京）有限公司,50-150人,广阳区,本科,A轮,"移动互联网,数据服务",116.71504961,39.55349011,全职,1-3年
204,887821,NLP工程师,北京,2018-04-24 10:57:51,38.0,125449,智齿科技,北京智齿博创科技有限公司,150-500人,海淀区,硕士,C轮,"移动互联网,企业服务",116.305489,39.982284,全职,3-5年
205,3930539,自然语言处理（NLP）实习生,长沙,2018-04-28 08:53:45,2.4,139603,阡寻,长沙阡寻信息科技有限公司,15-50人,岳麓区,本科,A轮,数据服务,112.882369,28.230937,实习,应届毕业生
206,4417712,NLP工程师（中高级）,北京,2018-04-27 11:21:04,38.0,173658,逸途科技,逸途（北京）科技有限公司,50-150人,朝阳区,硕士,A轮,"移动互联网,旅游",116.490632,39.985193,全职,3-5年
207,4306502,自然语言处理初级工程师,北京,2018-04-27 10:34:06,33.0,21732,FitTime睿健时代,北京飞拓互联科技有限公司,150-500人,朝阳区,本科,C轮,"移动互联网,社交网络",116.488426,40.000182,全职,1-3年
208,1912164,自然语言处理（语义理解）,北京,2018-04-26 16:56:17,35.0,23004,图灵机器人,北京光年无限科技有限公司,150-500人,,硕士,B轮,移动互联网,,,全职,3-5年
209,3682936,自然语言处理工程师,苏州,2018-04-24 18:00:56,21.0,8288,网龙网络有限公司,福建网龙计算机网络信息技术有限公司,2000人以上,工业园区,硕士,上市公司,"移动互联网,教育",120.732665,31.264799,全职,1-3年
210,4116525,资深自然语言处理研发工程师 (MJ000658),北京,2018-04-26 15:07:00,35.0,3112,沪江,沪江教育科技（上海）股份有限公司,500-2000人,海淀区,不限,D轮及以上,"移动互联网,教育",116.333669,39.994252,全职,1-3年
211,3168781,自然语言处理工程师,上海,2018-04-27 17:14:58,21.0,170297,东方头条,上海嵩恒网络科技股份有限公司,500-2000人,浦东新区,硕士,不需要融资,"移动互联网,社交网络",121.628574,31.205011,全职,1-3年
212,4310098,自然语言处理研发工程师,北京,2018-04-24 18:38:57,28.0,125449,智齿科技,北京智齿博创科技有限公司,150-500人,海淀区,本科,C轮,"移动互联网,企业服务",116.30533,39.982357,全职,3-5年
213,3107137,自然语言处理工程师（NLP）,上海,2018-04-28 17:49:30,28.0,2002,足球魔方,上海好体信息科技有限公司,150-500人,徐汇区,硕士,C轮,"移动互联网,电子商务",120.993464,30.994061,全职,3-5年
214,4404030,NLP算法工程师,北京,2018-04-27 17:47:16,49.0,50702,美团点评,北京三快在线科技有限公司,2000人以上,朝阳区,硕士,D轮及以上,"移动互联网,O2O",116.48776,40.008007,全职,5-10年
215,4400866,自然语言处理高级研究员,北京,2018-04-25 09:29:47,28.0,37986,世纪超星,北京世纪超星信息技术发展有限责任公司,2000人以上,海淀区,硕士,不需要融资,教育、移动互联网,116.30759,40.046882,全职,3-5年
216,3963527,NLP自然语言处理实习生,北京,2018-04-26 10:37:20,8.4,172285,猎户星空,北京猎户星空科技有限公司,150-500人,朝阳区,本科,A轮,"移动互联网,硬件",116.458741,39.932851,实习,不限
217,3775246,自然语言处理工程师,上海,2018-04-27 14:53:24,38.0,24995,泛微,上海泛微网络科技股份有限公司,2000人以上,闵行区,本科,上市公司,"移动互联网,企业服务",121.52396,31.07979,全职,3-5年
218,1337170,自然语言处理工程师(NLP),北京,2018-04-26 09:32:24,21.0,28723,苏宁北研,苏宁云商集团IT总部北京研发中心,2000人以上,朝阳区,本科,上市公司,"移动互联网,电子商务",,,全职,3-5年
219,3968030,自然语言处理工程师,北京,2018-04-23 08:42:17,21.0,88978,海知智能,上海海知智能科技有限公司,50-150人,海淀区,本科,A轮,"移动互联网,数据服务",116.302304,39.986014,全职,1-3年
220,1445883,自然语言处理,深圳,2018-04-28 16:46:38,28.0,113607,主要是IT通讯及互联网行业业务,深圳市嘉德软件有限公司,50-150人,福田区,硕士,不需要融资,"移动互联网,电子商务",114.01952631,22.53987904,全职,3-5年
221,4453828,nlp 自然语言,北京,2018-04-20 09:35:12,35.0,307762,泽天创新,北京泽天创新商贸有限公司,50-150人,海淀区,本科,A轮,移动互联网 电子商务,116.298056,39.959912,全职,3-5年
222,4377540,算法&amp;nlp工程师--北京,北京,2018-04-07 00:28:40,28.0,23291,美图公司,厦门美图之家科技有限公司,500-2000人,海淀区,不限,上市公司,"移动互联网,硬件",39.897445,116.331398,全职,3-5年
223,4485574,研究员（自然语言处理）-研究院,合肥,2018-04-26 11:12:35,21.0,21980,科大讯飞,科大讯飞股份有限公司,2000人以上,高新区,硕士,上市公司,"移动互联网,数据服务",117.139798,31.833104,全职,1-3年
224,4123205,自然语言处理算法工程师,北京,2018-04-28 14:03:01,38.0,5832,新浪微博,微梦创科网络科技（中国）有限公司,2000人以上,海淀区,硕士,上市公司,移动互联网,116.30920139,39.98291734,全职,3-5年
225,4421034,NLP自然语言处理研发主管,上海,2018-04-28 00:05:52,40.0,3112,沪江,沪江教育科技（上海）股份有限公司,500-2000人,浦东新区,本科,D轮及以上,"移动互联网,教育",121.603788,31.202542,全职,5-10年
226,3662685,NLP工程师,武汉,2018-04-26 11:41:16,14.0,22634,大洋,北京中科大洋科技发展股份有限公司,500-2000人,江夏区,本科,未融资,文化娱乐,114.410564,30.457982,全职,1-3年
227,3393482,自然语言处理、语音助手资深算法工程师/专家,北京,2018-04-12 13:54:59,42.0,50702,美团点评,北京三快在线科技有限公司,2000人以上,朝阳区,本科,D轮及以上,"移动互联网,O2O",116.487501,40.008268,全职,5-10年
228,3691059,​2345输入法 - 自然语言处理研发工程师,上海,2018-04-25 13:09:15,24.0,6082,2345.com,上海二三四五网络科技有限公司,500-2000人,浦东新区,本科,上市公司,"数据服务,移动互联网",121.59765,31.173872,全职,3-5年
229,3724962,NLP Software Engineer,北京,2018-04-25 11:43:51,21.0,41558,SAS,赛仕软件研究开发（北京）有限公司,150-500人,朝阳区,硕士,不需要融资,"企业服务,数据服务",116.484427,40.006941,全职,3-5年
230,4418789,自然语言处理工程师/专家,北京,2018-04-25 10:07:20,28.0,107423,瓜子二手车直卖网,车好多旧机动车经纪(北京)有限公司,2000人以上,海淀区,本科,C轮,O2O,116.299936,40.043116,全职,1-3年
231,2903346,自然语言处理工程师,北京,2018-04-09 14:19:51,21.6,21229,嘉和美康,北京嘉和美康信息技术有限公司,500-2000人,东城区,本科,C轮,"移动互联网,医疗健康",116.424351,39.948703,全职,1-3年
232,3467100,NLP 工程师,北京,2018-04-28 09:44:35,28.0,25592,新浪网,新浪网技术（中国）有限公司,2000人以上,海淀区,本科,上市公司,文化娱乐,116.276316,40.041543,全职,不限
233,1481934,NLP 中级工程师,武汉,2018-04-26 14:53:15,10.8,111175,ZingFront智线,智线云科技（北京）有限公司,50-150人,洪山区,本科,A轮,"移动互联网,数据服务",114.417855,30.500538,全职,1-3年
234,4467299,NLP研发总监,北京,2018-04-26 10:39:54,38.0,86742,Quantex,宽拓（北京）科技有限公司,50-150人,西城区,本科,A轮,"移动互联网,金融",116.352481,39.940593,全职,5-10年
235,4429601,NLP技术专家,北京,2018-04-16 18:13:09,58.0,8103,汽车之家,北京车之家信息技术有限公司,2000人以上,海淀区,硕士,上市公司,"移动互联网,文化娱乐",116.311989,39.979473,全职,3-5年
236,3842063,NLP技术专家/团队leader,上海,2018-04-28 16:56:23,38.0,97882,达观数据,达而观信息科技（上海）有限公司,50-150人,浦东新区,硕士,A轮,移动互联网,121.60245,31.199732,全职,3-5年
237,3691696,自然语言处理算法及应用开发资深工程师,北京,2018-04-28 08:54:57,48.0,37986,世纪超星,北京世纪超星信息技术发展有限责任公司,2000人以上,海淀区,本科,不需要融资,教育、移动互联网,116.30759,40.046882,全职,3-5年
238,3374045,NLP算法工程师,北京,2018-04-28 11:08:58,28.0,93760,助理来也,北京来也网络科技有限公司,50-150人,海淀区,本科,B轮,移动互联网,116.325472,39.984253,全职,1-3年
239,4203629,自然语言处理工程师,杭州,2018-04-27 19:01:19,24.0,87234,久久基因,杭州基智基因科技有限公司,15-50人,滨江区,硕士,B轮,"医疗健康,数据服务",120.221347,30.207479,全职,1-3年
240,4292357,自然语言处理研发工程师,香港特别行政区,2018-04-27 11:31:38,26.0,45433,LIPC,联想信息产品 （深圳）有限公司,2000人以上,离岛区,本科,上市公司,硬件,114.137062,22.256859,全职,1-3年
241,3880937,自然语言处理算法工程师（NLP）,北京,2018-04-26 18:08:18,21.0,148933,深思考人工智能机器人,深思考人工智能机器人科技（北京）有限公司,50-150人,海淀区,硕士,天使轮,"移动互联网,企业服务",116.30906,40.040429,全职,应届毕业生
242,4142736,NLP算法工程师,北京,2018-04-26 16:24:16,26.0,172285,猎户星空,北京猎户星空科技有限公司,150-500人,朝阳区,本科,A轮,"移动互联网,硬件",116.458741,39.932851,全职,1-3年
243,4176009,自然语言处理研发软件工程师,成都,2018-04-23 11:19:48,15.2,40015,Nuance,纽昂司软件技术（北京）有限公司,2000人以上,高新区,硕士,上市公司,"移动互联网,数据服务",104.069932,30.585314,全职,应届毕业生
244,4013976,自然语言NLP算法工程师,北京,2018-04-28 10:34:51,35.0,150239,考拉阅读,北京享阅教育科技有限公司,50-150人,海淀区,本科,B轮,"教育,移动互联网",116.30982,39.983452,全职,不限
245,4494215,NLP算法工程师,沈阳,2018-04-27 15:19:29,7.0,12557,百分点,北京百分点信息科技有限公司,500-2000人,沈河区,硕士,D轮及以上,数据服务,123.433276,41.801434,全职,3-5年
246,4145264,智能问答算法工程师-NLP/搜索/知识图谱算,北京,2018-04-30 08:59:55,35.0,520,小米,北京小米科技有限责任公司,2000人以上,海淀区,本科,D轮及以上,移动互联网,116.298056,39.959912,全职,3-5年
247,3626379,NLP算法研究员,上海,2018-04-28 15:45:35,21.0,143428,云知声,北京云知声信息技术有限公司,150-500人,徐汇区,硕士,C轮,移动互联网,121.404636,31.172869,全职,不限
248,4001444,NLP开发大牛,上海,2018-04-27 15:46:32,35.0,24995,泛微,上海泛微网络科技股份有限公司,2000人以上,闵行区,本科,上市公司,"移动互联网,企业服务",121.52396,31.07979,全职,1-3年
249,3178527,算法工程师-自然语言处理／机器学习,北京,2018-04-27 15:23:55,21.0,195074,程创科技,程创（北京）科技有限公司,少于15人,海淀区,本科,天使轮,"金融,企业服务",116.314285,39.984254,全职,1-3年
250,4306521,自然语言处理高级工程师,北京,2018-04-27 10:34:13,48.0,21732,FitTime睿健时代,北京飞拓互联科技有限公司,150-500人,朝阳区,本科,C轮,"移动互联网,社交网络",116.488426,40.000182,全职,3-5年
251,4038491,NLP自然语言处理工程师,北京,2018-04-26 08:36:13,28.0,1730,一下科技,炫一下（北京）科技有限公司,500-2000人,朝阳区,本科,D轮及以上,"移动互联网,文化娱乐",116.48919426,39.999364,全职,1-3年
252,3580971,自然语言处理工程师,合肥,2018-04-09 09:39:13,14.0,149958,FutureData,安徽富驰信息技术有限公司,15-50人,高新区,本科,A轮,数据服务,117.136583,31.835695,全职,1-3年
253,4000123,NLP算法专家,杭州,2018-04-28 17:52:59,38.0,165939,橙鹰,杭州橙鹰数据技术有限公司,150-500人,余杭区,本科,不需要融资,数据服务,120.008998,30.279884,全职,3-5年
254,4326584,自然语言处理算法工程师(J171012015),北京,2018-04-27 11:12:01,38.0,2474,滴滴出行,北京嘀嘀无限科技发展有限公司,2000人以上,海淀区,本科,不需要融资,移动互联网,40.04683,40.04683,全职,1-3年
255,3671332,NLP算法研究员,北京,2018-04-28 15:45:34,21.0,143428,云知声,北京云知声信息技术有限公司,150-500人,朝阳区,本科,C轮,移动互联网,116.445782,39.970339,全职,不限
256,2531340,自然语言处理及机器学习研究员,北京,2018-04-20 17:18:41,28.0,132664,三角兽科技,三角兽（北京）科技有限公司,50-150人,朝阳区,硕士,A轮,移动互联网,116.425339,39.987589,全职,1-3年
257,3463135,高级开发工程师 （自然语言处理方向）,北京,2018-04-28 13:56:19,26.0,61488,四达时代集团,北京四达时代软件技术股份有限公司,2000人以上,大兴区,本科,上市公司,"文化娱乐,硬件",116.993595,39.993662,全职,3-5年
258,4093997,NLP,北京,2018-04-28 11:45:02,31.0,59251,映客,北京蜜莱坞网络科技有限公司,500-2000人,朝阳区,本科,C轮,"移动互联网,文化娱乐",0.0,0.0,全职,3-5年
259,4013982,自然语言NLP算法工程师,北京,2018-04-28 10:34:51,35.0,150239,考拉阅读,北京享阅教育科技有限公司,50-150人,海淀区,本科,B轮,"教育,移动互联网",116.30982,39.983452,全职,不限
260,4189471,NLP算法工程师,北京,2018-04-26 13:33:51,19.0,123298,慧闻科技,北京慧闻科技发展有限公司,15-50人,西城区,本科,未融资,移动互联网,116.341316,39.938938,全职,3-5年
261,4360158,NLP算法工程师,广州,2018-04-28 09:40:43,14.0,134745,探迹,广州探迹科技有限公司,50-150人,番禺区,本科,B轮,"数据服务,企业服务",113.386397,23.0566,全职,1-3年
262,3886812,自然语言处理工程师,长沙,2018-04-12 13:29:49,12.0,252377,星汉数智,湖南星汉数智科技有限公司,50-150人,开福区,本科,未融资,"移动互联网,数据服务",112.985545,28.257269,全职,不限
263,3070443,自然语言处理专家-杭州-00145,杭州,2018-04-28 09:47:34,35.0,6502,同盾科技,同盾科技有限公司,500-2000人,余杭区,本科,C轮,"信息安全,数据服务",120.01965,30.28123003,全职,3-5年
264,4467089,高级自然语言处理(NLP)研发工程师,北京,2018-04-27 14:34:52,28.0,37446,APUS Group,北京麒麟合盛科技有限公司,150-500人,朝阳区,本科,B轮,移动互联网,116.480792,39.996,全职,3-5年
265,4477831,自然语言处理工程师（AI）,北京,2018-04-25 10:32:14,21.0,369307,北大方正信产集团,北大方正信息产业集团有限公司,2000人以上,海淀区,硕士,上市公司,"移动互联网,硬件",116.316419,39.991399,全职,1-3年
266,3145814,自然语言处理工程师,北京,2018-04-01 15:29:31,35.0,33016,Eyespage,页码（北京）科技有限公司,50-150人,朝阳区,本科,A轮,移动互联网,116.47598,39.99859,全职,3-5年
267,4497727,自然语言处理工程师（初级）,厦门,2018-04-28 10:45:30,10.8,374426,多维树,厦门多维树信息科技有限公司,少于15人,思明区,硕士,天使轮,数据服务,118.182556,24.485157,全职,不限
268,3390483,自然语言处理工程师,北京,2018-04-18 10:15:49,28.0,130183,先声教育,北京先声教育科技有限公司,15-50人,朝阳区,硕士,A轮,移动互联网,116.400612,39.968838,全职,1-3年
269,4178329,自然语言处理 \机器学习\数据挖掘工程师要医疗背景,北京,2018-04-28 14:51:29,29.0,61982,康夫子,北京康夫子科技有限公司,15-50人,西城区,本科,A轮,"移动互联网,医疗健康",116.357122,39.939268,全职,3-5年
270,3948322,自然语言处理工程师（实习岗）,南京,2018-04-28 13:51:57,4.8,13789,扇贝,南京贝湾教育科技有限公司,150-500人,玄武区,不限,B轮,"移动互联网,教育",118.883177,32.082556,实习,应届毕业生
271,176465,自然语言处理研发工程师,北京,2018-04-27 09:03:15,10.8,23727,知网,同方知网（北京）技术有限公司,2000人以上,海淀区,硕士,上市公司,"移动互联网,电子商务",116.35521891,40.04895147,全职,不限
272,3933857,自然语言处理算法工程师（NLP方向）,北京,2018-04-26 15:43:58,42.0,18139,京东集团,北京京东世纪贸易有限公司,2000人以上,朝阳区,硕士,上市公司,"电子商务,数据服务",116.387477,40.000236,全职,3-5年
273,4282684,NLP算法工程师,北京,2018-04-24 17:36:24,16.8,8861,妙计旅行,北京汇行科技有限公司,150-500人,东城区,本科,B轮,旅游,116.41498,39.948005,全职,1-3年
274,3788680,NLP算法工程师,北京,2018-04-28 10:42:50,26.0,279659,虎鲸科技,北京虎鲸跳跃科技有限公司,15-50人,海淀区,本科,不需要融资,"移动互联网,数据服务",116.333994,39.984636,全职,1-3年
275,3291610,NLP研发工程师,北京,2018-04-27 10:57:35,19.0,221048,北京智慧正安科技有限公司,北京智慧正安科技有限公司,15-50人,海淀区,本科,天使轮,数据服务,116.281008,40.043961,全职,不限
276,4327277,NLP工程师,深圳,2018-04-27 09:19:16,38.0,49650,深圳市福客餐饮管理服务有限公司,长城宽带网络服务有限公司深圳分公司,2000人以上,南山区,硕士,上市公司,"数据服务,其他",113.946766,22.542017,全职,3-5年
277,3266879,自然语言处理高级专家,北京,2018-04-25 14:20:42,51.0,50702,美团点评,北京三快在线科技有限公司,2000人以上,朝阳区,本科,D轮及以上,"移动互联网,O2O",116.48864,40.007096,全职,5-10年
278,4009247,数据挖掘工程师/NLP高级工程师,深圳,2018-04-27 09:54:19,31.0,87029,有鱼智能科技,深圳市有鱼智能科技有限公司,150-500人,福田区,本科,上市公司,"移动互联网,金融",114.04544,22.54069,全职,1-3年
279,4297531,自然语言处理（NLP）负责人,北京,2018-04-26 17:47:53,44.0,34679,精真估,北京精真估信息技术有限公司,150-500人,海淀区,硕士,C轮,"移动互联网,广告营销",115.99339,39.99426,全职,3-5年
280,4375182,NLP算法工程师,北京,2018-04-25 16:28:51,21.0,137505,复华控股,北京复华卓越商业管理有限公司,2000人以上,朝阳区,大专,不需要融资,"电子商务,O2O",115.994034,39.993442,全职,3-5年
281,4019580,NLP算法研究员,北京,2018-04-26 11:00:29,40.0,123070,零秒科技,北京零秒科技有限公司,15-50人,海淀区,硕士,A轮,"移动互联网,企业服务",116.308446,40.055569,全职,3-5年
282,4150032,自然语言处理工程师 （全职/实习）,北京,2018-04-29 23:09:27,21.0,219252,融慧金科,融慧金科金融服务外包（北京）有限公司,50-150人,朝阳区,硕士,A轮,"金融,数据服务",116.477076,39.91244,全职,1-3年
283,4190841,NLP算法工程师,北京,2018-04-28 17:56:30,33.0,36031,一起科技,上海一起作业信息科技有限公司,500-2000人,朝阳区,本科,D轮及以上,"移动互联网,教育",116.48597,40.000355,全职,1-3年
284,1515251,自然语言处理算法工程师,上海,2018-04-25 12:00:09,28.0,30830,哔哩哔哩,上海幻电信息科技有限公司,2000人以上,浦东新区,本科,上市公司,"移动互联网,文化娱乐",121.52479993,31.2398197,全职,3-5年
285,4383133,NLP/NLU算法专家--对话方向,北京,2018-04-08 16:21:02,41.0,50702,美团点评,北京三快在线科技有限公司,2000人以上,朝阳区,本科,D轮及以上,"移动互联网,O2O",116.487684,40.008798,全职,3-5年
286,3999458,算法技术专家（自然语言处理优先）,北京,2018-04-29 19:11:55,35.0,22127,爱咔咔,北京爱咔咔信息技术有限公司,15-50人,海淀区,硕士,A轮,"移动互联网,O2O",116.31207,40.03876,全职,3-5年
287,4190511,自然语言处理算法工程师,南京,2018-04-28 08:54:56,28.0,37986,世纪超星,北京世纪超星信息技术发展有限责任公司,2000人以上,雨花台区,本科,不需要融资,教育、移动互联网,0.0,0.0,全职,不限
288,3548640,NLP算法工程师,北京,2018-04-27 11:15:42,19.0,28393,爱云校,北京修齐治平科技有限公司,500-2000人,朝阳区,本科,C轮,"教育,数据服务",116.481459,39.99646,全职,1-3年
289,4473730,自然语言处理专家,深圳,2018-04-24 15:37:58,38.0,165451,新译,新译信息科技（深圳）有限公司,50-150人,南山区,硕士,天使轮,"移动互联网,其他",113.94525,22.553394,全职,1-3年
290,3476545,自然语言处理部_NLP/机器学习高级研发工程师,北京,2018-04-26 18:04:33,22.0,1575,百度,百度在线网络技术（北京）有限公司,2000人以上,海淀区,不限,不需要融资,"移动互联网,数据服务",0.0,0.0,全职,3-5年
291,4293046,自然语言处理类算法工程师,北京,2018-04-25 20:00:51,21.6,216917,阿里文娱,大鱼快乐有限公司,2000人以上,海淀区,本科,上市公司,"文化娱乐,移动互联网",116.312183,39.981536,全职,3-5年
292,362654,自然语言处理,北京,2018-04-25 10:00:34,34.0,1686,爱奇艺,北京爱奇艺科技有限公司,2000人以上,海淀区,硕士,D轮及以上,"广告营销,文化娱乐",116.313228,39.983752,全职,3-5年
293,4473357,人工智能岗(NLP方向),深圳,2018-04-28 18:39:18,28.0,26536,中信银行信用卡中心,中信银行股份有限公司信用卡中心,2000人以上,罗湖区,硕士,上市公司,"移动互联网,金融",113.993578,22.99368,全职,3-5年
294,2714014,自然语言处理算法工程师,北京,2018-04-25 13:50:40,35.0,151386,物灵,北京物灵智能科技有限公司,150-500人,朝阳区,硕士,不需要融资,"硬件,移动互联网",116.489053,39.99902,全职,3-5年
295,4373502,NLP/机器学习专家,杭州,2018-04-24 12:46:35,34.0,202671,同花顺,杭州核新软件技术有限公司,2000人以上,余杭区,硕士,上市公司,"金融,移动互联网",120.045424,30.291923,全职,5-10年
296,4146185,自然语言处理工程师 — 小爱音箱,北京,2018-04-20 09:14:10,35.0,520,小米,北京小米科技有限责任公司,2000人以上,海淀区,硕士,D轮及以上,移动互联网,116.323986,40.046999,全职,1-3年
297,4440928,自然语言处理算法,上海,2018-04-18 12:02:39,35.0,39497,易鑫集团,北京看看车科技有限公司,2000人以上,静安区,不限,上市公司,企业服务,121.452581,31.226442,全职,不限
298,4069423,SJZX-nlp算法工程师,北京,2018-04-28 12:03:27,19.0,39952,易车公司,北京易车互联信息技术有限公司,2000人以上,海淀区,硕士,上市公司,"移动互联网,电子商务",116.32732,39.93812,全职,1-3年
299,4406753,自然语言处理工程师,深圳,2018-04-11 18:38:33,21.0,151674,酷旗,深圳酷旗互联网有限公司,15-50人,南山区,本科,不需要融资,"硬件,移动互联网",113.938842,22.54096,全职,3-5年
300,4377153,NLP,杭州,2018-04-06 15:38:37,28.0,352461,临智而安,杭州临智而安科技有限公司,15-50人,西湖区,硕士,天使轮,移动互联网,120.018441,30.282414,全职,5-10年
301,4259807,NLP 工程师,深圳,2018-04-27 17:20:16,27.2,117193,大宇无限,深圳大宇无限科技有限公司,50-150人,南山区,本科,B轮,移动互联网,113.933455,22.541193,全职,1-3年
302,4406143,自然语言处理（NLP）高级工程师,成都,2018-04-26 17:37:01,24.0,24984,医联,成都医云科技有限公司,500-2000人,高新区,本科,B轮,"社交网络,医疗健康",104.071436,30.545068,全职,1-3年
303,2645980,自然语言处理,北京,2018-04-26 14:32:05,21.0,147426,极限元,极限元（北京）智能科技股份有限公司,15-50人,海淀区,本科,天使轮,"硬件,企业服务",116.314812,40.035955,全职,1年以下
304,3549238,AI应用_NLP/NLU算法专家_对话方向,北京,2018-04-25 14:20:42,39.6,50702,美团点评,北京三快在线科技有限公司,2000人以上,朝阳区,硕士,D轮及以上,"移动互联网,O2O",116.48864,40.007096,全职,5-10年
305,3873216,NLP应用工程师,厦门,2018-04-29 15:37:43,7.0,70550,农信互联,北京农信互联科技有限公司,500-2000人,集美区,本科,不需要融资,移动互联网,118.065401,24.592208,全职,3-5年
306,3952989,自然语言处理工程师,苏州,2018-04-27 10:26:39,26.0,301063,NaturLing教育科技,苏州睿小麟教育科技有限公司,少于15人,工业园区,本科,天使轮,"移动互联网,教育",0.0,0.0,全职,3-5年
307,4442208,自然语言处理工程师,北京,2018-04-18 14:40:47,35.0,307768,福易得,北京福易得信息技术有限公司,150-500人,朝阳区,硕士,未融资,移动互联网,116.466554,39.995147,全职,3-5年
308,4409052,NLP自然语言高级工程师,北京,2018-04-12 10:52:01,35.0,202697,掌门集团,连尚（北京）网络科技有限公司,500-2000人,海淀区,本科,B轮,"移动互联网,生活服务",39.897445,116.331398,全职,3-5年
309,4333790,算法实习生（自然语言处理）,北京,2018-04-20 18:48:30,6.8,311084,REDEFINE,北京瑞地科技有限公司,150-500人,朝阳区,本科,不需要融资,移动互联网,0.0,0.0,全职,3-5年
310,4393360,自然语言处理工程师,上海,2018-04-10 10:01:25,28.0,54290,金灯台信息,上海金灯台信息科技有限公司,少于15人,浦东新区,本科,未融资,"移动互联网,数据服务",121.588039,31.210061,全职,3-5年
311,4099710,算法工程师（自然语言处理方向）,上海,2018-04-27 11:22:00,18.2,40270,名片全能王,上海合合信息科技发展有限公司,150-500人,静安区,本科,C轮,移动互联网,121.439769,31.294568,全职,1-3年
312,3552649,NLP 研发工程师,北京,2018-04-27 18:38:09,42.0,63714,粉笔网,北京粉笔蓝天科技有限公司,150-500人,朝阳区,硕士,不需要融资,"移动互联网,教育",116.4538,39.932378,全职,1-3年
313,4262936,NLP算法工程师,北京,2018-04-27 19:05:55,38.0,2098,掌阅,掌阅科技股份有限公司,500-2000人,朝阳区,本科,上市公司,移动互联网,116.514211,39.905841,全职,3-5年
314,4421024,资深自然语言处理研发工程师,北京,2018-04-28 00:05:52,38.0,3112,沪江,沪江教育科技（上海）股份有限公司,500-2000人,海淀区,本科,D轮及以上,"移动互联网,教育",116.333669,39.994252,全职,3-5年
315,3769780,自然语言处理算法专家,北京,2018-04-21 14:01:38,42.0,50702,美团点评,北京三快在线科技有限公司,2000人以上,朝阳区,本科,D轮及以上,"移动互联网,O2O",116.48776,40.008007,全职,不限
316,3657384,自然语言处理工程师,深圳,2018-04-27 11:28:46,24.0,151568,爱智慧科技,深圳市爱智慧科技有限公司,15-50人,龙岗区,本科,天使轮,"移动互联网,金融",114.228387,22.683595,全职,3-5年
317,4359116,NLP算法工程师,北京,2018-04-24 19:20:49,26.0,49579,欢聚时代（YY Inc）,广州华多网络科技有限公司,2000人以上,海淀区,本科,上市公司,移动互联网,116.351233,39.977169,全职,3-5年
318,3515403,NLP算法工程师,北京,2018-04-20 18:07:33,28.0,2474,滴滴出行,北京嘀嘀无限科技发展有限公司,2000人以上,海淀区,本科,不需要融资,移动互联网,116.28896,40.04373,全职,3-5年
319,4443211,自然语言处理专家,深圳,2018-04-28 12:20:22,28.0,112346,鹏元数据技术,深圳前海鹏元数据技术有限公司,15-50人,福田区,本科,天使轮,"数据服务,金融",114.0316,22.53418,全职,1-3年
320,4387341,NLP高级工程师,深圳,2018-04-28 10:28:38,38.0,126962,金易桔子,大连金易桔子科技有限公司,150-500人,南山区,本科,不需要融资,"移动互联网,企业服务",0.0,0.0,全职,3-5年
321,4369469,NLP自然语言处理算法工程师,北京,2018-04-03 18:31:13,38.0,2098,掌阅,掌阅科技股份有限公司,500-2000人,朝阳区,硕士,上市公司,移动互联网,116.514211,39.905841,全职,3-5年
322,3746633,高级自然语言处理算法工程师,北京,2018-04-26 18:08:17,35.0,148933,深思考人工智能机器人,深思考人工智能机器人科技（北京）有限公司,50-150人,海淀区,硕士,天使轮,"移动互联网,企业服务",116.30906,40.040429,全职,3-5年
323,4115847,资深自然语言处理研发工程师 (MJ000658),上海,2018-04-26 15:07:00,35.0,3112,沪江,沪江教育科技（上海）股份有限公司,500-2000人,浦东新区,不限,D轮及以上,"移动互联网,教育",121.603788,31.202542,全职,1-3年
324,4075081,NLP 算法开发工程师,北京,2018-04-27 22:22:34,35.0,4128,知乎,北京智者天下科技有限公司,500-2000人,海淀区,本科,D轮及以上,"移动互联网,社交网络",116.350094,40.007985,全职,不限
325,2615690,自然语言处理研发工程师,上海,2018-04-22 14:54:26,21.0,97882,达观数据,达而观信息科技（上海）有限公司,50-150人,浦东新区,本科,A轮,移动互联网,121.60245,31.199732,全职,不限
326,4360123,高级NLP算法工程师,广州,2018-04-28 09:40:44,21.0,134745,探迹,广州探迹科技有限公司,50-150人,番禺区,本科,B轮,"数据服务,企业服务",113.386397,23.0566,全职,5-10年
327,2178393,NLP 研发工程师（北京）,北京,2018-04-27 11:18:11,27.8,62831,明略数据,北京明略软件系统有限公司,150-500人,海淀区,本科,C轮,数据服务,116.330617,39.995964,全职,不限
328,4150920,NLP算法工程师,深圳,2018-04-25 19:56:39,26.0,6927,OPPO,广东欧珀移动通信有限公司,2000人以上,南山区,不限,不需要融资,移动互联网,113.943044,22.518792,全职,不限
329,4426865,高级NLP工程师,北京,2018-04-16 14:56:13,42.0,355369,艾漫数据,北京艾漫数据科技股份有限公司,50-150人,朝阳区,硕士,上市公司,移动互联网 文化娱乐,116.504359,39.983643,全职,3-5年
330,3087507,自然语言处理算法专家,杭州,2018-03-24 22:11:04,38.0,200573,阿里巴巴集团-中台,阿里巴巴（中国）网络技术有限公司,2000人以上,余杭区,硕士,上市公司,"移动互联网,电子商务",120.021151,30.279327,全职,1-3年
331,4306636,算法实习生（自然语言处理）,北京,2018-04-28 18:23:05,4.8,311084,REDEFINE,北京瑞地科技有限公司,150-500人,朝阳区,本科,不需要融资,移动互联网,0.0,0.0,实习,应届毕业生
332,4449368,NLP算法工程师,北京,2018-04-19 14:02:11,33.0,62,字节跳动,北京字节跳动科技有限公司,2000人以上,海淀区,本科,C轮,"移动互联网,数据服务",39.977067,39.977067,全职,3-5年
333,4169422,初级自然语言处理工程师,北京,2018-04-05 09:39:37,8.4,242209,云孚科技,云孚科技（北京）有限公司,15-50人,海淀区,本科,不需要融资,"企业服务,移动互联网",116.305953,40.047084,全职,应届毕业生
334,4498247,自然语言处理/机器学习算法工程师,北京,2018-04-28 11:31:19,21.0,1575,百度,百度在线网络技术（北京）有限公司,2000人以上,海淀区,本科,不需要融资,"移动互联网,数据服务",116.273399,40.043429,全职,3-5年
335,3937193,NLP高级工程师,广州,2018-04-24 16:58:08,26.0,666,筷子科技,广州筷子信息科技有限公司,50-150人,越秀区,硕士,B轮,"数据服务,广告营销",113.312017,23.142344,全职,3-5年
336,4492932,NLP算法工程师/架构师,北京,2018-04-27 12:08:48,49.0,91,阿里巴巴—高德,高德软件有限公司,2000人以上,朝阳区,本科,上市公司,移动互联网,116.473575,39.992958,全职,3-5年
337,4114178,算法工程师（NLP）,广州,2018-04-26 14:03:30,28.0,271,有米科技,有米科技股份有限公司,500-2000人,番禺区,本科,上市公司,"移动互联网,广告营销",113.386434,23.056892,全职,不限
338,3769806,自然语言处理算法专家,北京,2018-04-21 14:01:42,42.0,50702,美团点评,北京三快在线科技有限公司,2000人以上,朝阳区,本科,D轮及以上,"移动互联网,O2O",116.48776,40.008007,全职,不限
339,3473763,自然语言处理研究科学家,上海,2018-04-26 15:15:50,48.0,3422,英语流利说,上海流利说信息技术有限公司,500-2000人,杨浦区,硕士,C轮,"移动互联网,教育",121.50712,31.265662,全职,不限
340,3254754,NLP技术资深leader,北京,2018-04-25 13:50:34,48.0,151386,物灵,北京物灵智能科技有限公司,150-500人,朝阳区,硕士,不需要融资,"硬件,移动互联网",116.489053,39.99902,全职,3-5年
341,4362123,自然语言处理高级工程师,杭州,2018-04-23 10:52:26,24.0,91001,蒂范德,杭州蒂范德网络科技有限公司,少于15人,余杭区,本科,不需要融资,移动互联网,119.982139,30.276149,全职,3-5年
342,4176479,新浪财经-高级NLP工程师,北京,2018-04-08 14:05:02,19.0,25592,新浪网,新浪网技术（中国）有限公司,2000人以上,海淀区,本科,上市公司,文化娱乐,116.27597,40.04194,全职,3-5年
343,3758379,深度学习/自然语言处理算法专家/高级工程师,杭州,2018-04-28 14:23:23,28.0,200554,阿里巴巴-平台技术事业群,阿里巴巴（中国）网络技术有限公司,2000人以上,余杭区,本科,上市公司,"电子商务,数据服务",120.002035,30.27563,全职,1-3年
344,4005120,NLP,北京,2018-04-28 10:04:25,23.4,3328,好未来,北京世纪好未来教育科技有限公司,2000人以上,海淀区,本科,上市公司,"移动互联网,教育",116.313701,39.978427,全职,1-3年
345,4240207,NLP算法工程师,北京,2018-04-24 20:12:23,34.8,62,字节跳动,北京字节跳动科技有限公司,2000人以上,海淀区,硕士,C轮,"移动互联网,数据服务",39.971268,39.971268,全职,3-5年
346,3265193,算法工程师（NLP）,北京,2018-04-12 10:39:51,24.8,122289,超对称,超对称（北京）科技有限公司,15-50人,朝阳区,本科,A轮,"移动互联网,企业服务",116.480792,39.996,全职,1-3年
347,2012093,自然语言处理,杭州,2018-04-03 17:18:35,28.0,2474,滴滴出行,北京嘀嘀无限科技发展有限公司,2000人以上,西湖区,本科,不需要融资,移动互联网,120.12743651,30.285484239,全职,3-5年
348,4114552,自然语言处理高级工程师/专家,上海,2018-04-28 10:49:55,21.0,35422,京东,京东商城,2000人以上,长宁区,本科,上市公司,电子商务,121.360459,31.221087,全职,1-3年
349,4335977,NLP算法工程师,北京,2018-04-27 16:09:57,26.0,25560,传神,传神语联网网络科技股份有限公司,500-2000人,朝阳区,本科,上市公司,电子商务,116.453137,39.906895,全职,3-5年
350,4444357,NLP工程师,广州,2018-04-26 11:11:09,24.0,2604,美的集团-厨房电器,广东美的厨房电器制造有限公司,2000人以上,番禺区,本科,上市公司,硬件,113.384129,22.937244,全职,3-5年
351,4171790,自然语言处理工程师,北京,2018-04-25 15:46:38,35.0,436,360,奇虎360科技有限公司,2000人以上,朝阳区,本科,上市公司,"移动互联网,游戏",116.491128,39.98313206,全职,1-3年
352,3767204,NLP算法工程师,深圳,2018-04-18 14:32:32,28.0,107664,AKULAKU,岩心科技（深圳）有限公司,150-500人,南山区,本科,B轮,"移动互联网,金融",113.943847,22.529035,全职,3-5年
353,4406403,自然语言处理（中高级）,上海,2018-04-28 16:57:45,22.0,1373,喜马拉雅,上海证大喜马拉雅网络科技有限公司,500-2000人,浦东新区,本科,D轮及以上,"移动互联网,文化娱乐",121.5935,31.207614,全职,3-5年
354,3956853,资深/高级NLP算法工程师,杭州,2018-04-28 10:02:35,26.0,329,网易,网易（杭州）有限公司,2000人以上,滨江区,硕士,上市公司,"电子商务,移动互联网",120.193872,30.189927,全职,3-5年
355,4493968,NLP算法实习生,沈阳,2018-04-27 14:56:08,2.4,12557,百分点,北京百分点信息科技有限公司,500-2000人,沈河区,本科,D轮及以上,数据服务,123.433276,41.801434,实习,1年以下
356,3982893,自然语言处理,深圳,2018-04-27 09:16:22,21.0,139502,前海企保,前海企保科技（深圳）有限公司,15-50人,南山区,本科,A轮,"金融,企业服务",113.940573,22.541697,全职,1-3年
357,3210294,NLP高级工程师,南京,2018-04-23 16:49:26,14.0,211218,泰睿麒,南京泰睿麒信息技术有限公司,50-150人,玄武区,本科,未融资,"数据服务,信息安全",118.892424,32.088185,全职,3-5年
358,4061491,自然语言处理算法工程师,北京,2018-04-19 16:32:49,21.0,114110,乐视,乐视网信息技术（北京）股份有限公司,2000人以上,朝阳区,本科,上市公司,移动互联网,116.492605,39.934758,全职,3-5年
359,4424386,自然语言处理算法工程师/专家,杭州,2018-04-16 10:34:00,28.0,200573,阿里巴巴集团-中台,阿里巴巴（中国）网络技术有限公司,2000人以上,余杭区,本科,上市公司,"移动互联网,电子商务",120.021151,30.279327,全职,3-5年
360,3130185,NLP算法工程师,北京,2018-04-20 17:14:00,35.0,62,字节跳动,北京字节跳动科技有限公司,2000人以上,海淀区,本科,C轮,"移动互联网,数据服务",116.332602,39.971268,全职,1-3年
361,4475836,NLP算法工程师(J171117020),北京,2018-04-28 10:26:34,28.0,2474,滴滴出行,北京嘀嘀无限科技发展有限公司,2000人以上,海淀区,本科,不需要融资,移动互联网,40.04683,40.04683,全职,3-5年
362,4154299,自然语言处理工程师,广州,2018-04-28 09:34:30,14.0,13709,大麦电商,广州大麦信息科技有限公司,150-500人,越秀区,本科,天使轮,"电子商务,企业服务",112.993461,22.994261,全职,1-3年
363,4445761,NLP 算法工程师,北京,2018-04-27 14:20:42,29.0,98652,菱歌科技,杭州菱歌数字科技有限公司,15-50人,朝阳区,本科,A轮,"企业服务,广告营销",116.473354,39.906801,全职,1-3年
364,2474810,自然语言处理,北京,2018-04-25 10:00:34,40.0,1686,爱奇艺,北京爱奇艺科技有限公司,2000人以上,海淀区,硕士,D轮及以上,"广告营销,文化娱乐",116.313228,39.983752,全职,1-3年
365,4287092,NLP高级算法工程师,深圳,2018-04-28 11:58:17,26.0,35565,一面数据,深圳市一面网络技术有限公司,15-50人,南山区,本科,A轮,"移动互联网,数据服务",113.940008,22.540529,全职,不限
366,3745355,NLP算法,苏州,2018-04-26 14:01:17,21.0,56995,意能通,苏州意能通信息技术有限公司,50-150人,工业园区,硕士,A轮,移动互联网,120.744999,31.269057,全职,3-5年
367,4495648,NLP高级算法工程师,北京,2018-04-27 17:33:46,38.0,8103,汽车之家,北京车之家信息技术有限公司,2000人以上,海淀区,本科,上市公司,"移动互联网,文化娱乐",116.311989,39.979473,全职,3-5年
368,4156307,NLP算法工程师,北京,2018-04-23 16:40:22,42.0,520,小米,北京小米科技有限责任公司,2000人以上,海淀区,硕士,D轮及以上,移动互联网,116.332861,40.040791,全职,3-5年
369,3969948,自然语言处理架构师,北京,2018-04-17 21:33:34,48.0,3328,好未来,北京世纪好未来教育科技有限公司,2000人以上,海淀区,本科,上市公司,"移动互联网,教育",116.314526,39.982338,全职,5-10年
370,4082846,资深NLP算法工程师,北京,2018-04-27 21:58:24,35.0,172285,猎户星空,北京猎户星空科技有限公司,150-500人,朝阳区,本科,A轮,"移动互联网,硬件",116.458741,39.932851,全职,3-5年
371,4487142,NLP算法工程师,北京,2018-04-26 14:24:26,35.0,134502,智清金科,北京仁信智清科技有限公司,50-150人,海淀区,本科,A轮,"移动互联网,金融",116.306432,39.97834,全职,3-5年
372,4134486,自然语言处理高级研究员,深圳,2018-04-13 17:55:13,25.2,40459,商汤科技,北京市商汤科技开发有限公司,500-2000人,南山区,不限,B轮,移动互联网,113.920038,22.494927,全职,不限
373,3566764,算法开发（NLP）,上海,2018-04-28 10:28:58,41.0,50702,美团点评,北京三快在线科技有限公司,2000人以上,长宁区,本科,D轮及以上,"移动互联网,O2O",121.424421,31.212351,全职,3-5年
374,4363423,自然语言处理算法专家/高级专家,北京,2018-04-26 09:59:44,35.0,216917,阿里文娱,大鱼快乐有限公司,2000人以上,朝阳区,本科,上市公司,"文化娱乐,移动互联网",116.487867,39.999765,全职,3-5年
375,4390141,NLP算法专家,北京,2018-04-16 11:06:48,62.0,8103,汽车之家,北京车之家信息技术有限公司,2000人以上,海淀区,本科,上市公司,"移动互联网,文化娱乐",116.311989,39.979473,全职,5-10年
376,4042383,自然语言处理算法专家（NLP）,北京,2018-04-28 08:52:58,56.0,356,捷通华声,北京捷通华声科技股份有限公司,150-500人,海淀区,硕士,不需要融资,"移动互联网,数据服务",116.29632768,40.05177651,全职,5-10年
377,4480058,自然语言处理工程师,成都,2018-04-25 14:21:43,19.0,188493,紫平方,北京紫平方信息技术股份有限公司深圳分公司,50-150人,高新区,本科,不需要融资,移动互联网,104.067278,30.542529,全职,3-5年
378,4280822,AI产品专家-NLP方向,杭州,2018-04-03 15:35:57,33.0,292511,共道科技,共道网络科技有限公司,50-150人,余杭区,本科,不需要融资,企业服务 数据服务,120.009041,30.279938,全职,5-10年
379,3884726,高级NLP研究员,北京,2018-04-27 18:37:51,49.0,63714,粉笔网,北京粉笔蓝天科技有限公司,150-500人,朝阳区,硕士,不需要融资,"移动互联网,教育",116.4538,39.932378,全职,3-5年
380,3961099,NLP工程师,上海,2018-04-27 15:38:18,17.0,271758,海乂知,上海海乂知信息科技有限公司,15-50人,杨浦区,硕士,天使轮,数据服务,121.50812,31.309128,全职,不限
381,3017645,自然语言处理工程师,深圳,2018-04-17 09:39:12,21.0,53970,狗尾草智能科技,深圳狗尾草智能科技有限公司,150-500人,南山区,本科,A轮,"移动互联网,O2O",113.94622,22.548162,全职,不限
382,4200555,NLP研发工程师,深圳,2018-04-25 16:36:09,17.8,321705,南科大数据,深圳南科大数据有限公司,15-50人,福田区,本科,天使轮,"移动互联网,数据服务",114.031534,22.533944,全职,3-5年
383,3432071,自然语言处理高级工程师、资深工程师、专家,北京,2018-04-02 11:02:27,31.0,329,网易,网易（杭州）有限公司,2000人以上,海淀区,硕士,上市公司,"电子商务,移动互联网",116.275959,40.042831,全职,3-5年
384,4100573,自然语言处理NLP/机器学习,北京,2018-04-28 21:04:16,28.0,93936,生命奇点,生命奇点（北京）科技有限公司,50-150人,海淀区,本科,A轮,"医疗健康,数据服务",116.304668,39.986318,全职,应届毕业生
385,4366105,NLP算法工程师,武汉,2018-04-27 16:09:57,21.0,25560,传神,传神语联网网络科技股份有限公司,500-2000人,洪山区,本科,上市公司,电子商务,113.993591,29.993679,全职,3-5年
386,4371563,NLP,深圳,2018-04-04 11:07:30,22.4,83025,环球易购,深圳市环球易购电子商务有限公司,2000人以上,南山区,本科,上市公司,电子商务,,,全职,不限
387,4411271,自然语言处理算法工程师或专家（上海）,上海,2018-04-26 17:22:20,21.0,24748,平安科技,平安科技（深圳）有限公司,2000人以上,浦东新区,硕士,不需要融资,金融,121.99341,30.994275,全职,不限
388,3950919,资深NLP算法工程师,北京,2018-04-26 16:24:16,35.0,172285,猎户星空,北京猎户星空科技有限公司,150-500人,朝阳区,本科,A轮,"移动互联网,硬件",116.458741,39.932851,全职,不限
389,4488882,高级NLP算法工程师,北京,2018-04-26 16:31:35,35.0,72720,茄子快传,北京快乐茄信息技术有限公司,150-500人,海淀区,本科,B轮,移动互联网,116.288106,40.046807,全职,3-5年
390,4322582,NLP算法高级工程师,北京,2018-04-25 17:42:41,38.0,50702,美团点评,北京三快在线科技有限公司,2000人以上,朝阳区,本科,D轮及以上,"移动互联网,O2O",116.48776,40.008007,全职,3-5年
391,4169455,NLP工程师,北京,2018-04-11 17:27:21,38.0,318219,国信安石,北京国信安石科技有限责任公司,50-150人,朝阳区,硕士,未融资,"移动互联网,数据服务",116.417034,40.031998,全职,3-5年
392,3918128,算法工程师---自然语言处理,杭州,2018-04-28 12:14:59,21.0,106555,ZOOM,软视视频软件（杭州）有限公司,500-2000人,西湖区,硕士,D轮及以上,"移动互联网,社交网络",120.112127,30.287766,全职,不限
393,4024089,NLP算法实习生,北京,2018-04-28 10:42:51,4.4,279659,虎鲸科技,北京虎鲸跳跃科技有限公司,15-50人,海淀区,本科,不需要融资,"移动互联网,数据服务",116.333994,39.984636,实习,应届毕业生
394,3903012,资深NLP算法工程师,北京,2018-04-27 20:44:59,35.0,534,京东金融,京东金融,2000人以上,大兴区,硕士,上市公司,金融,116.56784934,39.79105081,全职,3-5年
395,4099778,算法实习生（自然语言处理方向）,上海,2018-04-27 11:22:01,6.2,40270,名片全能王,上海合合信息科技发展有限公司,150-500人,静安区,本科,C轮,移动互联网,121.439769,31.294568,实习,应届毕业生
396,4112066,高级算法工程师（自然语言处理）,上海,2018-04-25 13:09:15,26.0,6082,2345.com,上海二三四五网络科技有限公司,500-2000人,浦东新区,本科,上市公司,"数据服务,移动互联网",121.59765,31.173872,全职,3-5年
397,4320247,自然语言处理资深专家-nlp,北京,2018-04-24 23:50:03,38.0,1686,爱奇艺,北京爱奇艺科技有限公司,2000人以上,海淀区,本科,D轮及以上,"广告营销,文化娱乐",116.313228,39.983752,全职,3-5年
398,2958481,NLP（自然语言处理）算法工程师,北京,2018-04-24 16:48:48,48.0,1101,暴风集团,暴风集团股份有限公司,2000人以上,海淀区,本科,上市公司,文化娱乐,116.35286,39.97817,全职,3-5年
399,4338465,高级自然语言处理算法工程师,北京,2018-04-02 14:39:28,33.0,1650,联想集团,联想（北京）有限公司,2000人以上,海淀区,本科,上市公司,"移动互联网,数据服务",116.29846,40.0534,全职,5-10年
400,4406481,NLP高级算法工程师,北京,2018-04-28 17:56:32,35.0,36031,一起科技,上海一起作业信息科技有限公司,500-2000人,朝阳区,本科,D轮及以上,"移动互联网,教育",116.486624,40.000825,全职,不限
401,4074403,NLP算法专家,杭州,2018-04-27 11:38:58,42.0,329,网易,网易（杭州）有限公司,2000人以上,滨江区,本科,上市公司,"电子商务,移动互联网",120.192295,30.188393,全职,5-10年
402,3892670,NLP算法工程师,深圳,2018-04-08 11:31:54,31.0,184532,Bello,深圳呗佬智能有限公司,15-50人,南山区,本科,A轮,移动互联网,113.938223,22.523806,全职,3-5年
403,3520886,自然语言处理部_高级研发工程师,北京,2018-04-28 11:40:41,24.0,1575,百度,百度在线网络技术（北京）有限公司,2000人以上,海淀区,不限,不需要融资,"移动互联网,数据服务",0.0,0.0,全职,3-5年
404,3666278,NLP算法工程师,上海,2018-04-28 10:49:55,29.0,35422,京东,京东商城,2000人以上,长宁区,硕士,上市公司,电子商务,121.360459,31.221087,全职,3-5年
405,3990271,NLP工程师,杭州,2018-04-26 10:04:29,22.8,46796,鸟瞰智能,杭州鸟瞰智能科技股份有限公司,50-150人,余杭区,硕士,A轮,"企业服务,移动互联网",120.019378,30.280646,全职,1-3年
406,3770209,自然语言处理算法专家-知识图谱方向,北京,2018-04-21 14:01:37,42.0,50702,美团点评,北京三快在线科技有限公司,2000人以上,朝阳区,本科,D轮及以上,"移动互联网,O2O",116.48776,40.008007,全职,不限
407,4387783,自然语言处理研究员,深圳,2018-04-09 12:14:28,25.2,40459,商汤科技,北京市商汤科技开发有限公司,500-2000人,南山区,硕士,B轮,移动互联网,113.920038,22.494927,全职,不限
408,2888991,高级软件开发工程师（NLP）,北京,2018-04-28 16:32:07,17.8,38136,美通社,美速通商务咨询（上海）有限公司北京分公司,150-500人,朝阳区,本科,不需要融资,广告营销,116.46531,39.907449,全职,3-5年
409,4499207,NLP算法工程师,北京,2018-04-28 14:24:42,24.0,306730,数榜,北京数榜信息科技有限公司,15-50人,朝阳区,本科,未融资,数据服务,116.518436,39.926768,全职,1-3年
410,3314503,【实习生】NLP/数据挖掘/算法,北京,2018-04-27 12:19:45,3.8,4510,春雨移动健康,北京春雨天下软件有限公司,150-500人,海淀区,硕士,C轮,移动互联网,116.351825,40.00853,实习,应届毕业生
411,3965650,NLP自然语言处理研究员（深圳）,深圳,2018-04-26 11:17:07,34.0,303711,朗牧泽,深圳朗牧泽信息技术有限公司,50-150人,南山区,博士,未融资,"移动互联网,金融",0.0,0.0,全职,不限
412,4434310,高级NLP算法工程师,北京,2018-04-25 19:56:39,26.0,6927,OPPO,广东欧珀移动通信有限公司,2000人以上,朝阳区,本科,不需要融资,移动互联网,116.474022,39.935669,全职,3-5年
413,4121271,JTPTYW-NLp算法工程师,北京,2018-04-28 12:03:28,21.0,39952,易车公司,北京易车互联信息技术有限公司,2000人以上,海淀区,硕士,上市公司,"移动互联网,电子商务",116.32732,39.93812,全职,1-3年
414,2530406,自然语言处理,上海,2018-04-25 09:16:05,26.0,150654,信号旗,信号旗智能科技（上海）有限公司,15-50人,浦东新区,不限,A轮,数据服务,121.60522,31.178281,全职,不限
415,3202590,机器学习/推荐算法/搜索算法/NLP,北京,2018-04-13 19:44:58,31.0,102322,百度外卖,北京小度信息科技有限公司,2000人以上,海淀区,本科,不需要融资,"移动互联网,O2O",116.308398,40.038545,全职,3-5年
416,4406184,自然语言处理（NLP）高级工程师,北京,2018-04-26 17:37:04,29.0,24984,医联,成都医云科技有限公司,500-2000人,朝阳区,本科,B轮,"社交网络,医疗健康",116.451957,39.913759,全职,1-3年
417,4320154,NLP算法工程师-广告系统,北京,2018-04-24 20:13:14,35.0,62,字节跳动,北京字节跳动科技有限公司,2000人以上,海淀区,本科,C轮,"移动互联网,数据服务",116.332602,39.971268,全职,1-3年
418,4469925,产品经理（2B，NLP/AI）,上海,2018-04-24 10:14:40,19.0,97882,达观数据,达而观信息科技（上海）有限公司,50-150人,浦东新区,本科,A轮,移动互联网,121.60245,31.199732,全职,3-5年
419,3597229,自然语言处理NLP算法工程师,北京,2018-04-16 13:24:36,8.8,443,蚂蚁短租,易云游网络技术(北京)有限公司,150-500人,海淀区,本科,C轮,"移动互联网,旅游",116.28288,40.047453,实习,应届毕业生
420,4213728,自然语言处理开发工程师（2019届实习）,上海,2018-04-27 17:23:50,4.2,50702,美团点评,北京三快在线科技有限公司,2000人以上,长宁区,本科,D轮及以上,"移动互联网,O2O",0.0,0.0,实习,应届毕业生
421,4459409,NLP算法实习生,北京,2018-04-20 20:03:59,7.0,62,字节跳动,北京字节跳动科技有限公司,2000人以上,海淀区,本科,C轮,"移动互联网,数据服务",39.977067,39.977067,实习,不限
422,4073494,NLP 算法工程师（辅助创作）,北京,2018-04-27 22:21:48,35.0,4128,知乎,北京智者天下科技有限公司,500-2000人,海淀区,硕士,D轮及以上,"移动互联网,社交网络",116.350094,40.007985,全职,不限
423,870339,自然语言处理工程师,北京,2018-04-27 10:58:18,15.4,23727,知网,同方知网（北京）技术有限公司,2000人以上,海淀区,硕士,上市公司,"移动互联网,电子商务",116.35521891,40.04895147,全职,不限
424,4268400,自然语言处理工程师,上海,2018-04-26 11:50:47,21.0,134621,捷酷,上海捷酷信息技术有限公司,15-50人,浦东新区,本科,上市公司,"移动互联网,数据服务",121.598524,31.209067,全职,3-5年
425,4262205,算法工程师（自然语言处理方向）,北京,2018-04-23 14:11:39,21.0,109217,志诺维思,志诺维思（北京）基因科技有限公司,15-50人,海淀区,硕士,A轮,"医疗健康,数据服务",0.0,0.0,全职,1-3年
426,4360902,NLP算法工程师,北京,2018-04-18 15:47:56,35.0,167475,见微数据,北京自回归信息科技有限公司,15-50人,朝阳区,本科,天使轮,企业服务,116.491369,39.912352,全职,1-3年
427,3484305,NLP自然语言工程师（2018一起作业校招岗位）,北京,2018-04-28 17:56:30,14.0,36031,一起科技,上海一起作业信息科技有限公司,500-2000人,朝阳区,硕士,D轮及以上,"移动互联网,教育",116.486624,40.000825,全职,应届毕业生
428,4411285,自然语言处理算法工程师或专家（北京）,北京,2018-04-26 17:22:17,21.0,24748,平安科技,平安科技（深圳）有限公司,2000人以上,朝阳区,硕士,不需要融资,金融,116.459244,39.949945,全职,不限
429,4112285,NLP算法工程师,深圳,2018-04-23 17:25:45,21.0,6927,OPPO,广东欧珀移动通信有限公司,2000人以上,南山区,不限,不需要融资,移动互联网,113.943044,22.518792,全职,不限
430,4412177,NLP算法工程师,北京,2018-04-12 15:48:35,35.0,18139,京东集团,北京京东世纪贸易有限公司,2000人以上,朝阳区,本科,上市公司,"电子商务,数据服务",116.387477,40.000236,全职,3-5年
431,3897231,信息平台事业部-资深算法工程师/-自然语言处理,杭州,2018-04-28 07:40:43,25.2,153849,蚂蚁金服集团,支付宝(杭州)信息技术有限公司,2000人以上,西湖区,本科,B轮,"金融,移动互联网",120.125788,30.272627,全职,不限
432,4452429,高级NLP算法工程师,北京,2018-04-27 10:35:45,36.0,72720,茄子快传,北京快乐茄信息技术有限公司,150-500人,海淀区,本科,B轮,移动互联网,116.288106,40.046807,全职,5-10年
433,3735063,自然语言处理工程师,深圳,2018-04-25 11:25:24,13.2,95448,尚诚信息,深圳市尚诚信息技术有限公司,50-150人,福田区,本科,未融资,移动互联网、金融,114.025227,22.537266,全职,1-3年
434,4384614,自然语言处理工程师/NLP(实习生or应届生）,上海,2018-04-17 09:39:11,7.0,53970,狗尾草智能科技,深圳狗尾草智能科技有限公司,150-500人,静安区,本科,A轮,"移动互联网,O2O",0.0,0.0,实习,应届毕业生
435,4454604,NLP算法工程师-国际化,北京,2018-04-20 10:43:27,35.0,62,字节跳动,北京字节跳动科技有限公司,2000人以上,海淀区,本科,C轮,"移动互联网,数据服务",116.332602,39.971268,全职,1-3年
436,4152073,算法工程师（NLP方向）,杭州,2018-04-12 15:15:43,21.0,719,顺网科技,杭州顺网科技股份有限公司,500-2000人,西湖区,硕士,上市公司,"游戏,文化娱乐",120.057035,30.286205,全职,3-5年
437,3620054,NLP工程师,深圳,2018-04-27 09:16:23,28.0,139502,前海企保,前海企保科技（深圳）有限公司,15-50人,南山区,大专,A轮,"金融,企业服务",113.940573,22.541697,全职,1-3年
438,4253896,中高级NLP算法工程师,成都,2018-04-25 10:07:28,21.0,233997,AiKNOWN,启运智创（成都）科技有限公司,15-50人,高新区,本科,不需要融资,"移动互联网,数据服务",104.067234,30.548863,全职,3-5年
439,4429004,自然语言处理算法工程师,上海,2018-04-19 13:11:01,23.6,41486,MarcPoint,上海宏原信息科技有限公司,15-50人,徐汇区,硕士,天使轮,"电子商务,广告营销",121.409543,31.178421,全职,1-3年
440,3604082,自然语言处理高级工程师,深圳,2018-04-16 10:05:22,28.0,451,腾讯,腾讯科技(深圳)有限公司,2000人以上,南山区,本科,上市公司,"移动互联网 ,游戏",113.952731,22.535766,全职,3-5年
441,4096457,自然语言处理工程师,杭州,2018-04-27 09:47:00,11.2,36219,半个医生,杭州蕙泉仲康信息技术有限公司,15-50人,西湖区,本科,A轮,"移动互联网,医疗健康",120.146072,30.279249,全职,不限
442,4143311,NLP算法工程师,上海,2018-04-24 17:50:56,35.0,107784,拼多多,上海寻梦信息技术有限公司,500-2000人,长宁区,本科,C轮,"电子商务,移动互联网",121.402636,31.208967,全职,3-5年
443,1302845,自然语言处理,北京,2018-04-20 13:19:12,35.0,436,360,奇虎360科技有限公司,2000人以上,朝阳区,本科,上市公司,"移动互联网,游戏",116.49012,39.98343006,全职,3-5年
444,3060439,自然语言处理工程师,深圳,2018-04-28 09:36:53,21.0,82377,菁优网,深圳市菁优智慧教育股份有限公司,150-500人,南山区,硕士,上市公司,"移动互联网,教育",113.952197,22.537737,全职,1-3年
445,4226300,资深NLP工程师,北京,2018-04-12 09:51:54,31.0,201606,HT,武汉浩淘科技有限公司,150-500人,朝阳区,硕士,不需要融资,"电子商务,数据服务",116.433647,40.032082,全职,3-5年
446,4184642,NLP算法高级工程师,北京,2018-04-03 12:35:28,32.8,8103,汽车之家,北京车之家信息技术有限公司,2000人以上,海淀区,本科,上市公司,"移动互联网,文化娱乐",116.312255,39.979648,全职,5-10年
447,3215383,自然语言NLP算法实习生,北京,2018-04-28 17:56:30,7.0,36031,一起科技,上海一起作业信息科技有限公司,500-2000人,朝阳区,本科,D轮及以上,"移动互联网,教育",116.486624,40.000825,实习,不限
448,4217201,自然语言处理工程师,杭州,2018-04-27 13:37:10,21.0,148927,智孵科技,杭州智孵科技有限公司,50-150人,滨江区,本科,未融资,"移动互联网,电子商务",120.191995,30.20181,全职,3-5年
449,3214850,算法工程师（NLP）,北京,2018-04-16 15:57:19,12.6,23380,艾漫数据,北京艾漫数据股份科技有限公司,50-150人,朝阳区,硕士,上市公司,"移动互联网,数据服务",116.50477,39.983877,全职,不限
450,2460676,自然语言处理,深圳,2018-04-09 17:48:09,35.0,451,腾讯,腾讯科技(深圳)有限公司,2000人以上,南山区,博士,上市公司,"移动互联网 ,游戏",113.93454,22.54043,全职,应届毕业生
451,4134638,算法专家-搜索/推荐/广告/NLP方向,成都,2018-04-29 10:58:10,35.0,1686,爱奇艺,北京爱奇艺科技有限公司,2000人以上,武侯区,硕士,D轮及以上,"广告营销,文化娱乐",104.076941,30.629821,全职,5-10年
452,2846440,自然语言处理算法工程师,北京,2018-04-25 13:23:54,35.0,520,小米,北京小米科技有限责任公司,2000人以上,海淀区,本科,D轮及以上,移动互联网,116.332762,40.030489,全职,3-5年
453,4410800,NLP算法工程师,南京,2018-04-23 15:48:48,11.2,104298,北明软件,北明软件有限公司,2000人以上,雨花台区,硕士,上市公司,"移动互联网,数据服务",118.775829,31.973621,全职,不限
454,3583484,自然语言处理/机器学习高级工程师,深圳,2018-04-17 19:15:59,35.0,133447,商理事,深圳市由心网络科技有限公司,15-50人,南山区,本科,A轮,企业服务,113.91591,22.540916,全职,3-5年
455,3959934,NLP算法工程师,杭州,2018-04-09 15:06:31,26.0,171980,Rokid,芋头科技（杭州）有限公司,150-500人,西湖区,本科,B轮,"电子商务,移动互联网",120.067022,30.245942,全职,不限
456,4111334,高级NLP算法工程师,北京,2018-04-18 17:36:22,35.0,129068,阿博茨科技,北京阿博茨科技有限公司,50-150人,海淀区,本科,A轮,移动互联网,116.351927,40.010038,全职,3-5年
457,4411297,自然语言处理算法工程师或专家（深圳）,深圳,2018-04-26 17:22:17,21.0,24748,平安科技,平安科技（深圳）有限公司,2000人以上,福田区,硕士,不需要融资,金融,113.993578,22.99368,全职,不限
458,4393943,自然语言处理算法工程师,南京,2018-04-21 12:03:30,19.6,92143,购物党,南京聪明狗网络技术有限公司,15-50人,鼓楼区,硕士,不需要融资,"电子商务,数据服务",118.778121,32.052394,全职,1-3年
459,4492610,NLP、机器学习算法实习生,深圳,2018-04-27 11:38:30,5.6,151568,爱智慧科技,深圳市爱智慧科技有限公司,15-50人,龙岗区,本科,天使轮,"移动互联网,金融",114.228387,22.683595,实习,应届毕业生
460,3763421,NLP算法工程师,北京,2018-04-22 11:24:53,20.8,58756,位聚科技,位聚网络科技（北京）有限公司,少于15人,朝阳区,硕士,天使轮,"移动互联网,生活服务",116.465279,39.900426,全职,1-3年
461,4412844,NLP算法负责人,北京,2018-04-23 17:50:40,38.0,17713,荣之联,北京荣之联科技股份有限公司,500-2000人,朝阳区,硕士,上市公司,"企业服务,数据服务",0.0,0.0,全职,3-5年
462,4040562,自然语言处理算法研究员,上海,2018-04-03 15:12:12,21.0,274815,平安医疗科技研究院,平安医疗科技有限公司,2000人以上,徐汇区,硕士,未融资,"医疗健康,数据服务",121.457162,31.183764,全职,不限
463,4449967,NLP大数据工程师,北京,2018-04-30 01:05:12,36.0,118975,拉普拉斯科技,北京拉普拉斯网络科技有限责任公司,15-50人,海淀区,本科,A轮,"移动互联网,金融",116.310136,39.983619,全职,3-5年
464,4254068,NLP实习生,北京,2018-04-27 10:12:45,2.8,116331,浙江华治数聚科技股份有限公司,浙江华治数聚科技股份有限公司,50-150人,海淀区,大专,未融资,"移动互联网,数据服务",0.0,0.0,实习,不限
465,3464837,NLP研发工程师,杭州,2018-04-28 18:25:12,10.4,32057,校宝在线,校宝在线（杭州）科技股份有限公司,150-500人,西湖区,本科,C轮,"移动互联网,教育",120.124783,30.277036,全职,1-3年
466,4362887,自然语言处理工程师,广州,2018-04-27 16:51:53,17.0,53535,南都,广东南方都市报经营有限公司,500-2000人,越秀区,本科,不需要融资,文化娱乐,113.31452,23.1229,全职,1-3年
467,4240902,研发工程师（自然语言处理方向）,深圳,2018-04-27 14:33:41,28.0,35996,顺丰科技有限公司,顺丰科技有限公司,500-2000人,南山区,硕士,不需要融资,"移动互联网,电子商务",113.937987,22.523392,全职,3-5年
468,4146172,自然语言处理工程师 — AI平台,北京,2018-04-20 09:15:11,35.0,520,小米,北京小米科技有限责任公司,2000人以上,海淀区,硕士,D轮及以上,移动互联网,116.323986,40.046999,全职,1-3年
469,4073882,自然语言处理工程师,上海,2018-04-13 09:53:23,19.0,6636,携程,携程计算机技术（上海）有限公司,2000人以上,长宁区,本科,上市公司,"移动互联网,旅游",121.35169416,31.22163573,全职,1-3年
470,4099665,算法高级工程师（自然语言处理方向）,上海,2018-04-27 11:22:01,22.4,40270,名片全能王,上海合合信息科技发展有限公司,150-500人,静安区,本科,C轮,移动互联网,121.439769,31.294568,全职,不限
471,3719986,自然语言处理工程师,苏州,2018-04-26 10:50:54,17.0,242965,声通科技,苏州声通信息科技有限公司,15-50人,工业园区,硕士,不需要融资,数据服务,120.734191,31.25367,全职,应届毕业生
472,4217652,NLP工程师,杭州,2018-04-26 10:04:29,13.2,46796,鸟瞰智能,杭州鸟瞰智能科技股份有限公司,50-150人,余杭区,本科,A轮,"企业服务,移动互联网",120.019378,30.280646,全职,1-3年
473,2539301,自然语言处理算法工程师,北京,2018-04-19 20:21:28,21.0,133608,新译,新译信息科技（北京）有限公司,15-50人,朝阳区,本科,天使轮,移动互联网,116.486624,40.000825,全职,3-5年
474,3872031,自然语言处理及算法工程师,武汉,2018-04-24 11:47:45,12.6,169562,华志信,北京华志信软件股份有限公司,50-150人,东湖新技术开发区,硕士,上市公司,"移动互联网,数据服务",114.396455,30.507979,全职,1-3年
475,4409285,NLP算法工程师,广州,2018-04-25 11:32:08,19.0,47782,虎彩,虎彩印艺股份有限公司,2000人以上,天河区,本科,上市公司,"企业服务,分类信息",113.374917,23.131905,全职,5-10年
476,2530246,自然语言处理及机器学习算法工程师,北京,2018-04-20 17:18:38,28.0,132664,三角兽科技,三角兽（北京）科技有限公司,50-150人,朝阳区,本科,A轮,移动互联网,116.425339,39.987589,全职,1-3年
477,3402370,MIG06-自然语言处理研究员（深圳）,深圳,2018-04-13 14:30:12,25.2,451,腾讯,腾讯科技(深圳)有限公司,2000人以上,南山区,本科,上市公司,"移动互联网 ,游戏",113.93362,22.540719,全职,3-5年
478,3795694,自然语言处理/机器学习研究员,北京,2018-04-13 10:25:37,42.0,1686,爱奇艺,北京爱奇艺科技有限公司,2000人以上,海淀区,本科,D轮及以上,"广告营销,文化娱乐",116.313228,39.983752,全职,3-5年
479,4481442,NLP算法专家,北京,2018-04-25 16:09:24,49.0,372094,英成科技,北京华翰英成信息科技有限公司,15-50人,朝阳区,本科,未融资,其他,116.4917,39.914833,全职,3-5年
480,3501727,NLP算法工程师（知识库方向）,北京,2018-04-28 14:47:12,28.0,67118,达闼科技,达闼科技（北京）有限公司,150-500人,朝阳区,硕士,B轮,移动互联网,116.479397,39.995298,全职,3-5年
481,4219211,自然语言处理工程师（NLP）,苏州,2018-04-27 10:26:34,26.0,301063,NaturLing教育科技,苏州睿小麟教育科技有限公司,少于15人,工业园区,硕士,天使轮,"移动互联网,教育",0.0,0.0,全职,1-3年
482,3977577,自然语言处理工程师,深圳,2018-04-17 17:42:04,24.0,24548,和美信息,深圳市和美信息技术有限公司,500-2000人,南山区,本科,上市公司,"金融,硬件",113.95433,22.528797,全职,1-3年
483,2650825,自然语言处理研究员,上海,2018-04-24 17:50:55,28.0,107784,拼多多,上海寻梦信息技术有限公司,500-2000人,长宁区,本科,C轮,"电子商务,移动互联网",121.403146,31.20896,全职,1-3年
484,4227645,自然语言处理实习生,南京,2018-04-23 15:48:48,3.4,104298,北明软件,北明软件有限公司,2000人以上,雨花台区,本科,上市公司,"移动互联网,数据服务",118.775829,31.973621,实习,不限
485,4171068,自然语言处理工程师,北京,2018-04-23 10:05:07,28.0,520,小米,北京小米科技有限责任公司,2000人以上,海淀区,硕士,D轮及以上,移动互联网,0.0,0.0,全职,1-3年
486,4120100,自然语言处理工程师,北京,2018-04-09 14:20:05,4.8,21229,嘉和美康,北京嘉和美康信息技术有限公司,500-2000人,东城区,硕士,C轮,"移动互联网,医疗健康",116.424351,39.948703,实习,应届毕业生
487,3431167,NLP算法工程师,北京,2018-04-08 15:27:26,28.0,127298,好啦科技,北京好啦科技有限公司,15-50人,海淀区,硕士,A轮,"数据服务,医疗健康",116.309853,40.053719,全职,1-3年
488,3414616,自然语言处理算法工程师,北京,2018-04-02 14:03:05,28.0,18139,京东集团,北京京东世纪贸易有限公司,2000人以上,大兴区,硕士,上市公司,"电子商务,数据服务",116.513019,39.797041,全职,1-3年
489,4406377,自然语言处理（初级）,上海,2018-04-28 16:57:45,17.0,1373,喜马拉雅,上海证大喜马拉雅网络科技有限公司,500-2000人,浦东新区,本科,D轮及以上,"移动互联网,文化娱乐",121.5935,31.207614,全职,1-3年
490,4342550,NLP工程师,北京,2018-04-27 10:35:50,21.0,113697,LinkDoc,零氪信息技术（北京）有限公司,150-500人,海淀区,硕士,C轮,"医疗健康,数据服务",116.313451,39.982037,全职,应届毕业生
491,4416052,自然语言处理/数据挖掘工程师,深圳,2018-04-13 10:59:23,16.8,62026,车圣智联,深圳市赛格车圣智联科技有限公司,50-150人,南山区,本科,不需要融资,移动互联网,113.932899,22.542186,全职,1-3年
492,4446559,自然语言处理算法专家（NLP）,北京,2018-04-19 09:42:38,42.0,358765,湖北循其本价格鉴定评估有限公司,湖北循其本价格鉴定评估有限公司,50-150人,海淀区,本科,未融资,"移动互联网,其他",116.296196,40.051616,全职,5-10年
493,3866231,自然语言处理工程师,北京,2018-04-05 09:39:54,21.0,242209,云孚科技,云孚科技（北京）有限公司,15-50人,海淀区,本科,不需要融资,"企业服务,移动互联网",116.305953,40.047084,全职,1-3年
494,4343840,自然语言处理算法工程师,深圳,2018-04-27 14:40:34,7.0,41545,深圳市百答科技有限公司,深圳市百答科技有限公司,50-150人,南山区,本科,不需要融资,移动互联网,113.956707,22.537222,实习,应届毕业生
495,4376745,NLP工程师,深圳,2018-04-21 16:24:31,14.0,291432,AIMidas,迈达斯智能(深圳)有限公司,15-50人,南山区,本科,不需要融资,金融,113.952901,22.540817,全职,不限
496,3616568,AI算法工程师(NLP方向),苏州,2018-04-24 00:05:23,21.0,262326,加爱健康,苏州加爱健康科技有限公司,15-50人,工业园区,本科,天使轮,"移动互联网,医疗健康",120.73362,31.254715,全职,3-5年
497,4286970,NLP自然语言工程师,深圳,2018-04-23 13:06:23,38.0,1575,百度,百度在线网络技术（北京）有限公司,2000人以上,南山区,本科,不需要融资,"移动互联网,数据服务",113.942638,22.525053,全职,1-3年
498,4361715,自然语言处理研究员,深圳,2018-04-02 16:55:20,25.2,40459,商汤科技,北京市商汤科技开发有限公司,500-2000人,南山区,硕士,B轮,移动互联网,113.920038,22.494927,全职,不限
499,3323355,自然语言处理工程师&amp;专家（美团外卖配送）,北京,2018-04-29 11:19:06,38.0,50702,美团点评,北京三快在线科技有限公司,2000人以上,朝阳区,本科,D轮及以上,"移动互联网,O2O",116.48001,39.997249,全职,3-5年
500,2909444,自然语言处理研发工程师,上海,2018-04-28 10:25:26,25.2,51480,饿了么,拉扎斯网络科技（上海）有限公司,2000人以上,普陀区,本科,D轮及以上,移动互联网,121.38277718,31.23315639,全职,1-3年
501,4056596,风控/策略算法，机器学习，自然语言处理,杭州,2018-04-26 10:28:01,41.2,6881,猎鹰网络,猎鹰在线网络技术(北京)有限公司,500-2000人,西湖区,本科,未融资,"移动互联网,企业服务",120.299402,30.419045,全职,3-5年
502,3104866,自然语言处理算法工程师,北京,2018-04-20 13:19:11,28.0,436,360,奇虎360科技有限公司,2000人以上,朝阳区,硕士,上市公司,"移动互联网,游戏",116.49112801,39.98313206,全职,1-3年
503,4433708,自然语言处理工程师（NLP）,广州,2018-04-17 17:33:58,29.0,361435,链行天下（广州）区块链研究有限公司,链行天下（广州）区块链研究有限公司,15-50人,越秀区,大专,不需要融资,移动互联网,0.0,0.0,全职,3-5年
504,4169772,自然语言处理工程师实习生,北京,2018-04-11 17:27:28,2.8,318219,国信安石,北京国信安石科技有限责任公司,50-150人,朝阳区,硕士,未融资,"移动互联网,数据服务",116.417034,40.031998,实习,1年以下
505,4155427,深度学习-NLP/机器翻译/机器创作,北京,2018-04-23 16:40:22,32.2,520,小米,北京小米科技有限责任公司,2000人以上,海淀区,硕士,D轮及以上,移动互联网,116.332861,40.040791,全职,3-5年
506,3750652,自然语言(NLP)算法工程师,重庆,2018-04-23 10:46:33,22.0,278036,维普资讯,重庆维普资讯有限公司,150-500人,渝北区,本科,不需要融资,"移动互联网,电子商务",106.503253,29.609499,全职,1-3年
507,4240203,NLP算法专家,北京,2018-04-24 20:12:23,34.8,62,字节跳动,北京字节跳动科技有限公司,2000人以上,海淀区,硕士,C轮,"移动互联网,数据服务",39.971268,39.971268,全职,3-5年
508,4036231,自然语言处理工程师 NLP,深圳,2018-04-16 10:05:22,28.0,451,腾讯,腾讯科技(深圳)有限公司,2000人以上,南山区,本科,上市公司,"移动互联网 ,游戏",113.950671,22.55364,全职,1-3年
509,3770478,NLP算法工程师实习生,深圳,2018-04-23 12:18:15,2.4,184532,Bello,深圳呗佬智能有限公司,15-50人,南山区,本科,A轮,移动互联网,113.938223,22.523806,实习,应届毕业生
510,4054208,算法工程师/专家/研究员 （NLP、知识图谱方向）,北京,2018-04-27 20:24:28,35.0,50702,美团点评,北京三快在线科技有限公司,2000人以上,朝阳区,本科,D轮及以上,"移动互联网,O2O",116.488124,40.008716,全职,3-5年
511,3432421,大数据部_机器学习/自然语言处理/数据挖掘高级研发,深圳,2018-04-28 11:40:40,22.0,1575,百度,百度在线网络技术（北京）有限公司,2000人以上,南山区,不限,不需要融资,"移动互联网,数据服务",0.0,0.0,全职,3-5年
512,4409953,算法工程师-搜索与推荐-自然语言处理,北京,2018-04-23 10:05:10,28.0,520,小米,北京小米科技有限责任公司,2000人以上,海淀区,本科,D轮及以上,移动互联网,0.0,0.0,全职,3-5年
513,3914205,自然语言处理算法专家,深圳,2018-04-08 10:01:56,21.0,6566,金蝶,金蝶软件（中国）有限公司,2000人以上,南山区,硕士,上市公司,"移动互联网,电子商务",113.95478984,22.53412317,全职,不限
514,3858599,NLP算法实习生,北京,2018-04-25 13:49:50,3.8,151386,物灵,北京物灵智能科技有限公司,150-500人,朝阳区,本科,不需要融资,"硬件,移动互联网",116.489053,39.99902,实习,应届毕业生
515,4473764,NLP后台研发工程师,深圳,2018-04-24 15:39:41,26.0,165451,新译,新译信息科技（深圳）有限公司,50-150人,南山区,本科,天使轮,"移动互联网,其他",113.94525,22.553394,全职,5-10年
516,4255463,NLP工程师,上海,2018-04-23 12:05:40,14.0,4832,七牛云,上海七牛信息技术有限公司,150-500人,浦东新区,不限,D轮及以上,"移动互联网,数据服务",121.60363,31.19897,实习,应届毕业生
517,4363619,自然语言处理工程师,上海,2018-04-03 08:01:20,28.0,334190,小哒智能,小哒智能科技（上海）有限公司,少于15人,浦东新区,硕士,天使轮,"移动互联网,数据服务",121.598418,31.20745,全职,1-3年
518,4034648,自然语言处理工程师（NLP）,深圳,2018-04-04 17:37:36,21.0,17433,新国都,深圳市新国都技术股份有限公司,500-2000人,南山区,本科,上市公司,"金融,硬件",113.93585885,22.54873796,全职,1-3年
519,4373693,粉笔科技NLP 研发工程师,北京,2018-04-27 18:37:51,42.0,63714,粉笔网,北京粉笔蓝天科技有限公司,150-500人,朝阳区,硕士,不需要融资,"移动互联网,教育",116.481162,39.996092,全职,3-5年
520,4025991,AI Lab-NLP算法工程师,北京,2018-04-10 22:41:29,28.0,3328,好未来,北京世纪好未来教育科技有限公司,2000人以上,海淀区,硕士,上市公司,"移动互联网,教育",116.313701,39.978427,全职,1-3年
521,3135103,NLP/ML/搜索算法,杭州,2018-04-21 10:55:09,28.0,205354,同花顺,浙江同花顺基金销售有限公司,2000人以上,余杭区,本科,上市公司,"移动互联网,金融",120.045424,30.291923,全职,1-3年
522,3848545,NLP算法专家,上海,2018-04-23 17:15:43,45.0,289129,万博科技,昆山万博网络科技有限公司,15-50人,浦东新区,硕士,天使轮,"移动互联网,金融",121.520174,31.230311,全职,3-5年
523,4313841,自然语言处理NLP算法实习生,北京,2018-04-16 13:24:36,8.8,443,蚂蚁短租,易云游网络技术(北京)有限公司,150-500人,海淀区,本科,C轮,"移动互联网,旅游",116.28288,40.047453,实习,1年以下
524,4467115,NLP算法工程师/算法专家,北京,2018-04-23 16:52:48,31.0,4602,雪球,北京雪球信息科技有限公司,150-500人,朝阳区,硕士,C轮,"社交网络,金融",116.480939,39.996276,全职,3-5年
525,3796050,NLP/机器学习/数据挖掘实习工程师,北京,2018-04-28 11:40:40,3.8,1575,百度,百度在线网络技术（北京）有限公司,2000人以上,海淀区,不限,不需要融资,"移动互联网,数据服务",0.0,0.0,实习,应届毕业生
526,3433419,智能问答-自然语言处理 算法工程师/专家,北京,2018-04-12 13:54:59,38.0,50702,美团点评,北京三快在线科技有限公司,2000人以上,朝阳区,本科,D轮及以上,"移动互联网,O2O",116.487501,40.008268,全职,5-10年
527,3611118,NLP算法科学家,北京,2018-04-17 21:33:35,49.0,3328,好未来,北京世纪好未来教育科技有限公司,2000人以上,海淀区,博士,上市公司,"移动互联网,教育",116.314526,39.982338,全职,3-5年
528,4337496,产品经理-NLP方向（医学）,北京,2018-04-27 10:35:50,21.0,113697,LinkDoc,零氪信息技术（北京）有限公司,150-500人,海淀区,本科,C轮,"医疗健康,数据服务",116.313451,39.982037,全职,3-5年
529,4070516,Data Scientist(NLP),北京,2018-04-08 10:35:10,51.0,2422,凡普金科,凡普金科集团有限公司,2000人以上,东城区,硕士,不需要融资,金融,116.415486,39.93234,全职,5-10年
530,3065614,深度学习/自然语言处理算法工程师,北京,2018-04-30 13:10:28,28.0,197752,深度好奇,深度好奇（北京）科技有限公司,15-50人,海淀区,硕士,天使轮,"企业服务,数据服务",116.335774,39.99468,全职,不限
531,4120758,自然语言处理算法研究员,上海,2018-04-24 10:42:36,38.0,207516,前金院,深圳前海金融管理学院有限公司,50-150人,徐汇区,硕士,未融资,"金融,教育",121.462683,31.1871,全职,3-5年
532,3302098,自然语言处理实习生,北京,2018-04-21 13:37:02,5.6,212983,华来智慧,北京华来智慧科技有限公司,15-50人,海淀区,本科,天使轮,"移动互联网,企业服务",116.331429,39.996759,实习,不限
533,3871550,大数据自然语言处理师,杭州,2018-04-26 16:44:38,14.0,80625,杭州数睿科技,杭州数睿科技有限公司,50-150人,西湖区,本科,A轮,"医疗健康,移动互联网",120.149113,30.281483,全职,应届毕业生
534,4076007,NLP工程师,北京,2018-04-09 16:16:44,21.0,16261,汤臣倍健,汤臣倍健股份有限公司,2000人以上,朝阳区,本科,上市公司,医疗健康,116.472603,39.992061,全职,1-3年
535,4484390,自然语言处理高级工程师,深圳,2018-04-26 09:51:57,28.0,451,腾讯,腾讯科技(深圳)有限公司,2000人以上,南山区,本科,上市公司,"移动互联网 ,游戏",113.93362,22.540719,全职,应届毕业生
536,4453623,NLP算法工程师,上海,2018-04-20 09:01:57,25.2,178526,犀语科技,上海犀语科技有限公司,15-50人,杨浦区,硕士,天使轮,"数据服务,金融",121.509435,31.305875,全职,1-3年
537,4394063,蚂蚁金服-自然语言处理算法专家-蚂蚁金服财富,北京,2018-04-10 10:51:16,34.0,153849,蚂蚁金服集团,支付宝(杭州)信息技术有限公司,2000人以上,朝阳区,硕士,B轮,"金融,移动互联网",0.0,0.0,全职,5-10年
538,4461745,NLP工程师-知识图谱算法 高级工程师/专家,北京,2018-04-22 17:49:39,19.0,55446,贝壳找房,链家网（北京）科技有限公司,2000人以上,海淀区,本科,C轮,"移动互联网,O2O",0.0,0.0,全职,不限
539,4384635,自然语言处理工程师/NLP（实习生or应届生）,深圳,2018-04-17 09:39:10,7.0,53970,狗尾草智能科技,深圳狗尾草智能科技有限公司,150-500人,南山区,本科,A轮,"移动互联网,O2O",113.94622,22.548162,实习,应届毕业生
540,3217975,自然语言处理/机器学习算法工程师,北京,2018-04-04 10:12:54,21.0,1575,百度,百度在线网络技术（北京）有限公司,2000人以上,海淀区,不限,不需要融资,"移动互联网,数据服务",116.273399,40.043429,全职,不限
541,3788213,医学AI产品经理——自然语言处理领域,杭州,2018-04-28 11:43:30,21.0,68457,依图科技,上海依图信息技术有限公司,150-500人,西湖区,本科,C轮,数据服务,120.100748,30.270038,全职,3-5年
542,3723271,自然语言处理高级工程师（北京）,北京,2018-04-16 10:05:22,28.0,451,腾讯,腾讯科技(深圳)有限公司,2000人以上,海淀区,本科,上市公司,"移动互联网 ,游戏",116.306337,39.981802,全职,3-5年
543,4324429,资深算法工程师/研究员-搜索/广告/推荐/NLP,成都,2018-04-27 09:19:57,28.0,1686,爱奇艺,北京爱奇艺科技有限公司,2000人以上,武侯区,本科,D轮及以上,"广告营销,文化娱乐",104.076941,30.629821,全职,1-3年
544,3524507,搜索NLP算法专家,北京,2018-04-27 13:54:01,28.0,18139,京东集团,北京京东世纪贸易有限公司,2000人以上,朝阳区,本科,上市公司,"电子商务,数据服务",115.99339,39.99426,全职,3-5年
545,2985801,机器学习工程师(NLP方向),上海,2018-04-26 13:26:40,21.0,83866,华院数据,华院数据技术（上海）有限公司,500-2000人,杨浦区,硕士,C轮,"企业服务,数据服务",39.897445,116.331398,全职,1-3年
546,4020068,自然语言处理(高级/资深)研发工程师,上海,2018-04-25 10:45:57,24.0,51480,饿了么,拉扎斯网络科技（上海）有限公司,2000人以上,普陀区,硕士,D轮及以上,移动互联网,121.379945,31.231299,全职,1-3年
547,4341467,NLP算法工程师 （大数据部）,北京,2018-04-16 11:06:47,43.0,8103,汽车之家,北京车之家信息技术有限公司,2000人以上,海淀区,本科,上市公司,"移动互联网,文化娱乐",116.311989,39.979473,全职,3-5年
548,4146238,自然语言处理工程师 — 智能问答,北京,2018-04-20 09:14:06,35.0,520,小米,北京小米科技有限责任公司,2000人以上,海淀区,硕士,D轮及以上,移动互联网,116.323986,40.046999,全职,1-3年
549,4353215,NLP算法实习生,北京,2018-04-24 20:13:30,34.8,62,字节跳动,北京字节跳动科技有限公司,2000人以上,海淀区,本科,C轮,"移动互联网,数据服务",39.971268,39.971268,实习,不限
550,4490157,自然语言处理/数据挖掘/深度学习工程师（实习生）,北京,2018-04-28 14:51:30,4.8,61982,康夫子,北京康夫子科技有限公司,15-50人,西城区,本科,A轮,"移动互联网,医疗健康",116.357122,39.939268,实习,应届毕业生
551,4350699,NLP语料标注实习生,上海,2018-04-27 14:53:26,4.4,24995,泛微,上海泛微网络科技股份有限公司,2000人以上,闵行区,大专,上市公司,"移动互联网,企业服务",121.52396,31.07979,全职,不限
552,1842191,自然语言处理高级工程师,北京,2018-04-27 09:03:15,14.0,23727,知网,同方知网（北京）技术有限公司,2000人以上,海淀区,硕士,上市公司,"移动互联网,电子商务",116.35717,40.04444006,全职,应届毕业生
553,3767617,自然语言（NLP）算法工程师,深圳,2018-04-28 10:45:20,17.8,64327,八爪鱼,深圳视界信息技术有限公司,50-150人,南山区,本科,B轮,数据服务,113.940008,22.540521,全职,1-3年
554,3692688,高德-NLP/推荐算法/数据挖掘/数据分析/图谱,北京,2018-04-24 23:19:29,35.0,153849,蚂蚁金服集团,支付宝(杭州)信息技术有限公司,2000人以上,朝阳区,本科,B轮,"金融,移动互联网",116.473198,39.993252,全职,3-5年
555,4375966,自然语言处理/机器学习/策略算法工程师,北京,2018-04-09 16:17:48,28.0,1575,百度,百度在线网络技术（北京）有限公司,2000人以上,海淀区,本科,不需要融资,"移动互联网,数据服务",116.273405,40.042451,全职,3-5年
556,3401906,MIG15-自然语言处理研发工程师（北京）,北京,2018-04-11 15:23:17,25.2,451,腾讯,腾讯科技(深圳)有限公司,2000人以上,海淀区,本科,上市公司,"移动互联网 ,游戏",116.307524,39.984207,全职,3-5年
557,4297290,NLP算法工程师,成都,2018-04-26 11:46:02,14.0,104702,封面新闻,四川封面传媒有限责任公司,150-500人,锦江区,本科,不需要融资,移动互联网,104.08239,30.65891,全职,3-5年
558,4134597,算法工程师-搜索/推荐/广告/NLP方向-成都,成都,2018-04-29 10:57:41,28.0,1686,爱奇艺,北京爱奇艺科技有限公司,2000人以上,武侯区,本科,D轮及以上,"广告营销,文化娱乐",104.076941,30.629821,全职,不限
559,3687023,NLP搜索算法工程师,上海,2018-04-23 14:07:34,17.0,2858,大智慧,上海大智慧股份有限公司,500-2000人,浦东新区,本科,上市公司,"移动互联网,金融",121.53471,31.21748986,全职,1-3年
560,3553693,NLP 研发工程师（实习）,北京,2018-04-27 18:38:42,9.0,63714,粉笔网,北京粉笔蓝天科技有限公司,150-500人,朝阳区,硕士,不需要融资,"移动互联网,教育",116.4538,39.932378,实习,应届毕业生
561,4354668,算法专家（自然语言处理 / 知识图谱方向）,北京,2018-04-28 10:30:22,49.0,29795,罗辑思维,北京思维造物信息科技有限公司,150-500人,朝阳区,本科,B轮,"移动互联网,文化娱乐",115.99339,39.99426,全职,3-5年
562,4311255,NLP算法工程师/自然语言处理算法工程师,上海,2018-04-24 09:56:28,14.0,48693,小i机器人,上海智臻智能网络科技股份有限公司,150-500人,嘉定区,硕士,上市公司,"企业服务,数据服务",121.327718,31.240134,全职,不限
563,4237990,自然语言处理算法工程师,深圳,2018-04-26 19:02:07,28.0,164895,Webot,智言科技(深圳)有限公司,50-150人,南山区,硕士,天使轮,"数据服务,其他",113.957429,22.538684,全职,3-5年
564,4237013,NLP算法研究员/科学家,北京,2018-04-27 22:49:37,38.0,338067,感易智能,北京感易智能科技有限公司,15-50人,海淀区,硕士,天使轮,"金融,数据服务",116.334763,40.006474,全职,3-5年
565,3493222,机器学习工程师（NLP方向）,北京,2018-04-28 09:44:15,23.6,201411,颐圣智能,北京颐圣智能科技有限公司,15-50人,朝阳区,硕士,天使轮,"医疗健康,移动互联网",116.476555,39.989643,全职,1-3年
566,4161234,NLP算法工程师,深圳,2018-04-17 11:58:23,24.0,284998,WeSure微保,微民保险代理有限公司,150-500人,南山区,本科,不需要融资,"金融,移动互联网",113.932749,22.541047,全职,不限
567,4111899,自然语言处理应用工程师（中级）,广州,2018-04-28 09:25:06,14.0,74280,安望科技,广州安望信息科技有限公司,15-50人,天河区,本科,A轮,移动互联网,113.32865,23.1365,全职,1-3年
568,3092064,自然语言处理算法实习生,南京,2018-04-21 12:03:37,5.6,92143,购物党,南京聪明狗网络技术有限公司,15-50人,鼓楼区,硕士,不需要融资,"电子商务,数据服务",118.778121,32.052394,实习,应届毕业生
569,4361452,NLP算法工程师,杭州,2018-04-02 16:33:54,29.0,237906,麦歌算法,杭州麦歌算法科技有限公司,少于15人,滨江区,本科,天使轮,"医疗健康,数据服务",120.139088,30.186623,全职,1-3年
570,4276321,资深NLP工程师,深圳,2018-04-21 19:03:34,35.0,1575,百度,百度在线网络技术（北京）有限公司,2000人以上,南山区,硕士,不需要融资,"移动互联网,数据服务",113.942638,22.525053,全职,3-5年
571,2991224,自然语言处理算法实习生,深圳,2018-04-26 19:02:01,5.6,164895,Webot,智言科技(深圳)有限公司,50-150人,南山区,硕士,天使轮,"数据服务,其他",113.957429,22.538684,实习,应届毕业生
572,3913942,自然语言处理算法工程师,深圳,2018-04-08 10:01:56,14.0,6566,金蝶,金蝶软件（中国）有限公司,2000人以上,南山区,本科,上市公司,"移动互联网,电子商务",113.95478984,22.53412317,全职,不限
573,4225963,NLP机器学习工程师（成都）,成都,2018-04-28 09:17:57,26.0,72150,容联七陌,北京容联七陌科技有限公司,150-500人,高新区,本科,D轮及以上,移动互联网,104.063118,30.577176,全职,3-5年
574,4413695,IoT事业部-自然语言处理算法专家(智能语音/视频,杭州,2018-04-26 19:32:49,35.0,86294,阿里巴巴IoT事业部,阿里巴巴YunOS事业部,2000人以上,余杭区,本科,上市公司,移动互联网,120.023507,30.280228,全职,不限
575,4122263,自然语言处理算法工程师,北京,2018-04-03 10:41:24,32.8,71412,凤凰新闻客户端,凤凰新闻客户端,2000人以上,朝阳区,本科,上市公司,移动互联网,116.490788,40.0054,全职,3-5年
576,3501686,NLP算法工程师（偏机器学习方向）,北京,2018-04-28 14:47:12,28.0,67118,达闼科技,达闼科技（北京）有限公司,150-500人,朝阳区,硕士,B轮,移动互联网,116.479397,39.995298,全职,3-5年
577,4246856,NLP算法工程师,北京,2018-04-27 10:35:50,28.0,113697,LinkDoc,零氪信息技术（北京）有限公司,150-500人,海淀区,本科,C轮,"医疗健康,数据服务",116.313451,39.982037,全职,不限
578,4373449,自然语言处理算法工程师,北京,2018-04-04 15:01:46,19.0,3454,北京三星通信研究院,北京三星通信技术研究有限公司,500-2000人,朝阳区,硕士,D轮及以上,其他,116.444661,39.972375,全职,不限
579,3930557,NLP算法工程师,成都,2018-04-18 13:32:08,19.0,90548,北京紫平方,北京紫平方信息技术有限公司,50-150人,高新区,大专,上市公司,移动互联网,104.06696,30.542724,全职,5-10年
580,3575307,人工智能NLP实习生,成都,2018-04-23 14:44:21,4.4,230,拓尔思TRS,北京拓尔思信息技术股份有限公司,500-2000人,高新区,硕士,上市公司,数据服务,104.06174,30.583649,实习,不限
581,4459089,产品经理（NLP公安方向）-鼎富科技-公检法,北京,2018-04-20 18:32:26,19.0,14343,神州泰岳,北京神州泰岳软件股份有限公司,2000人以上,朝阳区,本科,上市公司,"移动互联网,企业服务",116.41676,40.03196,全职,3-5年
582,4235319,数据挖掘工程师/自然语言处理算法工程师,郑州,2018-04-28 10:53:40,10.8,311233,博菲亚科技,郑州博菲亚信息技术有限公司,15-50人,郑东新区,硕士,天使轮,"移动互联网,金融",113.730614,34.778063,全职,不限
583,4211235,搜索算法工程师（NLP）,北京,2018-04-28 14:13:31,21.0,106303,搜狐集团,北京搜狐新媒体信息技术有限公司,2000人以上,海淀区,本科,上市公司,"移动互联网,广告营销",0.0,0.0,全职,1-3年
584,4293690,NLP算法工程师,上海,2018-04-02 10:31:25,21.0,80934,虎犇金信,上海虎犇金融信息服务有限公司,15-50人,浦东新区,本科,A轮,"移动互联网,金融",121.99341,30.994275,全职,1-3年
585,4360053,百度贴吧-NLP高级工程师,北京,2018-04-23 10:39:19,28.0,1575,百度,百度在线网络技术（北京）有限公司,2000人以上,海淀区,本科,不需要融资,"移动互联网,数据服务",116.273399,40.043429,全职,3-5年
586,2951209,{实习生} 自然语言处理与机器学习-算法和研究方向,北京,2018-04-20 17:18:37,6.2,132664,三角兽科技,三角兽（北京）科技有限公司,50-150人,朝阳区,本科,A轮,移动互联网,116.425339,39.987589,实习,不限
587,3945715,NLP算法工程师,成都,2018-04-08 14:21:22,12.0,51002,长虹技术中心,四川虹微技术股份有限公司,2000人以上,高新区,硕士,不需要融资,"移动互联网,数据服务",104.063426,30.541304,全职,不限
588,4042468,自然语言处理（深度学习/NLP）,北京,2018-04-28 08:52:57,28.0,356,捷通华声,北京捷通华声科技股份有限公司,150-500人,海淀区,硕士,不需要融资,"移动互联网,数据服务",116.29632768,40.05177651,全职,1-3年
589,4397768,NLP算法研究员,深圳,2018-04-17 14:12:59,28.0,451,腾讯,腾讯科技(深圳)有限公司,2000人以上,南山区,硕士,上市公司,"移动互联网 ,游戏",113.934494,22.522641,全职,3-5年
590,4429867,高级NLP/推荐/搜索/数据挖掘/广告算法工程师,深圳,2018-04-26 10:03:04,34.0,331724,迪康金诺,南京迪康金诺生物技术有限公司,50-150人,福田区,本科,不需要融资,"移动互联网,医疗健康",114.052132,22.601513,全职,3-5年
591,4146195,自然语言处理工程师 — 搜索推荐,北京,2018-04-20 09:15:07,35.0,520,小米,北京小米科技有限责任公司,2000人以上,海淀区,硕士,D轮及以上,移动互联网,116.328617,40.045934,全职,1-3年
592,4241827,【实习】【网易游戏】诚聘自然语言处理/深度学习算法,广州,2018-04-26 12:53:52,2.4,22790,网易游戏,广州博冠信息科技有限公司,2000人以上,天河区,本科,上市公司,游戏,112.993461,22.994261,实习,应届毕业生
593,4022996,数据科学家（自然语言处理NLP算法）,重庆,2018-04-25 16:20:49,15.8,395,猪八戒网,重庆猪八戒网络有限公司,2000人以上,渝北区,本科,C轮,"企业服务,硬件",106.502676,29.623512,全职,3-5年
594,3288135,NLP机器学习工程师,北京,2018-04-25 02:00:58,19.0,62845,爱语吧,北京爱语吧科技有限公司,50-150人,海淀区,硕士,A轮,"移动互联网,教育",115.99339,39.99426,全职,1-3年
595,3737008,NLP算法工程师（实习生）,成都,2018-04-26 11:46:03,2.4,104702,封面新闻,四川封面传媒有限责任公司,150-500人,锦江区,硕士,不需要融资,移动互联网,104.08239,30.65891,实习,应届毕业生
596,4152103,大数据分析师（自然语言处理方向）,北京,2018-04-02 10:24:37,14.0,319054,泛钛客,北京泛钛客科技有限公司,150-500人,朝阳区,本科,A轮,"金融,数据服务",116.500682,39.893496,全职,不限
597,4313209,算法实习生（NLP、ML、DL、KG）,杭州,2018-04-24 12:46:35,21.0,202671,同花顺,杭州核新软件技术有限公司,2000人以上,余杭区,硕士,上市公司,"金融,移动互联网",120.045424,30.291923,全职,应届毕业生
598,3971020,NLP算法工程师（实习生）,上海,2018-04-25 16:52:31,12.0,286283,rcrai.com,北京睿科伦智能科技有限公司,15-50人,徐汇区,本科,A轮,移动互联网,121.434043,31.185298,全职,应届毕业生
599,4059846,【招贤纳士：京东广告部招聘自然语言处理工程师】,北京,2018-04-23 12:08:41,21.0,18139,京东集团,北京京东世纪贸易有限公司,2000人以上,朝阳区,本科,上市公司,"电子商务,数据服务",115.99339,39.99426,全职,1-3年
600,3405088,MIG09-资讯中心NLP高级算法工程师,深圳,2018-04-11 15:23:20,25.2,451,腾讯,腾讯科技(深圳)有限公司,2000人以上,南山区,硕士,上市公司,"移动互联网 ,游戏",113.93362,22.540719,全职,5-10年
601,4293079,人工智能算法工程师（NLP、图计算、ML、知识图谱,南京,2018-04-25 10:05:32,24.0,6692,海云数据,天津大海云科技有限公司,150-500人,雨花台区,本科,B轮,"数据服务,企业服务",0.0,0.0,全职,3-5年
602,4251875,高级Android工程师（NLP）,北京,2018-04-30 09:08:20,24.0,9955,学堂在线,北京慕华信息科技有限公司,150-500人,海淀区,本科,B轮,"移动互联网,教育",116.329427,39.99412,全职,5-10年
603,4353798,NLP视频图像算法工程师,上海,2018-04-26 15:37:57,28.0,6542,小红书,行吟信息科技（上海）有限公司,500-2000人,黄浦区,本科,C轮,"生活服务,电子商务",121.474421,31.215876,全职,不限
604,4456354,医学NLP 机器学习 技术合伙人,苏州,2018-04-20 14:07:29,21.0,370044,医智囊（MedPPP）,苏州迪美格智能科技有限公司,少于15人,工业园区,硕士,天使轮,"医疗健康,数据服务",120.744611,31.26176,全职,3-5年
605,4369817,算法专家（NLP/音频等方向）-成都研发中心,成都,2018-04-24 23:50:09,38.0,1686,爱奇艺,北京爱奇艺科技有限公司,2000人以上,武侯区,本科,D轮及以上,"广告营销,文化娱乐",104.074852,30.633427,全职,3-5年
606,4488003,自然语言处理（前端文本）,上海,2018-04-28 09:53:15,22.0,1373,喜马拉雅,上海证大喜马拉雅网络科技有限公司,500-2000人,浦东新区,硕士,D轮及以上,"移动互联网,文化娱乐",121.5935,31.207614,全职,3-5年
607,4113853,自然语言处理NLP高级工程师（深圳德迅大数据筹）,深圳,2018-04-26 15:20:25,21.0,28618,齐牛金融,深圳齐牛互联网金融服务有限公司,15-50人,南山区,本科,A轮,金融,113.952855,22.541327,全职,1-3年
608,3394599,资深数据挖掘工程师（NLP\文本算法方向）,上海,2018-04-27 17:23:50,35.0,50702,美团点评,北京三快在线科技有限公司,2000人以上,长宁区,硕士,D轮及以上,"移动互联网,O2O",121.424432,31.212374,全职,5-10年
609,4299999,风控策略算法工程师(NLP相关),北京,2018-04-17 14:15:35,38.0,23373,VIPKID,北京大米未来科技有限公司,2000人以上,东城区,大专,D轮及以上,教育,116.396076,39.94407,全职,不限
610,4206097,HY1-自然语言处理算法工程师（深圳）,深圳,2018-04-11 14:17:49,21.0,451,腾讯,腾讯科技(深圳)有限公司,2000人以上,南山区,本科,上市公司,"移动互联网 ,游戏",113.9446,22.548341,全职,1-3年
611,4252876,OMG236-腾讯视频自然语言处理高级工程师（北京,深圳,2018-04-09 17:48:11,58.0,451,腾讯,腾讯科技(深圳)有限公司,2000人以上,南山区,硕士,上市公司,"移动互联网 ,游戏",113.93362,22.540719,全职,5-10年
612,4206018,25926-自然语言处理算法工程师（深圳）,深圳,2018-04-11 14:17:49,21.0,451,腾讯,腾讯科技(深圳)有限公司,2000人以上,南山区,本科,上市公司,"移动互联网 ,游戏",113.9446,22.548341,全职,1-3年
613,3404952,MIG16-腾讯地图自然语言处理高级工程师(北京),北京,2018-04-11 15:23:21,25.2,451,腾讯,腾讯科技(深圳)有限公司,2000人以上,海淀区,本科,上市公司,"移动互联网 ,游戏",116.307524,39.984207,全职,1-3年
614,4251857,高级Python工程师（NLP方向）,北京,2018-04-30 09:08:21,24.0,9955,学堂在线,北京慕华信息科技有限公司,150-500人,海淀区,本科,B轮,"移动互联网,教育",116.329427,39.99412,全职,5-10年
615,3210761,SNG16-腾讯音乐自然语言处理NLP高级工程师,深圳,2018-04-23 21:07:12,28.0,451,腾讯,腾讯科技(深圳)有限公司,2000人以上,南山区,本科,上市公司,"移动互联网 ,游戏",113.93362,22.540719,全职,3-5年
616,4403891,SA-腾讯社交广告自然语言处理高级研究员（微信广告,深圳,2018-04-17 14:12:59,25.2,451,腾讯,腾讯科技(深圳)有限公司,2000人以上,南山区,硕士,上市公司,"移动互联网 ,游戏",113.934494,22.522641,全职,3-5年
617,3406902,23048-翻译君NLP算法高级工程师(北京),北京,2018-04-11 15:23:20,25.2,451,腾讯,腾讯科技(深圳)有限公司,2000人以上,海淀区,本科,上市公司,"移动互联网 ,游戏",116.307524,39.984207,全职,10年以上
618,4481228,微信搜索自然语言处理算法工程师（北京）,北京,2018-04-25 15:52:05,28.0,451,腾讯,腾讯科技(深圳)有限公司,2000人以上,海淀区,硕士,上市公司,"移动互联网 ,游戏",0.0,0.0,全职,3-5年
619,4269279,云服务开发工程师（图像/视频/语音/NLP）,深圳,2018-04-09 17:48:08,35.0,451,腾讯,腾讯科技(深圳)有限公司,2000人以上,南山区,本科,上市公司,"移动互联网 ,游戏",113.934464,22.540718,全职,3-5年
620,4481195,微信推荐自然语言处理算法工程师（北京）,北京,2018-04-25 15:48:57,28.0,451,腾讯,腾讯科技(深圳)有限公司,2000人以上,海淀区,硕士,上市公司,"移动互联网 ,游戏",0.0,0.0,全职,3-5年
621,4204416,SA-腾讯社交广告自然语言处理算法研究员（QQ广告,深圳,2018-04-17 14:12:58,25.2,451,腾讯,腾讯科技(深圳)有限公司,2000人以上,南山区,硕士,上市公司,"移动互联网 ,游戏",113.93362,22.540719,全职,3-5年
622,4269246,云服务开发工程师（图像/视频/语音/NLP）,上海,2018-04-09 17:48:08,35.0,451,腾讯,腾讯科技(深圳)有限公司,2000人以上,徐汇区,本科,上市公司,"移动互联网 ,游戏",0.0,0.0,全职,3-5年
623,3402941,MIG16-定位NLP(SDK)开发工程师(北京),北京,2018-04-11 15:23:21,25.2,451,腾讯,腾讯科技(深圳)有限公司,2000人以上,海淀区,硕士,上市公司,"移动互联网 ,游戏",116.307524,39.984207,全职,1-3年
624,4269207,云服务开发工程师（图像/视频/NLP/语言）,北京,2018-04-09 17:48:08,35.0,451,腾讯,腾讯科技(深圳)有限公司,2000人以上,海淀区,本科,上市公司,"移动互联网 ,游戏",116.306337,39.981802,全职,3-5年
625,4301046,网页搜索-自然语言处理研究员-北京-03891,北京,2018-04-28 10:39:29,38.0,1537,搜狗,北京搜狗科技发展有限公司,2000人以上,海淀区,本科,上市公司,"移动互联网,数据服务",116.33254,39.99366006,全职,5-10年
626,1672834,自然语言处理高级工程师,北京,2018-04-28 11:09:37,29.0,50604,roobo,北京智能管家科技有限公司,150-500人,东城区,本科,B轮,移动互联网,116.433221,39.920718,全职,3-5年
627,4010440,自然语言处理工程师,上海,2018-04-27 17:38:20,28.0,24995,泛微,上海泛微网络科技股份有限公司,2000人以上,闵行区,本科,上市公司,"移动互联网,企业服务",121.52396,31.07979,全职,3-5年
628,2929041,NLP工程师（自然语言）,北京,2018-04-28 11:01:53,28.0,3038,Gridsum 国双,北京国双科技有限公司,500-2000人,海淀区,本科,上市公司,"数据服务,企业服务",116.332441,39.976021,全职,3-5年
629,4036435,自然语言处理工程师,北京,2018-04-28 11:01:53,17.0,3038,Gridsum 国双,北京国双科技有限公司,500-2000人,海淀区,硕士,上市公司,"数据服务,企业服务",116.332441,39.976021,全职,应届毕业生
630,4489077,自然语言处理nlp工程师,上海,2018-04-27 17:14:19,28.0,24995,泛微,上海泛微网络科技股份有限公司,2000人以上,闵行区,硕士,上市公司,"移动互联网,企业服务",0.0,0.0,全职,1-3年
631,4017596,急聘自然语言处理工程师,上海,2018-04-27 17:38:20,35.0,24995,泛微,上海泛微网络科技股份有限公司,2000人以上,闵行区,本科,上市公司,"移动互联网,企业服务",121.52396,31.07979,全职,3-5年
632,1638593,初级自然语言处理,北京,2018-04-28 11:01:52,14.0,3038,Gridsum 国双,北京国双科技有限公司,500-2000人,海淀区,本科,上市公司,"数据服务,企业服务",116.332441,39.976021,全职,1-3年
633,2660284,资深自然语言处理工程师,上海,2018-04-28 11:01:53,35.0,3038,Gridsum 国双,北京国双科技有限公司,500-2000人,静安区,本科,上市公司,"数据服务,企业服务",121.44983,31.22558987,全职,5-10年
634,2737677,NLP实习生,北京,2018-04-28 11:01:53,3.4,3038,Gridsum 国双,北京国双科技有限公司,500-2000人,海淀区,本科,上市公司,"数据服务,企业服务",116.33175,39.97599007,实习,不限
635,4342969,人工智能-自然语言处理工程师（中高级）,北京,2018-04-27 11:21:05,38.0,173658,逸途科技,逸途（北京）科技有限公司,50-150人,朝阳区,本科,A轮,"移动互联网,旅游",116.490632,39.985193,全职,3-5年
636,3915910,自然语言处理工程师,上海,2018-04-27 09:51:12,28.0,24995,泛微,上海泛微网络科技股份有限公司,2000人以上,闵行区,本科,上市公司,"移动互联网,企业服务",121.52396,31.07979,全职,3-5年
637,2039543,NLP工程师（偏知识库构建）,北京,2018-04-28 11:01:53,19.0,3038,Gridsum 国双,北京国双科技有限公司,500-2000人,海淀区,本科,上市公司,"数据服务,企业服务",116.33175,39.97599007,全职,3-5年
638,4000756,NLP对话系统高级开发工程师,北京,2018-04-25 09:41:53,28.0,94,思必驰科技,苏州思必驰信息科技有限公司,150-500人,海淀区,本科,C轮,企业服务,116.323585,39.964647,全职,3-5年
639,3997916,NLP算法高级研究员,北京,2018-04-25 09:41:53,28.0,94,思必驰科技,苏州思必驰信息科技有限公司,150-500人,海淀区,本科,C轮,企业服务,116.323585,39.964647,全职,3-5年
640,4024926,NLP算法工程师-审核业务,北京,2018-04-20 17:07:09,35.0,62,字节跳动,北京字节跳动科技有限公司,2000人以上,海淀区,本科,C轮,"移动互联网,数据服务",116.332602,39.971268,全职,1-3年
641,4024924,NLP算法工程师-算法平台,北京,2018-04-20 17:06:05,35.0,62,字节跳动,北京字节跳动科技有限公司,2000人以上,海淀区,本科,C轮,"移动互联网,数据服务",116.332602,39.971268,全职,1-3年
642,4034339,NLP算法工程师-国际化,北京,2018-04-20 17:07:00,35.0,62,字节跳动,北京字节跳动科技有限公司,2000人以上,海淀区,本科,C轮,"移动互联网,数据服务",116.332602,39.971268,全职,1-3年
643,4030014,NLP算法工程师-内容质量,北京,2018-04-20 17:06:54,35.0,62,字节跳动,北京字节跳动科技有限公司,2000人以上,海淀区,本科,C轮,"移动互联网,数据服务",116.332602,39.971268,全职,1-3年
644,4454600,NLP算法实习生-国际化,北京,2018-04-20 10:43:26,4.8,62,字节跳动,北京字节跳动科技有限公司,2000人以上,海淀区,本科,C轮,"移动互联网,数据服务",116.332602,39.971268,实习,不限
645,3756648,NLP软件开发工程师/研究科学家 （北京人工智能研发院）,北京,2018-04-25 09:41:53,38.0,94,思必驰科技,苏州思必驰信息科技有限公司,150-500人,海淀区,硕士,C轮,企业服务,116.323585,39.964647,全职,3-5年
646,3973852,自然语言处理部_策略研发工程师,北京,2018-04-28 11:40:41,21.0,1575,百度,百度在线网络技术（北京）有限公司,2000人以上,海淀区,不限,不需要融资,"移动互联网,数据服务",0.0,0.0,全职,不限
647,3511020,自然语言处理部_NLP平台化高级工程师,北京,2018-04-26 18:04:33,24.0,1575,百度,百度在线网络技术（北京）有限公司,2000人以上,海淀区,不限,不需要融资,"移动互联网,数据服务",0.0,0.0,全职,不限
648,3543835,自然语言处理部_研发实习生（有转正机会）,北京,2018-04-28 11:40:42,3.8,1575,百度,百度在线网络技术（北京）有限公司,2000人以上,海淀区,不限,不需要融资,"移动互联网,数据服务",0.0,0.0,实习,应届毕业生
649,3552922,（校招）NLP 研发工程师,北京,2018-04-27 18:38:54,28.0,63714,粉笔网,北京粉笔蓝天科技有限公司,150-500人,朝阳区,硕士,不需要融资,"移动互联网,教育",116.4538,39.932378,全职,应届毕业生
650,4400717,NLP语料标注实习生,上海,2018-04-27 17:38:20,4.4,24995,泛微,上海泛微网络科技股份有限公司,2000人以上,闵行区,本科,上市公司,"移动互联网,企业服务",121.52396,31.07979,实习,1年以下
651,4373535,（校招/实习生）粉笔科技NLP 研发工程师,北京,2018-04-27 18:37:51,14.0,63714,粉笔网,北京粉笔蓝天科技有限公司,150-500人,朝阳区,本科,不需要融资,"移动互联网,教育",116.481162,39.996092,实习,应届毕业生
652,4075571,自然语言处理部_机器翻译工程师,北京,2018-04-26 18:04:33,21.0,1575,百度,百度在线网络技术（北京）有限公司,2000人以上,海淀区,不限,不需要融资,"移动互联网,数据服务",0.0,0.0,全职,3-5年
653,3476507,NLP技术平台化产品经理/高级产品经理,北京,2018-04-28 11:40:41,22.0,1575,百度,百度在线网络技术（北京）有限公司,2000人以上,海淀区,不限,不需要融资,"移动互联网,数据服务",0.0,0.0,全职,3-5年
654,2735719,高级C++/GO/NLP工程师,北京,2018-04-26 14:53:15,18.6,111175,ZingFront智线,智线云科技（北京）有限公司,50-150人,朝阳区,本科,A轮,"移动互联网,数据服务",116.472483,39.93868,全职,3-5年
655,2735717,高级C++/GO/NLP工程师,武汉,2018-04-26 14:53:17,12.4,111175,ZingFront智线,智线云科技（北京）有限公司,50-150人,洪山区,本科,A轮,"移动互联网,数据服务",0.0,0.0,全职,3-5年
656,3437797,自然语言处理部_商业化运营,北京,2018-04-28 11:40:41,22.0,1575,百度,百度在线网络技术（北京）有限公司,2000人以上,海淀区,不限,不需要融资,"移动互联网,数据服务",0.0,0.0,全职,3-5年
657,4390025,NLP算法高级工程师（风控及反作弊）,北京,2018-04-16 11:06:47,29.0,8103,汽车之家,北京车之家信息技术有限公司,2000人以上,海淀区,本科,上市公司,"移动互联网,文化娱乐",116.311989,39.979473,全职,3-5年
658,3797897,自然语言处理部_前端工程师,北京,2018-04-28 11:40:41,19.0,1575,百度,百度在线网络技术（北京）有限公司,2000人以上,海淀区,不限,不需要融资,"移动互联网,数据服务",0.0,0.0,全职,1-3年
659,3797884,自然语言处理部_iOS端研发工程师,北京,2018-04-26 18:04:33,19.0,1575,百度,百度在线网络技术（北京）有限公司,2000人以上,海淀区,不限,不需要融资,"移动互联网,数据服务",0.0,0.0,全职,1-3年
660,3731940,自然语言处理部_PHP服务端研发工程师,北京,2018-04-28 11:40:40,24.0,1575,百度,百度在线网络技术（北京）有限公司,2000人以上,海淀区,不限,不需要融资,"移动互联网,数据服务",0.0,0.0,全职,1-3年
661,3955967,自然语言处理部_百度翻译品牌运营（校园）,北京,2018-04-28 11:40:41,17.0,1575,百度,百度在线网络技术（北京）有限公司,2000人以上,海淀区,不限,不需要融资,"移动互联网,数据服务",0.0,0.0,全职,1-3年
662,3955961,自然语言处理部_百度翻译品牌运营（市场）,北京,2018-04-28 11:40:40,17.0,1575,百度,百度在线网络技术（北京）有限公司,2000人以上,海淀区,不限,不需要融资,"移动互联网,数据服务",0.0,0.0,全职,1-3年
