,职位编码,职位名称,所在城市,发布日期,薪资待遇(k),公司编码,公司名称,公司全称,公司规模,所在区域,最低学历,融资状态,公司类型,经度,纬度,全职/实习,工作经验
0,1584957,FPGA开发,西安,2018-04-27 15:35:27,12.0,36760,Nova科技,西安诺瓦电子科技有限公司,500-2000人,高新技术产业开发区,本科,未融资,"硬件,数据服务",108.88411854,34.22448332,全职,3-5年
1,3594245,FPGA开发工程师,深圳,2018-04-26 16:22:56,14.0,158669,行云智能,行云智能（深圳）技术有限公司,15-50人,南山区,本科,天使轮,"移动互联网,硬件",113.922225,22.534201,全职,不限
2,3774609,FPGA开发工程师,杭州,2018-04-27 10:38:32,10.8,139581,非白,杭州非白三维科技有限公司,15-50人,余杭区,本科,A轮,移动互联网,120.003645,30.291943,全职,不限
3,4470820,FPGA工程师,深圳,2018-04-27 20:20:37,14.0,122682,普渡科技,深圳市普渡科技有限公司,15-50人,南山区,本科,A轮,"硬件,其他",113.948019,22.543784,全职,1-3年
4,4490613,FPGA开发工程师岗,北京,2018-04-26 20:30:43,28.0,534,京东金融,京东金融,2000人以上,大兴区,本科,上市公司,金融,116.567849,39.791051,全职,3-5年
5,4091585,FPGA开发工程师,广州,2018-04-10 14:18:45,12.0,50784,蓝盾信息安全技术股份有限公司,蓝盾信息安全技术股份有限公司,500-2000人,天河区,大专,上市公司,信息安全,113.37394,23.11910001,全职,1-3年
6,3959861,FPGA开发（实习/兼职）,北京,2018-04-26 18:08:18,3.8,148933,深思考人工智能机器人,深思考人工智能机器人科技（北京）有限公司,50-150人,海淀区,硕士,天使轮,"移动互联网,企业服务",116.30906,40.040429,实习,应届毕业生
7,4435519,FPGA开发工程师,广州,2018-04-30 14:35:56,9.6,307716,艾特智能,广州艾特智能科技有限公司,少于15人,天河区,本科,未融资,"移动互联网,数据服务",113.385214,23.126063,全职,不限
8,3846119,FPGA工程师,上海,2018-04-28 10:40:29,19.0,30809,上海广拓信息技术有限公司,上海广拓信息技术有限公司,150-500人,闸北区,本科,未融资,硬件,121.458958,31.241934,全职,1-3年
9,4246773,FPGA工程师,苏州,2018-04-25 11:55:33,14.0,30997,科达,苏州科达科技股份有限公司,2000人以上,高新区,硕士,上市公司,文化娱乐,120.524496,31.294245,全职,1-3年
10,3172488,FPGA工程师,成都,2018-04-23 13:36:53,9.6,206526,鑫图光电,福州鑫图光电有限公司,50-150人,高新区,本科,不需要融资,"硬件,其他",104.05568,30.586697,全职,3-5年
11,2793515,FPGA工程师,深圳,2018-04-28 10:48:59,15.2,62152,速腾聚创,深圳市速腾聚创科技有限公司,50-150人,南山区,本科,B轮,"移动互联网,硬件",113.965861,22.580768,全职,3-5年
12,4486294,FPGA工程师,北京,2018-04-28 10:41:10,22.8,236936,原始空气,加丁（天津）科技有限公司,50-150人,朝阳区,本科,天使轮,"硬件,移动互联网",116.423428,39.980945,全职,1-3年
13,3377011,FPGA研发工程师,北京,2018-04-27 09:58:51,17.8,150030,北京瑞友,北京瑞友科技股份有限公司,2000人以上,朝阳区,本科,上市公司,"移动互联网,电子商务",116.484736,40.009825,全职,1-3年
14,4416312,FPGA 开发工程师,珠海,2018-04-13 11:20:09,10.8,203647,耐能 Kneron,深圳市耐能人工智能有限公司,15-50人,香洲区,本科,A轮,"企业服务,数据服务",113.492789,22.224443,全职,3-5年
15,4383286,FPGA开发工程师,北京,2018-04-08 16:33:01,28.0,36760,Nova科技,西安诺瓦电子科技有限公司,500-2000人,海淀区,本科,未融资,"硬件,数据服务",116.273961,39.956479,全职,3-5年
16,4054387,FPGA工程师,北京,2018-04-28 14:25:10,28.0,263738,朝夕网络,上海朝夕网络技术有限公司,15-50人,海淀区,本科,天使轮,"移动互联网,金融",116.235138,40.069931,全职,1-3年
17,3338448,FPGA开发工程师,深圳,2018-04-28 08:38:44,10.8,208359,合智同科技,深圳市合智同科技有限公司,少于15人,南山区,本科,未融资,"硬件,其他",113.919361,22.533083,全职,1-3年
18,4204084,FPGA开发工程师,北京,2018-04-18 14:42:12,21.0,40459,商汤科技,北京市商汤科技开发有限公司,500-2000人,海淀区,不限,B轮,移动互联网,116.330506,39.994072,全职,不限
19,1800952,FPGA开发,深圳,2018-04-28 10:04:28,14.0,128547,超节点,超节点创新科技（深圳）有限公司,15-50人,南山区,本科,不需要融资,"硬件,其他",113.970622,22.583731,全职,3-5年
20,3962258,FPGA开发工程师,北京,2018-04-27 09:58:51,17.8,150030,北京瑞友,北京瑞友科技股份有限公司,2000人以上,朝阳区,本科,上市公司,"移动互联网,电子商务",116.484736,40.009825,全职,不限
21,4500409,FPGA工程师,珠海,2018-04-28 16:32:51,12.0,33865,网博科技,珠海网博信息科技股份有限公司,150-500人,香洲区,本科,上市公司,"移动互联网,招聘",113.56843,22.24851,全职,1-3年
22,4404579,FPGA开发／验证工程师,杭州,2018-04-11 15:49:00,10.8,346588,Raymax,浙江锐文科技有限公司,15-50人,余杭区,本科,天使轮,"信息安全,硬件",120.017969,30.280435,全职,1-3年
23,4141876,FPGA开发工程师,武汉,2018-04-25 09:22:15,10.8,129029,烽火科技&middot;虹旭信息技术有限公司,武汉虹旭信息技术有限责任公司,150-500人,江夏区,本科,不需要融资,"信息安全,数据服务",114.416715,30.428291,全职,1-3年
24,3543079,高级FPGA研发工程师,北京,2018-04-28 09:19:28,24.0,181493,开拓天际,北京开拓天际科技有限公司,50-150人,海淀区,本科,A轮,"数据服务,信息安全",116.353207,39.977309,全职,3-5年
25,4052764,FPGA开发工程师,深圳,2018-04-27 11:40:38,21.0,225377,zilliz,上海赜睿信息科技有限公司,15-50人,南山区,硕士,A轮,"企业服务,数据服务",113.943551,22.548179,全职,3-5年
26,2861432,FPGA工程师,武汉,2018-04-26 11:11:52,12.0,172991,睿视智觉,睿视智觉（厦门）科技有限公司,15-50人,东湖新技术开发区,本科,A轮,数据服务,114.394661,30.517349,全职,1-3年
27,4496641,FPGA工程师,深圳,2018-04-27 21:43:44,19.6,34237,超固态科技,深圳成谷科技有限公司,150-500人,龙岗区,本科,A轮,硬件,114.216859,22.719675,全职,3-5年
28,3998510,FPGA开发工程师,北京,2018-04-24 17:14:09,10.8,135416,中科紫鑫,北京中科紫鑫科技有限责任公司,50-150人,大兴区,本科,未融资,其他,116.542601,39.800007,全职,1-3年
29,1568442,FPGA工程师,长沙,2018-04-27 10:13:39,8.2,53172,华诺星空,湖南华诺星空电子技术有限公司,150-500人,岳麓区,本科,A轮,"硬件,其他",112.89870478,28.21466355,全职,3-5年
30,2792242,FPGA工程师,西安,2018-04-27 15:35:27,14.6,36760,Nova科技,西安诺瓦电子科技有限公司,500-2000人,高新技术产业开发区,本科,未融资,"硬件,数据服务",108.882706,34.224311,全职,3-5年
31,4214068,FPGA工程师（中高级开发）,北京,2018-04-28 14:25:10,21.0,263738,朝夕网络,上海朝夕网络技术有限公司,15-50人,海淀区,本科,天使轮,"移动互联网,金融",116.235138,40.069931,全职,3-5年
32,4404552,高级FPGA开发,杭州,2018-04-11 15:47:10,19.0,346588,Raymax,浙江锐文科技有限公司,15-50人,余杭区,本科,天使轮,"信息安全,硬件",120.017969,30.280435,全职,3-5年
33,4484911,FPGA工程师,西安,2018-04-26 10:25:45,8.8,365474,西安磐基新能源科技有限公司,西安磐基新能源科技有限公司,50-150人,高新技术产业开发区,本科,不需要融资,"移动互联网,硬件",108.887183,34.195265,全职,1-3年
34,4497213,FPGA工程师,上海,2018-04-28 10:01:05,8.8,375357,派普诺,上海派普诺管道检测科技发展有限公司,150-500人,嘉定区,本科,未融资,其他,121.304339,31.359273,全职,3-5年
35,4312973,fpga工程师,杭州,2018-04-27 11:01:54,21.0,134966,加速云,杭州加速云信息技术有限公司,50-150人,西湖区,本科,天使轮,"硬件,数据服务",120.069088,30.288891,全职,1-3年
36,4150458,FPGA工程师,珠海,2018-04-27 10:38:57,8.8,63443,4DAGE,珠海市四维时代网络科技有限公司,50-150人,香洲区,本科,B轮,移动互联网,113.598285,22.363155,全职,不限
37,4447712,FPGA高级工程师,上海,2018-04-27 17:28:37,29.0,115142,中金所技术公司,上海金融期货信息技术有限公司,150-500人,浦东新区,硕士,不需要融资,"金融,数据服务",121.534252,31.223517,全职,3-5年
38,4454999,FPGA工程师,南京,2018-04-26 13:56:01,13.2,339080,中创为,北京中创为南京量子通信技术有限公司,150-500人,浦口区,本科,未融资,信息安全,0.0,0.0,全职,1-3年
39,4399128,FPGA 工程师,成都,2018-04-27 15:19:37,19.0,241843,壹未商贸,成都壹未商贸有限公司,15-50人,高新区,本科,未融资,电子商务,104.05558,30.53895,全职,不限
40,4058593,FPGA工程师,北京,2018-04-11 20:38:41,24.0,197641,淳中科技,北京淳中科技股份有限公司,150-500人,昌平区,硕士,上市公司,硬件,116.26855,40.100627,全职,1-3年
41,4276452,FPGA工程师,天津,2018-03-31 15:03:48,14.0,217433,CalmCar Vision,苏州天瞳威视电子科技有限公司,50-150人,南开区,本科,A轮,"硬件,数据服务",117.124634,39.096202,全职,1-3年
42,4068733,FPGA工程师,北京,2018-04-26 14:35:04,28.0,1561,Face++,北京旷视科技有限公司,500-2000人,海淀区,硕士,C轮,"移动互联网,硬件",116.315227,39.98333,全职,3-5年
43,4495595,FPGA工程师,深圳,2018-04-27 17:28:52,15.2,374469,深圳市亿维自动化技术有限公司,深圳市亿维自动化技术有限公司,150-500人,南山区,本科,不需要融资,其他,113.907528,22.550119,全职,1-3年
44,4053190,FPGA开发工程师（北京）,杭州,2018-04-27 11:40:39,21.0,225377,zilliz,上海赜睿信息科技有限公司,15-50人,余杭区,本科,A轮,"企业服务,数据服务",120.00536,30.287475,全职,3-5年
45,4285115,FPGA工程师,成都,2018-04-25 15:36:20,6.2,344616,点阵科技,成都点阵科技有限公司,50-150人,武侯区,本科,A轮,"硬件,其他",103.983993,30.627616,全职,1-3年
46,2230850,FPGA研发工程师,上海,2018-04-09 11:59:57,12.0,142897,恒为科技,恒为科技（上海）股份有限公司,150-500人,闵行区,本科,上市公司,"移动互联网,其他",121.50792789,31.09640607,全职,1-3年
47,4390012,fpga验证--lc,北京,2018-04-27 09:58:52,19.0,150030,北京瑞友,北京瑞友科技股份有限公司,2000人以上,朝阳区,本科,上市公司,"移动互联网,电子商务",116.484736,40.009825,全职,不限
48,4283006,FPGA 工程师,广州,2018-04-09 18:14:11,7.6,121544,JPLY,广州市精谱徕电子科技有限责任公司,15-50人,天河区,本科,不需要融资,其他,113.38955,23.128725,全职,1-3年
49,4146661,FPGA工程师,上海,2018-04-27 09:24:54,9.6,138300,乐野网络科技,上海乐野网络科技有限公司,50-150人,浦东新区,本科,未融资,移动互联网,121.607365,31.243542,全职,3-5年
50,2691633,FPGA工程师,广州,2018-04-27 09:12:44,12.0,64513,捷控电子,广州捷控电子科技有限公司,150-500人,海珠区,本科,不需要融资,硬件,113.29302,23.05855,全职,1-3年
51,3981777,FPGA逻辑算法开发工程师,深圳,2018-04-28 17:47:53,21.0,168101,CTAccel联捷科技,联捷计算科技（深圳）有限公司,50-150人,福田区,本科,A轮,"移动互联网,数据服务",114.062476,22.534205,全职,3-5年
52,2457143,FPGA开发,北京,2018-04-23 09:29:03,13.2,31556,吉视汇通,北京吉视汇通科技有限责任公司,50-150人,丰台区,本科,A轮,硬件,115.99339,39.99426,全职,3-5年
53,4456114,FPGA开发工程师,北京,2018-04-25 17:32:33,14.0,369629,华宇天翔,北京华宇天翔科技发展有限公司,50-150人,海淀区,本科,未融资,硬件 其他,116.260148,39.949563,全职,1-3年
54,3593068,FPGA工程师,上海,2018-04-27 10:52:06,21.0,102957,上海瀚讯,上海瀚讯无线技术有限公司,150-500人,长宁区,本科,未融资,"硬件,其他",121.420507,31.216602,全职,5-10年
55,4484236,FPGA算法开发,杭州,2018-04-26 09:40:30,12.6,105618,舜宇智能,浙江舜宇智能光学技术有限公司,2000人以上,滨江区,本科,上市公司,"电子商务,硬件",120.174907,30.187002,全职,3-5年
56,3639318,高级FPGA工程师,深圳,2018-04-10 10:15:46,26.0,199312,Roadstar.ai,深圳星行科技有限公司,15-50人,南山区,硕士,天使轮,"硬件,移动互联网",113.963356,22.597399,全职,1-3年
57,4205269,FPGA开发工程师,北京,2018-04-25 10:39:52,27.0,83580,地平线机器人,北京地平线信息技术有限公司,150-500人,海淀区,本科,A轮,"移动互联网,硬件",116.31561,39.983413,全职,1-3年
58,3942449,FPGA验证工程师,西安,2018-04-02 09:36:23,7.0,201220,轩宇信息,北京轩宇信息技术有限公司,150-500人,高新技术产业开发区,硕士,不需要融资,"信息安全,其他",108.881861,34.211604,全职,1-3年
59,4205686,FPGA工程师（算法方向）,北京,2018-04-28 14:53:19,19.0,126957,北京算云联科,北京算云联科科技有限公司,150-500人,海淀区,本科,不需要融资,"移动互联网,硬件",116.308144,40.045415,全职,3-5年
60,4288035,FPGA设计1,北京,2018-04-27 09:58:52,22.8,150030,北京瑞友,北京瑞友科技股份有限公司,2000人以上,朝阳区,本科,上市公司,"移动互联网,电子商务",116.484736,40.009825,全职,1-3年
61,4469924,FPGA工程师,北京,2018-04-24 10:14:37,10.8,55513,北京宏锐星通科技有限公司,北京宏锐星通科技有限公司,50-150人,海淀区,本科,D轮及以上,"硬件,分类信息",116.301362,40.054996,全职,1-3年
62,4497979,FPGA工程师,成都,2018-04-28 11:07:31,19.0,370494,成都华镭,成都华镭科技有限公司,15-50人,武侯区,本科,未融资,其他,103.979471,30.63534,全职,3-5年
63,3905771,FPGA验证工程师,北京,2018-04-02 09:37:26,14.0,201220,轩宇信息,北京轩宇信息技术有限公司,150-500人,海淀区,硕士,不需要融资,"信息安全,其他",116.327986,39.980229,全职,1-3年
64,3060009,FPGA开发工程师,北京,2018-04-19 16:30:18,19.0,33910,万协通,北京万协通信息技术有限公司,50-150人,海淀区,本科,未融资,信息安全,116.308556,40.037546,全职,5-10年
65,4472428,FPGA工程师,北京,2018-04-24 14:08:52,19.0,35778,释码大华,北京释码大华科技有限公司,50-150人,朝阳区,本科,D轮及以上,移动互联网,115.99339,39.99426,全职,3-5年
66,1695103,FPGA工程师,北京,2018-04-19 14:31:01,14.0,122572,嘉恒图像,北京嘉恒中自图像技术有限公司,50-150人,海淀区,本科,不需要融资,其他,,,全职,1-3年
67,4484207,FPGA逻辑编程,杭州,2018-04-26 09:38:13,12.6,105618,舜宇智能,浙江舜宇智能光学技术有限公司,2000人以上,滨江区,本科,上市公司,"电子商务,硬件",120.174907,30.187002,全职,3-5年
68,4468356,FPGA工程师,北京,2018-04-23 18:42:27,7.6,372055,中航视嘉,中航视嘉（北京）技术有限公司,50-150人,海淀区,本科,未融资,其他,116.332767,40.027638,全职,1-3年
69,4057323,FPGA算法实现工程师（RTL工程师）,西安,2018-04-27 15:35:27,16.8,36760,Nova科技,西安诺瓦电子科技有限公司,500-2000人,高新技术产业开发区,本科,未融资,"硬件,数据服务",108.993463,33.994053,全职,3-5年
70,3449948,FPGA工程师,杭州,2018-04-23 15:45:28,9.6,157957,UT斯达康通讯有限公司,UT斯达康通讯有限公司,500-2000人,滨江区,本科,上市公司,其他,120.139328,30.184804,全职,1-3年
71,4144886,fpga工程师/fpga算法工程师,武汉,2018-04-23 14:22:34,14.0,70964,九博科技,广东九博电子科技有限公司,150-500人,洪山区,本科,不需要融资,"信息安全,硬件",0.0,0.0,全职,3-5年
72,4352357,FPGA开发专家,北京,2018-04-27 10:10:54,28.0,18139,京东集团,北京京东世纪贸易有限公司,2000人以上,朝阳区,本科,上市公司,"电子商务,数据服务",116.387477,40.000236,全职,5-10年
73,4201431,FPGA工程师,上海,2018-04-17 10:18:21,28.0,21775,DJI大疆创新,深圳市大疆创新科技有限公司,2000人以上,浦东新区,本科,未融资,"移动互联网,硬件",121.583944,31.197664,全职,3-5年
74,4392147,FPGA逻辑编程,杭州,2018-04-09 19:26:30,14.0,46621,舜宇光学科技,舜宇光学科技集团有限公司,2000人以上,滨江区,硕士,上市公司,硬件,120.174398,30.186125,全职,1-3年
75,4210958,FPGA工程师,上海,2018-04-08 09:31:43,14.0,313662,佳光科技,北京佳光科技有限公司,15-50人,闵行区,本科,A轮,"硬件,其他",121.417572,31.073622,全职,3-5年
76,2945224,FPGA工程师,深圳,2018-04-19 16:56:03,14.0,161253,深圳市镭神智能系统有限公司,深圳市镭神智能系统有限公司,50-150人,光明新区,本科,B轮,其他,113.91604,22.730942,全职,1-3年
77,4316567,FPGA工程师,北京,2018-04-23 09:58:17,14.0,350402,中科天芯,中科天芯科技（北京）有限公司,15-50人,海淀区,本科,天使轮,"信息安全,数据服务",116.355305,40.009084,全职,1-3年
78,3728436,FPGA工程师,北京,2018-04-27 16:29:28,21.0,187985,中金信科,中金信科（北京）科技股份有限公司,15-50人,昌平区,本科,未融资,其他,116.29871,40.085165,全职,1-3年
79,3283299,FPGA开发工程师,武汉,2018-04-26 23:26:51,12.0,172854,轩辕智驾,轩辕智驾科技(深圳)有限公司,50-150人,东湖新技术开发区,本科,未融资,"硬件,其他",114.426265,30.467052,全职,3-5年
80,4454273,FPGA资深工程师,北京,2018-04-20 10:15:32,35.0,318253,壹柒乐业,壹柒乐业（北京）信息咨询有限公司,少于15人,,本科,未融资,企业服务、招聘,116.437469,40.050008,全职,10年以上
81,3826180,FPGA开发工程师,上海,2018-04-27 11:40:39,35.0,225377,zilliz,上海赜睿信息科技有限公司,15-50人,徐汇区,本科,A轮,"企业服务,数据服务",121.443059,31.188309,全职,3-5年
82,4032440,FPGA工程师-NTD,北京,2018-04-23 20:06:52,24.0,31590,四维图新,北京四维图新科技股份有限公司,2000人以上,海淀区,本科,上市公司,"移动互联网,生活服务",116.245368,40.072979,全职,不限
83,4340084,FPGA研发工程师,深圳,2018-04-13 11:03:58,19.0,3412,中天安驰,深圳市中天安驰有限责任公司,50-150人,南山区,硕士,A轮,"移动互联网,硬件",113.94633,22.553923,全职,3-5年
84,3930587,FPGA研发工程师,北京,2018-04-16 14:11:05,17.0,287556,航天泰睿,北京航天泰睿科技有限公司,50-150人,海淀区,硕士,未融资,其他,116.216977,39.969148,全职,应届毕业生
85,4276804,FPGA工程师,北京,2018-04-09 15:44:12,10.8,87205,DASUNG,北京大上科技有限公司,15-50人,海淀区,本科,天使轮,"电子商务,硬件",116.276608,40.020351,全职,1年以下
86,1613136,FPGA,成都,2018-04-25 13:50:00,10.8,8486,微核科技,成都微核科技有限公司,50-150人,高新区,本科,上市公司,移动互联网,104.06110649,30.58539373,全职,1-3年
87,4258943,FPGA逻辑工程师,成都,2018-04-08 11:48:45,8.8,115185,成都卫讯科技,成都卫讯科技有限公司,15-50人,高新区,不限,不需要融资,硬件,104.07206,30.493437,全职,1-3年
88,4072734,FPGA开发工程师,成都,2018-04-27 10:58:36,13.2,71823,中科合迅,成都中科合迅科技有限公司,150-500人,武侯区,本科,未融资,"移动互联网,企业服务",104.029032,30.608454,全职,3-5年
89,3906652,高级FPGA工程师,深圳,2018-04-08 15:58:28,26.0,21775,DJI大疆创新,深圳市大疆创新科技有限公司,2000人以上,南山区,本科,未融资,"移动互联网,硬件",113.952984,22.537007,全职,3-5年
90,2650837,FPGA硬件工程师,北京,2018-04-24 09:19:15,10.8,81466,纳米维景,北京纳米维景科技有限公司,50-150人,海淀区,本科,A轮,医疗健康,116.233771,40.068259,全职,1-3年
91,4236867,FPGA设计工程师 (平台开发),深圳,2018-04-28 17:47:53,21.0,168101,CTAccel联捷科技,联捷计算科技（深圳）有限公司,50-150人,福田区,本科,A轮,"移动互联网,数据服务",114.062476,22.534205,全职,3-5年
92,4031587,FPGA 开发工程师,上海,2018-04-11 09:40:54,28.0,178149,GC信息,上海广策信息技术有限公司,15-50人,浦东新区,本科,天使轮,"移动互联网,硬件",121.544379,31.221517,全职,3-5年
93,4387246,FPGA高级工程师,上海,2018-04-19 10:29:18,12.0,360396,powerruler,上海庞络智能科技有限公司,15-50人,浦东新区,本科,不需要融资,"移动互联网,硬件",121.605852,31.261639,全职,1-3年
94,4113073,FPGA,成都,2018-04-16 17:39:40,10.8,27353,理想境界,成都理想境界科技有限公司,50-150人,高新区,大专,A轮,移动互联网,104.07062,30.55119,全职,1-3年
95,4486242,FPGA系统架构师,北京,2018-04-28 10:41:10,38.0,236936,原始空气,加丁（天津）科技有限公司,50-150人,朝阳区,硕士,天使轮,"硬件,移动互联网",116.423428,39.980945,全职,5-10年
96,3738656,FPGA工程师,北京,2018-04-11 15:51:50,19.0,233851,亿华和信,北京亿华和信科技有限公司,50-150人,海淀区,本科,不需要融资,"企业服务,移动互联网",116.351317,40.020089,全职,3-5年
97,4072647,FPGA设计工程师,成都,2018-04-27 10:58:35,18.8,71823,中科合迅,成都中科合迅科技有限公司,150-500人,武侯区,本科,未融资,"移动互联网,企业服务",104.029032,30.608454,全职,5-10年
98,3708469,FPGA工程师,北京,2018-04-25 10:00:25,14.0,105852,悦琦医疗,北京悦琦创通科技有限公司,150-500人,大兴区,本科,不需要融资,医疗健康,116.53076,39.80637,全职,应届毕业生
99,3566069,FPGA高级逻辑工程师,上海,2018-04-27 12:08:07,35.0,131923,魔视智能,魔视智能科技（上海）有限公司,50-150人,浦东新区,本科,A轮,"企业服务,其他",121.606717,31.188913,全职,5-10年
100,4457206,IC/FPGA 设计工程师,合肥,2018-04-20 15:24:43,15.4,21322,卓曜科技,卓曜（北京）科技有限公司,15-50人,蜀山区,本科,未融资,硬件,117.204255,31.849521,全职,5-10年
101,3914783,FPGA工程师,成都,2018-04-28 09:28:00,14.0,57546,亚创博彦,上海亚创博彦信息技术有限公司,500-2000人,高新区,本科,上市公司,企业服务,104.063498,30.56902,全职,1-3年
102,3758066,FPGA工程师,北京,2018-04-23 12:29:04,28.0,267286,韵动体感,北京韵动体感科技有限公司,少于15人,朝阳区,硕士,天使轮,硬件,116.480708,39.909,全职,3-5年
103,3979888,FPGA算法高级工程师,北京,2018-04-28 17:18:25,24.0,247880,奇点汽车,智车优行科技（北京）有限公司,150-500人,朝阳区,本科,C轮,"移动互联网,硬件",116.460783,39.928448,全职,5-10年
104,4412351,FPGA工程师,成都,2018-04-12 16:01:11,11.2,113359,新拓尼克,新新拓尼克（北京）科技研发中心有限公司,150-500人,高新区,本科,不需要融资,"硬件,企业服务",104.05558,30.53895,全职,1-3年
105,4469965,硬件/FPGA工程师,成都,2018-04-24 10:16:31,9.6,275338,思澜科技,思澜科技（成都）有限公司,15-50人,高新区,本科,B轮,"医疗健康,其他",104.056159,30.538559,全职,1-3年
106,4122549,FPGA电子工程师,深圳,2018-04-27 09:35:06,21.0,322508,光启集团,深圳光启超材料技术有限公司,500-2000人,南山区,本科,上市公司,"数据服务,硬件",113.937833,22.522872,全职,3-5年
107,4277303,FPGA 算法加速工程师,北京,2018-04-26 12:49:23,21.0,53014,峰科计算,北京峰科计算技术有限责任公司,15-50人,海淀区,硕士,B轮,数据服务,116.304668,39.986318,全职,3-5年
108,4439360,FPGA工程师,北京,2018-04-18 10:19:49,26.0,138944,打造最好的在线人脸识别引擎,北京飞搜科技有限公司,15-50人,海淀区,硕士,A轮,"移动互联网,企业服务",116.355263,39.964734,全职,3-5年
109,4053569,FPGA开发工程师（北京）,北京,2018-04-27 11:40:39,35.0,225377,zilliz,上海赜睿信息科技有限公司,15-50人,海淀区,硕士,A轮,"企业服务,数据服务",116.314526,39.982338,全职,3-5年
110,3388472,FPGA工程师,北京,2018-04-27 09:08:11,14.0,113929,理工雷科,北京理工雷科电子信息技术有限公司,500-2000人,海淀区,本科,上市公司,"信息安全,数据服务",0.0,0.0,全职,应届毕业生
111,4034360,硬件研发工程师（FPGA方向）,深圳,2018-04-28 21:52:14,13.2,263107,国立智能,深圳市国立智能电力科技有限公司,150-500人,龙岗区,本科,A轮,其他,114.215153,22.723521,全职,3-5年
112,3955124,ARM/FPGA/DSP/嵌入式软件工程师,长沙,2018-04-23 14:21:21,28.0,302425,湖南双菱,湖南双菱电子科技有限公司,50-150人,岳麓区,大专,未融资,"移动互联网,硬件",112.887361,28.209311,全职,3-5年
113,4052529,FPGA工程师,西安,2018-04-09 00:34:15,12.0,159091,前信信息,前信（上海）信息科技有限公司,500-2000人,高新技术产业开发区,本科,不需要融资,移动互联网,0.0,0.0,全职,3-5年
114,4043971,FPGA硬件开发工程师,上海,2018-04-27 11:22:57,12.4,58935,复享光学,上海复享仪器设备有限公司,15-50人,杨浦区,本科,A轮,其他,121.51979,31.29904,全职,不限
115,4457284,IC/FPGA 设计工程师,北京,2018-04-20 15:32:50,15.4,21322,卓曜科技,卓曜（北京）科技有限公司,15-50人,海淀区,本科,未融资,硬件,116.279351,39.931595,全职,5-10年
116,4434723,FPGA设计工程师（防务装备事业部）,北京,2018-04-26 16:06:06,10.8,197669,轩宇空间科技有限公司,北京轩宇空间科技有限公司,150-500人,海淀区,本科,不需要融资,"移动互联网,信息安全",116.327986,39.980229,全职,3-5年
117,4186230,高级FPGA工程师J11749,北京,2018-04-08 09:38:46,12.4,24406,方正电子,北京北大方正电子有限公司,500-2000人,海淀区,本科,上市公司,"移动互联网,数据服务",,,全职,3-5年
118,4427689,FPGA/ASIC设计工程师,深圳,2018-04-16 15:53:43,14.0,356801,中科先见,深圳市中科先见医疗科技有限公司,少于15人,龙岗区,本科,A轮,硬件 医疗健康,114.210085,22.697548,全职,1-3年
119,4469134,FPGA系统架构师,南京,2018-04-24 05:36:47,19.0,53253,中新赛克,南京中新赛克科技有限责任公司,500-2000人,江宁区,本科,不需要融资,信息安全,118.779051,31.840333,全职,5-10年
120,4444525,FPGA优化验证工程师,深圳,2018-04-26 15:29:58,21.0,40459,商汤科技,北京市商汤科技开发有限公司,500-2000人,南山区,硕士,B轮,移动互联网,113.920038,22.494927,全职,不限
121,3644439,FPGA验证工程师,成都,2018-04-27 10:58:36,10.4,71823,中科合迅,成都中科合迅科技有限公司,150-500人,武侯区,本科,未融资,"移动互联网,企业服务",104.029032,30.608454,全职,不限
122,4218922,芯片FPGA原型验证高级工程师,广州,2018-04-19 16:03:14,22.8,13333,广州无线电集团有限公司,广州无线电集团有限公司,2000人以上,天河区,本科,不需要融资,"硬件,企业服务",113.35104,23.11902,全职,5-10年
123,4403402,数字硬件工程师（FPGA）,广州,2018-04-11 14:27:47,10.8,112981,海华电子,海华电子企业（中国）有限公司,150-500人,黄埔区,本科,未融资,"硬件,其他",113.453265,23.154301,全职,1-3年
124,4441185,高级FPGA开发工程师（AI/深度学习处理器方向）,北京,2018-04-26 18:08:18,21.0,148933,深思考人工智能机器人,深思考人工智能机器人科技（北京）有限公司,50-150人,海淀区,硕士,天使轮,"移动互联网,企业服务",116.30906,40.040429,全职,5-10年
125,3781159,FPGA图像工程师,上海,2018-04-27 15:13:46,21.0,113155,邦鼓思科技,邦鼓思电子科技（上海）有限公司,15-50人,杨浦区,本科,天使轮,"移动互联网,硬件",121.521121,31.297307,全职,1-3年
126,4456752,中高级FPGA设计师（IC事业部）,北京,2018-04-26 16:06:06,10.8,197669,轩宇空间科技有限公司,北京轩宇空间科技有限公司,150-500人,海淀区,本科,不需要融资,"移动互联网,信息安全",116.327986,39.980229,全职,1-3年
127,2151019,FPGA视觉算法工程师,北京,2018-04-08 09:44:04,21.0,141018,人加HUMANPLUS,人加智能机器人技术（北京）有限公司,15-50人,海淀区,本科,A轮,硬件,116.30362,39.985874,全职,3-5年
128,4496868,fpga soc平台测试研发工程师,深圳,2018-04-28 09:17:26,21.0,124262,Minieye,深圳佑驾创新科技有限公司,50-150人,南山区,本科,A轮,"硬件,其他",113.952408,22.536121,全职,1-3年
129,3930776,嵌入式硬件（FPGA/DSP）工程师,北京,2018-04-16 14:11:07,18.8,287556,航天泰睿,北京航天泰睿科技有限公司,50-150人,海淀区,硕士,未融资,其他,116.216977,39.969148,全职,不限
130,4444486,FPGA优化验证工程师,北京,2018-04-26 15:29:59,21.0,40459,商汤科技,北京市商汤科技开发有限公司,500-2000人,海淀区,硕士,B轮,移动互联网,116.330506,39.994072,全职,不限
131,3010363,高级FPGA开发工程师（深度学习FPGA计算）,北京,2018-04-26 18:08:18,21.0,148933,深思考人工智能机器人,深思考人工智能机器人科技（北京）有限公司,50-150人,海淀区,硕士,天使轮,"移动互联网,企业服务",116.30906,40.040429,全职,3-5年
132,4441209,FPGA开发工程师（人工智能/深度学习处理器方向）,北京,2018-04-26 18:08:17,16.8,148933,深思考人工智能机器人,深思考人工智能机器人科技（北京）有限公司,50-150人,海淀区,硕士,天使轮,"移动互联网,企业服务",116.30906,40.040429,全职,1-3年
133,4389999,fpga设计--LC,北京,2018-04-27 09:58:51,19.0,150030,北京瑞友,北京瑞友科技股份有限公司,2000人以上,朝阳区,本科,上市公司,"移动互联网,电子商务",116.484736,40.009825,全职,不限
