,职位编码,职位名称,所在城市,发布日期,薪资待遇(k),公司编码,公司名称,公司全称,公司规模,所在区域,最低学历,融资状态,公司类型,经度,纬度,全职/实习,工作经验
0,4196073,自动化-培训专员,上海,2018-04-28 17:14:09,3.8,23348,中通快递,上海中通吉网络技术有限公司,2000人以上,青浦区,大专,上市公司,电子商务,120.993464,30.994061,全职,不限
1,2529586,自动化,南京,2018-04-26 16:31:32,2.8,70879,ZSPLAT,南京智数科技有限公司,15-50人,雨花台区,大专,未融资,"移动互联网,数据服务",118.75317993,31.97577999,全职,不限
2,4480063,自动化及性能测试工程师,广州,2018-04-28 14:02:46,16.8,284199,云联国骥,广东云联国骥投资管理有限公司,500-2000人,海珠区,本科,不需要融资,电子商务,113.385147,23.102207,全职,3-5年
3,3842328,自动化工程师,武汉,2018-04-23 16:26:32,9.0,151588,库柏特COBOT,武汉库柏特科技有限公司,50-150人,东湖新技术开发区,本科,B轮,其他,114.434903,30.499914,全职,3-5年
4,4392089,自动化工程师 5名,常州,2018-04-24 10:17:46,8.2,360840,南京量凯智能,南京量凯智能科技有限公司,少于15人,天宁区,本科,未融资,"硬件,其他",119.992775,31.811111,全职,3-5年
5,4388996,自动化工程师,成都,2018-04-28 10:24:47,8.4,309521,成都科连,成都科连自动化工程有限公司,500-2000人,高新区,大专,上市公司,移动互联网,104.066107,30.546197,全职,3-5年
6,4029988,自动化工程师/技术支持工程师,深圳,2018-04-28 21:13:02,7.0,82781,图麟科技,图麟信息科技（上海）有限公司,50-150人,南山区,本科,A轮,"移动互联网,硬件",0.0,0.0,全职,不限
7,4450830,自动化工程师,重庆,2018-04-23 11:09:16,7.6,49913,电子人物联网,重庆享控智能科技有限公司,50-150人,渝北区,大专,不需要融资,移动互联网,106.49132,29.615339,全职,3-5年
8,4373844,自动化工程师,南京,2018-04-25 10:38:30,8.8,316459,南京汇翔自动化,南京汇翔自动化系统工程有限公司,50-150人,江宁区,大专,未融资,其他,118.843303,31.951649,全职,1-3年
9,4502477,自动化软件工程师,珠海,2018-04-30 01:10:32,9.6,375975,珠海恒讯科技有限公司,珠海恒讯科技有限公司,15-50人,香洲区,本科,不需要融资,硬件,113.483138,22.303745,全职,1-3年
10,4138328,自动化工程师,广州,2018-04-18 15:00:09,4.2,312480,锐赛,广州市锐赛机电设备有限公司,15-50人,萝岗区,本科,不需要融资,"数据服务,硬件",113.434613,23.167442,全职,不限
11,4329819,机械，制造，自动化，信息，通信，转IT培训上岗,郑州,2018-04-23 18:55:26,4.8,311944,北京青柠檬科技有限公司,北京青柠檬科技有限公司,50-150人,管城回族区,大专,A轮,"移动互联网,企业服务",113.681304,34.751189,全职,1年以下
12,3680124,自动化工程师,东莞,2018-04-02 15:07:30,7.0,270592,精滤电子,东莞精滤电子科技有限公司,50-150人,东莞市市辖区,不限,不需要融资,其他,113.675232,23.004362,全职,1-3年
13,3989013,信息自动化岗,北京,2018-04-13 15:06:35,1.4,296181,保利地产北京公司,保利（北京）房地产开发有限公司,150-500人,海淀区,本科,上市公司,其他,0.0,0.0,实习,应届毕业生
14,4067118,自动化工程师,广州,2018-04-10 09:45:33,3.8,285058,广东车海洋,广东车海洋环保科技有限公司,50-150人,番禺区,大专,不需要融资,"移动互联网,硬件",113.459689,22.952412,全职,1-3年
15,4392090,自动化工程师 5名,南京,2018-04-24 10:17:49,8.2,360840,南京量凯智能,南京量凯智能科技有限公司,少于15人,江宁区,本科,未融资,"硬件,其他",118.888555,32.012388,全职,3-5年
16,4448417,自动化工程师,南京,2018-04-25 10:38:30,7.2,316459,南京汇翔自动化,南京汇翔自动化系统工程有限公司,50-150人,江宁区,大专,未融资,其他,118.843303,31.951649,全职,1-3年
17,4029986,自动化工程师/技术支持工程师,上海,2018-04-28 21:13:02,7.0,82781,图麟科技,图麟信息科技（上海）有限公司,50-150人,浦东新区,本科,A轮,"移动互联网,硬件",121.99341,30.994275,全职,不限
18,4095914,自动化工程师,重庆,2018-04-25 16:12:09,3.8,319606,凯际科技,重庆凯际科技有限公司,少于15人,渝北区,不限,未融资,其他,,,全职,不限
19,4197342,自动化工程师,深圳,2018-04-05 05:06:37,10.8,328208,扬名科技,深圳市扬名科技有限公司,少于15人,福田区,本科,不需要融资,其他,,,全职,5-10年
20,4013596,自动化软件工程师,北京,2018-04-26 18:04:14,14.0,47865,飞驰镁物,飞驰镁物（北京）信息服务有限公司,150-500人,朝阳区,本科,B轮,"移动互联网,数据服务",116.51052,39.89339007,全职,3-5年
21,4431768,自动化工程师,上海,2018-04-17 10:30:57,8.4,92550,北汇信息,上海北汇信息科技有限公司,50-150人,闵行区,大专,未融资,其他,121.382202,31.179837,全职,1-3年
22,4282019,自动化工程师,深圳,2018-04-26 17:57:35,15.2,157423,正业玖坤,深圳市正业玖坤信息技术有限公司,50-150人,南山区,大专,上市公司,其他,113.953445,22.537865,全职,3-5年
23,3866123,电气/自动化工程师,合肥,2018-04-24 15:36:31,6.2,99481,暖流,北京暖流科技有限公司,15-50人,高新区,大专,天使轮,"移动互联网,其他",117.203196,31.849414,全职,1-3年
24,4374542,自动化工程师/电气工程师,深圳,2018-04-25 11:47:42,10.8,161091,明锐理想,深圳明锐理想科技有限公司,50-150人,南山区,本科,A轮,其他,113.970765,22.583847,全职,1-3年
25,4474698,自动化运维,杭州,2018-04-24 16:45:22,10.8,330683,漠坦尼,杭州漠坦尼科技有限公司,15-50人,西湖区,大专,不需要融资,"企业服务,信息安全",120.137231,30.270192,全职,1-3年
26,4096325,自动化开发工程师,西安,2018-04-28 14:24:40,9.0,16831,武汉佰钧成技术有限公司,武汉佰钧成技术有限责任公司,2000人以上,高新技术产业开发区,本科,不需要融资,移动互联网,0.0,0.0,全职,1-3年
27,4352273,自动化运维/讲师,北京,2018-04-08 11:14:00,19.0,6040,慕课网,北京奥鹏远程教育中心有限公司,50-150人,海淀区,不限,不需要融资,"移动互联网,教育",116.314673,39.956947,兼职,3-5年
28,4376733,急招自动化机构工程师,深圳,2018-04-06 00:00:22,9.0,119589,GIGALIGHT,深圳市易飞扬通信技术有限公司,500-2000人,宝安区,本科,未融资,"移动互联网,硬件",,,全职,3-5年
29,3812980,自动化工程师,深圳,2018-04-22 11:57:22,5.6,283051,熙和力,深圳市熙和力自动化设备有限公司,少于15人,宝安区,不限,不需要融资,其他,113.886786,22.569998,全职,不限
30,4499643,自动化工程师助理高薪,无锡,2018-04-29 15:22:43,4.8,233304,燃网络,南京网燃网络科技有限公司,少于15人,崇安区,大专,未融资,"移动互联网,游戏",120.307543,31.571228,全职,1年以下
31,2112693,自动化工程师,北京,2018-04-23 10:32:19,7.0,139457,北京弘浩千瑞科技有限公司,北京弘浩千瑞科技有限公司,15-50人,昌平区,本科,不需要融资,"硬件,其他",116.42471787,40.11733297,全职,1-3年
32,4404042,自动化软件开发,上海,2018-04-24 13:15:59,12.8,22375,图超市,上海图尚影像科技有限公司,150-500人,松江区,大专,B轮,电子商务,121.315659,31.096024,全职,1-3年
33,4442218,基础自动化工程师,重庆,2018-04-25 09:08:44,9.4,124717,中冶赛迪研发中心,中冶赛迪技术研究中心有限公司,150-500人,渝北区,硕士,不需要融资,其他,106.576318,29.636325,全职,不限
34,4430665,自动化工程师,北京,2018-04-17 08:18:26,14.0,149414,同创信通,北京同创信通科技有限公司,50-150人,丰台区,大专,未融资,"移动互联网,电子商务",116.288638,39.825652,全职,3-5年
35,4124502,自动化开发专家,杭州,2018-04-28 10:27:50,28.0,13033,菜鸟网络,浙江菜鸟供应链管理有限公司,2000人以上,余杭区,不限,B轮,电子商务,120.037185,30.278043,全职,3-5年
36,4366422,首席私有云和自动化工程师-工程效率部,北京,2018-04-26 17:45:17,43.6,7000,FreeWheel,飞维美地信息技术（北京）有限公司,500-2000人,朝阳区,本科,上市公司,"企业服务,数据服务",116.471469,39.953193,全职,10年以上
37,4433416,自动化开发工程师,佛山,2018-04-17 12:30:44,8.8,361537,世科智能,佛山世科智能技术有限公司,15-50人,南海区,本科,未融资,"数据服务,硬件",113.176243,23.027283,全职,1-3年
38,3950009,自动化控制工程师,深圳,2018-04-08 16:14:20,20.8,21775,DJI大疆创新,深圳市大疆创新科技有限公司,2000人以上,南山区,本科,未融资,"移动互联网,硬件",113.952984,22.537007,全职,3-5年
39,4406162,高级自动化工程师,深圳,2018-04-26 17:57:36,15.2,157423,正业玖坤,深圳市正业玖坤信息技术有限公司,50-150人,南山区,大专,上市公司,其他,113.953445,22.537865,全职,3-5年
40,4484494,电气自动化,南通,2018-04-26 09:58:04,8.2,360292,中天智能装备,中天智能装备有限公司,150-500人,崇川区,大专,不需要融资,其他、硬件,120.931843,31.935142,全职,3-5年
41,4226831,自动化工程师,北京,2018-04-13 15:48:12,9.6,312095,辽宁亿帆（北京公司）,辽宁亿帆机械制造有限公司,50-150人,丰台区,本科,不需要融资,不限,0.0,0.0,全职,5-10年
42,4457431,电气自动化,南通,2018-04-20 15:47:26,9.2,329546,华林科纳,苏州华林科纳半导体设备技术有限公司,50-150人,如皋市,大专,未融资,"电子商务,硬件",120.605593,32.294371,全职,3-5年
43,2861791,集团总部-网络运营部-运维自动化研发工程师,北京,2018-04-17 10:55:02,26.0,106303,搜狐集团,北京搜狐新媒体信息技术有限公司,2000人以上,海淀区,本科,上市公司,"移动互联网,广告营销",116.325402,39.983335,全职,3-5年
44,3594953,测试开发-API自动化方向,北京,2018-04-25 10:12:00,19.6,4188,INK 银客集团,银客未来科技（北京）有限公司,500-2000人,海淀区,本科,C轮,"移动互联网,金融",116.356355,40.047633,全职,3-5年
45,4499496,可实习水暖、电气自动化工程师,无锡,2018-04-29 15:22:43,4.8,233304,燃网络,南京网燃网络科技有限公司,少于15人,崇安区,大专,未融资,"移动互联网,游戏",120.307543,31.571228,全职,1年以下
46,3425105,设备自动化工程师,成都,2018-04-26 14:53:56,7.0,220076,纽扣互动,成都纽扣互动科技有限公司,少于15人,武侯区,不限,未融资,"硬件,企业服务",104.04339,30.641982,全职,不限
47,4231815,自动化运维岗,上海,2018-04-19 14:09:47,19.0,254995,通华投控,上海通华投资控股有限公司,150-500人,浦东新区,本科,未融资,"金融,移动互联网",121.534387,31.212168,全职,3-5年
48,4413426,电气自动化工程师,上海,2018-04-27 10:51:10,22.0,4760,唯品会,唯品会（中国）有限公司,2000人以上,闵行区,本科,上市公司,电子商务,121.315182,31.211612,全职,5-10年
49,4410860,自动化事业部-助理工程师,深圳,2018-04-26 13:17:00,5.2,363328,拓野,拓野（深圳）自动化科技有限公司,50-150人,龙岗区,大专,不需要融资,"教育,硬件",114.212927,22.653572,全职,不限
50,4352833,电气自动化工程程师,广州,2018-03-30 15:40:23,7.2,209587,中南机电,广州市中南机电工程有限公司,50-150人,白云区,大专,不需要融资,生活服务,113.295789,23.216792,全职,3-5年
51,4455016,资深自动化工程师,北京,2018-04-20 11:09:05,24.0,368962,视觉互联,视觉互联（北京）网络科技有限公司,少于15人,朝阳区,本科,不需要融资,"企业服务,数据服务",116.494615,39.978416,全职,3-5年
52,3942284,电气自动化工程师,北京,2018-04-18 15:26:00,12.0,293677,国机智能技术研究院,国机智能技术研究院有限公司,50-150人,朝阳区,本科,不需要融资,"信息安全,其他",116.37175,40.002683,全职,3-5年
53,4072940,测试工程师-自动化 性能,北京,2018-04-26 10:27:02,28.0,1730,一下科技,炫一下（北京）科技有限公司,500-2000人,朝阳区,本科,D轮及以上,"移动互联网,文化娱乐",116.48919426,39.999364,全职,3-5年
54,4444589,自动化信息工程师,武汉,2018-04-28 08:40:28,14.4,368661,美好装配,美好建筑装配科技有限公司,500-2000人,江夏区,本科,上市公司,其他,114.408071,30.455849,全职,3-5年
55,4268169,自动化技术/开发方向工程师/实习生/应届生,武汉,2018-04-16 17:19:01,4.4,343296,粤嵌科技,广州粤嵌通信科技股份有限公司武汉分公司,150-500人,洪山区,大专,上市公司,企业服务,114.355287,30.526426,全职,应届毕业生
56,4412635,电气自动化工程师,武汉,2018-04-12 16:22:34,6.2,286942,理惠诚机器人,武汉理惠诚机器人科技有限公司,50-150人,洪山区,本科,A轮,移动互联网,114.322476,30.454896,全职,3-5年
57,3950007,高级自动化工程师,深圳,2018-04-08 16:14:14,20.8,21775,DJI大疆创新,深圳市大疆创新科技有限公司,2000人以上,南山区,本科,未融资,"移动互联网,硬件",113.952984,22.537007,全职,1-3年
58,3538279,自动化工程师/技术员（应届毕业生）,深圳,2018-04-27 16:46:52,3.8,227333,天润,深圳天润控制技术股份有限公司,150-500人,龙岗区,大专,上市公司,"电子商务,硬件",114.067152,22.611315,全职,应届毕业生
59,4499558,自动化工程师（实习生亦可）,上海,2018-04-28 15:03:34,7.6,188193,国内智能IT研发领域领军者!,上海怡胜信息科技有限公司,150-500人,浦东新区,大专,不需要融资,"移动互联网,电子商务",121.622052,31.128116,全职,不限
60,4485975,自动化软件工程师可实习,无锡,2018-04-30 15:00:50,4.8,233304,燃网络,南京网燃网络科技有限公司,少于15人,崇安区,大专,未融资,"移动互联网,游戏",120.307543,31.571228,全职,1年以下
61,4411083,工业自动化工程师,北京,2018-04-27 14:28:28,13.8,105553,北京中佳诺石智能科技有限公司,北京中佳诺石智能科技有限公司,15-50人,海淀区,本科,不需要融资,"移动互联网,电子商务",116.366392,40.041433,全职,3-5年
62,4442193,机械自动化工程师,重庆,2018-04-25 09:08:44,9.0,124717,中冶赛迪研发中心,中冶赛迪技术研究中心有限公司,150-500人,渝北区,硕士,不需要融资,其他,106.576318,29.636325,全职,不限
63,4430648,自动化设计,上海,2018-04-17 05:54:43,6.2,366384,上海三奥机电有限公司,上海三奥机电有限公司,50-150人,,不限,不需要融资,其他,121.54937,31.203762,全职,应届毕业生
64,4305914,自动化电气工程师/技术员,广州,2018-04-21 09:20:58,5.6,348769,广东华能机电,广东华能机电有限公司,50-150人,天河区,本科,未融资,其他,113.328452,23.161193,全职,1-3年
65,4240863,自动化系统高级（或以上）工程师,深圳,2018-04-27 14:33:42,28.0,35996,顺丰科技有限公司,顺丰科技有限公司,500-2000人,南山区,本科,不需要融资,"移动互联网,电子商务",113.937987,22.523392,全职,3-5年
66,4407813,工业自动化工程师,上海,2018-04-18 09:41:18,17.0,155583,SMEE,上海微电子装备(集团)股份有限公司,500-2000人,浦东新区,本科,不需要融资,硬件,121.633777,31.215134,全职,3-5年
67,2887755,高级自动化工程师,北京,2018-04-19 12:49:48,13.2,150860,梅卡曼德,梅卡曼德（北京）机器人科技有限公司,50-150人,海淀区,本科,A轮,"企业服务,硬件",116.337742,39.992894,全职,3-5年
68,4023540,电气工程师（自动化）,深圳,2018-04-02 22:30:58,13.2,307349,善能科技,深圳市善能科技有限公司,15-50人,南山区,本科,未融资,企业服务 数据服务,113.928284,22.540746,全职,3-5年
69,4387641,电气自动化工程师,郑州,2018-04-09 11:57:32,7.0,348431,中机智库,中机智库有限公司,500-2000人,金水区,大专,不需要融资,移动互联网、企业服务,113.704539,34.77418,全职,3-5年
70,3877840,产品经理（楼宇自动化）,上海,2018-04-24 10:38:28,21.0,69631,鲁班软件,上海鲁班软件有限公司,150-500人,杨浦区,本科,不需要融资,企业服务,121.511138,31.306705,全职,3-5年
71,4128193,电气（自动化）工程师,深圳,2018-03-30 11:21:38,6.8,172564,上运车,上运车物联网科技（深圳）有限公司,少于15人,南山区,大专,B轮,"数据服务,移动互联网",113.927215,22.517005,全职,1-3年
72,3117242,测试工程师-接口自动化,北京,2018-04-19 17:21:32,19.0,33220,国家电网全资子公司北京汇通金财,北京汇通金财信息科技有限公司,500-2000人,西城区,本科,不需要融资,"电子商务,金融",116.35739,39.890649,全职,3-5年
73,4377467,自动化机械工程师,深圳,2018-04-23 11:36:27,12.6,155840,易爱深圳（e@）,深圳市易爱特科技有限公司,50-150人,南山区,本科,天使轮,"O2O,移动互联网",113.941355,22.543853,全职,5-10年
74,4496647,机械自动化工程师,深圳,2018-04-27 21:50:00,15.2,34237,超固态科技,深圳成谷科技有限公司,150-500人,龙岗区,本科,A轮,硬件,114.216859,22.719675,全职,3-5年
75,4070879,合肥自动化工程师助理五险一金,合肥,2018-04-30 10:35:59,4.8,233304,燃网络,南京网燃网络科技有限公司,少于15人,包河区,大专,未融资,"移动互联网,游戏",117.28676,31.847092,全职,不限
76,4114510,自动化系统高级工程师,深圳,2018-04-27 14:33:37,21.0,35996,顺丰科技有限公司,顺丰科技有限公司,500-2000人,南山区,本科,不需要融资,"移动互联网,电子商务",113.937987,22.523392,全职,3-5年
77,3990800,机械/自动化 项目助理,沈阳,2018-04-27 13:35:07,2.8,200105,尚软科技,沈阳尚软科技有限公司,150-500人,沈河区,大专,未融资,"移动互联网,数据服务",123.474345,41.781475,全职,1年以下
78,3950011,自动化机械工程师,深圳,2018-04-08 16:14:26,20.8,21775,DJI大疆创新,深圳市大疆创新科技有限公司,2000人以上,南山区,本科,未融资,"移动互联网,硬件",113.952984,22.537007,全职,5-10年
79,4334662,项目经理（自动化方向）,深圳,2018-04-18 09:46:15,12.0,30456,回收宝,深圳回收宝科技有限公司,150-500人,南山区,本科,B轮,"移动互联网,电子商务",113.949541,22.527549,全职,3-5年
80,3518304,自动化机械工程师,深圳,2018-04-27 16:52:14,8.8,251047,鑫信腾,深圳市鑫信腾科技有限公司,150-500人,宝安区,大专,不需要融资,"数据服务,硬件",113.917482,22.585152,全职,3-5年
81,4379295,电气自动化工程师,上海,2018-04-11 13:51:01,7.0,215980,力信测量,上海力信测量系统有限公司,15-50人,浦东新区,本科,未融资,数据服务,121.588713,31.190634,全职,不限
82,4310943,后台开发工程师（自动化平台方向）,广州,2018-04-28 15:55:47,19.0,34420,图普科技（深度学习图像识别云）,广州图普网络科技有限公司,50-150人,天河区,本科,A轮,"移动互联网,数据服务",113.37311,23.1231,全职,3-5年
83,4426346,机械自动化设计师,成都,2018-04-28 10:24:16,7.6,347360,陆易,四川陆易轮胎销售有限公司,50-150人,高新区,大专,未融资,"生活服务,其他",104.03158,30.60398,全职,1-3年
84,4212114,高级测试工程师（自动化）--财富管理事业部,北京,2018-04-23 16:05:30,43.0,201747,百信银行,中信百信银行股份有限公司,150-500人,朝阳区,本科,不需要融资,"金融,移动互联网",0.0,0.0,全职,5-10年
85,4311810,机械工程总监（自动化）,深圳,2018-04-19 10:54:22,21.0,105305,越疆科技,深圳市越疆科技有限公司,150-500人,南山区,本科,B轮,硬件,114.12841,22.684206,全职,10年以上
86,4496263,工业自动化市场总监,上海,2018-04-27 18:57:39,19.0,273798,上海深视科技,上海深视信息科技有限公司,少于15人,闵行区,不限,天使轮,硬件,121.449026,31.021978,全职,不限
87,4207718,高级自动化工具开发工程师,武汉,2018-04-18 17:22:48,12.0,253991,MSC Software,明盛软件发展（武汉）有限公司,150-500人,东湖新技术开发区,本科,未融资,其他,,,全职,5-10年
88,4464509,首席软件开发工程师（私有云和自动化）,北京,2018-04-28 15:42:02,37.2,7000,FreeWheel,飞维美地信息技术（北京）有限公司,500-2000人,朝阳区,本科,上市公司,"企业服务,数据服务",116.471469,39.953193,全职,5-10年
89,4295121,高级网络自动化研发工程师,北京,2018-04-27 10:10:55,33.0,18139,京东集团,北京京东世纪贸易有限公司,2000人以上,朝阳区,本科,上市公司,"电子商务,数据服务",116.387477,40.000236,全职,5-10年
90,4240848,自动化系统高级（或以上）工程师-仿真方向,深圳,2018-04-27 14:33:44,28.0,35996,顺丰科技有限公司,顺丰科技有限公司,500-2000人,南山区,本科,不需要融资,"移动互联网,电子商务",113.937987,22.523392,全职,3-5年
91,4449003,蚂蚁金服-AutoML自动化建模技术专家/工程师,杭州,2018-04-19 13:11:50,28.0,153849,蚂蚁金服集团,支付宝(杭州)信息技术有限公司,2000人以上,西湖区,本科,B轮,"金融,移动互联网",120.125788,30.272627,全职,3-5年
92,3554713,自动化测试工程师,上海,2018-04-28 17:31:47,13.2,128998,江苏亿科达,上海海万信息科技股份有限公司,500-2000人,黄浦区,大专,不需要融资,"移动互联网,金融",0.0,0.0,全职,3-5年
93,4397066,工业自动化项目经理/解决方案工程师,北京,2018-04-27 14:28:28,15.0,105553,北京中佳诺石智能科技有限公司,北京中佳诺石智能科技有限公司,15-50人,海淀区,本科,不需要融资,"移动互联网,电子商务",116.366392,40.041433,全职,3-5年
94,4376147,资深售前顾问（生产制造自动化领域）,上海,2018-04-26 09:39:27,24.8,28498,快仓智能仓储,上海快仓智能科技有限公司,150-500人,徐汇区,本科,B轮,"硬件,数据服务",121.4005,31.177834,全职,10年以上
95,2213226,自动化测试,杭州,2018-04-28 15:30:22,14.0,14945,销冠科技,销冠网络科技有限公司,500-2000人,上城区,本科,B轮,移动互联网,120.17713948,30.21697005,全职,3-5年
96,4227632,自动化测试/接口自动化测试,杭州,2018-04-28 19:45:18,12.6,84693,玛瑙湾,杭州玛瑙湾科技有限公司,50-150人,西湖区,本科,不需要融资,"移动互联网,金融",120.09875,30.27004,全职,3-5年
97,4322574,自动化测试工程师,北京,2018-04-26 19:31:34,21.0,82991,数美,北京数美时代科技有限公司,150-500人,朝阳区,本科,B轮,"企业服务,数据服务",116.465953,40.021083,全职,1-3年
98,4240871,测试工程师（自动化）,杭州,2018-04-25 16:07:44,14.0,23252,兑吧,杭州兑吧网络科技有限公司,500-2000人,西湖区,本科,A轮,移动互联网,120.112127,30.287766,全职,1-3年
99,4084262,自动化测试及开发,上海,2018-04-28 18:04:14,14.4,142626,CLPS,上海华钦信息科技股份有限公司,500-2000人,浦东新区,本科,未融资,"数据服务,金融",121.59819964,31.21080018,全职,1-3年
100,4341071,自动化测试工程师,杭州,2018-04-28 16:00:19,15.0,143587,拓道金服,杭州拓道互联网金融服务有限公司,500-2000人,西湖区,大专,A轮,"移动互联网,金融",120.073283,30.287744,全职,3-5年
101,3591912,自动化测试工程师,北京,2018-04-28 14:46:20,21.0,81107,一亩田,北京一人一亩田网络科技有限公司,150-500人,海淀区,本科,C轮,"移动互联网,电子商务",116.351057,39.977249,全职,3-5年
102,3621709,自动化测试工程师,杭州,2018-04-28 14:09:38,12.6,21658,信领达,信领达（杭州）软件有限公司,50-150人,西湖区,本科,D轮及以上,移动互联网,119.993591,29.993662,全职,3-5年
103,3143599,自动化测试工程师,北京,2018-04-28 09:13:03,12.0,62029,一起考教师,北京清众教育科技有限公司,50-150人,海淀区,本科,A轮,"移动互联网,教育",116.296582,39.967659,全职,1-3年
104,4281539,自动化测试工程师,广州,2018-04-27 18:28:10,12.0,30162,公瑾,北京公瑾科技有限公司广州分公司,500-2000人,天河区,本科,B轮,移动互联网,0.0,0.0,全职,1-3年
105,4262714,自动化测试,上海,2018-04-28 10:21:00,12.0,128998,江苏亿科达,上海海万信息科技股份有限公司,500-2000人,浦东新区,本科,不需要融资,"移动互联网,金融",121.666906,31.238157,全职,3-5年
106,2866547,自动化测试工程师,北京,2018-04-30 00:16:16,19.0,139078,唯医网,北京欧应信息技术有限公司,150-500人,朝阳区,本科,B轮,"移动互联网,医疗健康",116.45347,39.91613,全职,5-10年
107,4485707,自动化测试工程师,北京,2018-04-27 19:11:46,17.0,82991,数美,北京数美时代科技有限公司,150-500人,朝阳区,本科,B轮,"企业服务,数据服务",116.465999,40.021827,全职,1-3年
108,4465548,自动化测试开发工程师,广州,2018-04-27 15:11:13,17.0,212032,尚德机构,北京尚德在线教育科技有限公司,2000人以上,天河区,本科,上市公司,教育,0.0,0.0,全职,3-5年
109,3642318,自动化测试开发,武汉,2018-04-27 14:40:55,7.6,16831,武汉佰钧成技术有限公司,武汉佰钧成技术有限责任公司,2000人以上,江夏区,本科,不需要融资,移动互联网,114.53759,30.4905,全职,1-3年
110,4110111,自动化测试工程师,北京,2018-04-28 13:39:11,13.6,25439,Udesk－企业级智能客服平台,北京沃丰时代数据科技有限公司,150-500人,西城区,本科,B轮,其他,116.357353,39.939211,全职,3-5年
111,4125437,自动化测试工程师,上海,2018-04-26 15:13:40,14.4,50417,爱客CRM,上海微问家信息技术有限公司,50-150人,浦东新区,本科,A轮,移动互联网,121.602929,31.199045,全职,1-3年
112,3900060,自动化测试,西安,2018-04-30 14:42:27,9.2,22862,上海中软华腾软件系统有限公司,上海中软华腾软件系统有限公司,2000人以上,雁塔区,本科,上市公司,"企业服务,金融",108.837196,34.210026,全职,3-5年
113,3614909,自动化测试工程师,北京,2018-04-28 15:03:57,19.0,179,她理财,北京新工场投资顾问有限公司,50-150人,朝阳区,本科,A轮,"移动互联网,金融",116.47297,39.90786007,全职,3-5年
114,2752651,自动化运维工程师,厦门,2018-04-28 15:03:47,7.6,19313,网宿科技,网宿科技股份有限公司北京分公司,2000人以上,思明区,本科,上市公司,移动互联网,117.993493,23.994066,全职,3-5年
115,3935733,自动化测试,大连,2018-04-28 09:58:02,10.6,142626,CLPS,上海华钦信息科技股份有限公司,500-2000人,高新园区,本科,未融资,"数据服务,金融",121.51373,38.847258,全职,3-5年
116,4097331,自动化测试,成都,2018-04-28 09:53:48,12.0,2548,易我科技,成都易我科技开发有限责任公司,50-150人,高新区,大专,不需要融资,"移动互联网,游戏",103.99341,30.994233,全职,3-5年
117,1306791,自动化测试,北京,2018-04-28 09:34:08,19.0,8877,AA租车,先锋智道（北京）科技有限公司,2000人以上,朝阳区,本科,不需要融资,"移动互联网,O2O",116.49344601,39.97552406,全职,3-5年
118,4202723,自动化测试,北京,2018-04-29 11:18:40,14.0,5706,洋葱数学,光合新知（北京）科技有限公司,150-500人,朝阳区,不限,C轮,"移动互联网,教育",116.500139,39.991999,全职,1-3年
119,4498385,配置自动化管理,北京,2018-04-28 11:42:58,14.4,19365,货车帮,贵阳货车帮科技有限公司,2000人以上,朝阳区,本科,B轮,"移动互联网,电子商务",116.481133,39.996727,全职,3-5年
120,3855437,自动化测试开发工程师,上海,2018-04-28 14:47:13,11.2,128998,江苏亿科达,上海海万信息科技股份有限公司,500-2000人,徐汇区,本科,不需要融资,"移动互联网,金融",121.462683,31.1871,全职,3-5年
121,3257358,自动化测试,上海,2018-04-26 10:12:16,17.6,16831,武汉佰钧成技术有限公司,武汉佰钧成技术有限责任公司,2000人以上,长宁区,本科,不需要融资,移动互联网,,,全职,3-5年
122,1796145,自动化测试工程师,西安,2018-04-28 09:15:28,7.6,118198,西安卓派信息科技有限公司,西安卓派信息科技有限公司,50-150人,高新技术产业开发区,不限,B轮,"O2O,其他",108.88432979,34.21327988,全职,1-3年
123,4322591,自动化测试工程师,北京,2018-04-26 19:31:33,21.0,82991,数美,北京数美时代科技有限公司,150-500人,朝阳区,本科,B轮,"企业服务,数据服务",116.465953,40.021083,全职,1-3年
124,4502377,自动化测试,大连,2018-04-29 19:13:40,8.0,90293,纬创软件（大连）,纬创软件（北京）有限公司大连分公司,150-500人,沙河口区,本科,上市公司,"信息安全,数据服务",121.589599,38.892316,全职,3-5年
125,4352973,自动化测试工程师,上海,2018-04-27 17:05:46,17.4,7090,Teambition,上海汇翼信息科技有限公司,150-500人,浦东新区,本科,B轮,"移动互联网,企业服务",121.583532,31.197561,全职,3-5年
126,3858950,自动化测试,北京,2018-04-28 16:19:25,19.0,83585,XSKY,星辰天合（北京）数据科技有限公司,150-500人,海淀区,本科,B轮,企业服务,116.28944,39.96065,全职,3-5年
127,4407952,自动化测试工程师,广州,2018-04-27 09:40:34,12.0,320,玄武科技,广州市玄武无线科技股份有限公司,500-2000人,天河区,本科,上市公司,"移动互联网,招聘",113.320888,23.140158,全职,3-5年
128,2566350,自动化测试,上海,2018-04-23 09:37:31,13.2,14093,瞬联软件科技（北京）有限公司,瞬联软件科技（北京）有限公司,500-2000人,长宁区,本科,不需要融资,"移动互联网 ,企业服务",121.351522,31.220022,全职,不限
129,4059533,自动化测试工程师,上海,2018-04-28 16:10:48,14.4,50417,爱客CRM,上海微问家信息技术有限公司,50-150人,浦东新区,本科,A轮,移动互联网,121.602929,31.199045,全职,3-5年
130,3771594,自动化测试工程师,北京,2018-04-27 10:22:33,10.4,25317,金证股份,深圳市金证科技股份有限公司,2000人以上,西城区,本科,上市公司,金融,116.359861,39.917225,全职,3-5年
131,4304875,自动化测试工程师,北京,2018-04-26 09:43:27,14.0,26426,BJCA,北京数字认证股份有限公司,500-2000人,海淀区,本科,上市公司,信息安全,116.304382,39.984408,全职,5-10年
132,3824710,软件测试工程师（自动化测试 ）,广州,2018-04-28 13:44:09,12.0,67777,快批KP,广州快批信息科技有限公司,50-150人,海珠区,本科,A轮,"移动互联网,数据服务",113.382499,23.098455,全职,1-3年
133,4366973,自动化测试,杭州,2018-04-27 10:55:28,10.8,88499,火石创造,杭州费尔斯通科技有限公司,50-150人,滨江区,本科,A轮,医疗健康,119.993591,29.993662,全职,3-5年
134,4434040,自动化测试专家,杭州,2018-04-28 19:01:14,33.0,59928,盈盈理财,杭州盈纳控股集团有限公司,500-2000人,下城区,本科,A轮,移动互联网,120.165783,30.315415,全职,5-10年
135,3829889,自动化测试工程师,南京,2018-04-27 15:21:29,11.2,16831,武汉佰钧成技术有限公司,武汉佰钧成技术有限责任公司,2000人以上,雨花台区,本科,不需要融资,移动互联网,118.767867,31.986663,全职,3-5年
136,3477967,自动化测试工程师,上海,2018-04-28 15:59:33,12.0,128998,江苏亿科达,上海海万信息科技股份有限公司,500-2000人,黄浦区,本科,不需要融资,"移动互联网,金融",121.502295,31.22147,全职,3-5年
137,3858115,自动化测试工程师,北京,2018-04-27 17:20:13,19.0,83585,XSKY,星辰天合（北京）数据科技有限公司,150-500人,海淀区,本科,B轮,企业服务,116.28944,39.96065,全职,3-5年
138,4374804,自动化测试工程师,深圳,2018-04-28 15:35:10,10.6,17275,数睿科技,数睿科技（深圳）有限公司,150-500人,福田区,本科,上市公司,"移动互联网,电子商务",114.061417,22.570743,全职,1-3年
139,3932729,中级自动化测试工程师（厦门）,厦门,2018-04-28 09:13:52,14.0,64620,久趣英语,厦门千时科技有限公司,150-500人,思明区,本科,B轮,教育,118.185325,24.487476,全职,3-5年
140,2801896,自动化测试工程师,北京,2018-04-27 20:45:01,22.0,534,京东金融,京东金融,2000人以上,通州区,本科,上市公司,金融,116.52117756,39.82198934,全职,5-10年
141,4358130,中级自动化测试工程师,广州,2018-04-27 18:28:09,12.0,30162,公瑾,北京公瑾科技有限公司广州分公司,500-2000人,天河区,本科,B轮,移动互联网,0.0,0.0,全职,1-3年
142,4434704,自动化测试专家,杭州,2018-04-28 19:01:15,33.0,59928,盈盈理财,杭州盈纳控股集团有限公司,500-2000人,下城区,本科,A轮,移动互联网,120.16619,30.315801,全职,3-5年
143,3804810,自动化测试工程师,北京,2018-04-28 15:14:08,24.0,136978,玖富集团,玖富金科控股集团有限责任公司,2000人以上,朝阳区,本科,C轮,金融,116.480792,39.99613,全职,5-10年
144,3939941,自动化测试工程师,北京,2018-04-28 14:25:31,19.0,40459,商汤科技,北京市商汤科技开发有限公司,500-2000人,海淀区,本科,B轮,移动互联网,116.330506,39.994072,全职,3-5年
145,3334714,自动化测试,武汉,2018-04-28 13:58:50,13.2,33790,深瞐科技,北京深瞐科技有限公司,50-150人,东湖新技术开发区,本科,B轮,信息安全、数据服务,114.40964,30.456048,全职,1-3年
146,2189483,自动化测试,北京,2018-04-28 11:58:03,10.8,141955,嘀嗒出行,拼途（北京）信息技术有限公司,150-500人,朝阳区,本科,D轮及以上,"移动互联网,O2O",116.473119,40.019247,全职,1-3年
147,3741603,自动化测试工程师,北京,2018-04-24 13:37:28,19.0,70,宝宝树,宝宝树（北京）信息技术有限公司,500-2000人,朝阳区,本科,D轮及以上,社交网络,115.99339,39.99426,全职,3-5年
148,2991147,高级自动化测试,北京,2018-04-24 10:15:56,22.0,11739,随行付支付有限公司,随行付支付有限公司,500-2000人,石景山区,本科,上市公司,金融,115.99339,39.99426,全职,5-10年
149,4229742,自动化测试工程师,北京,2018-04-12 07:05:09,14.0,31590,四维图新,北京四维图新科技股份有限公司,2000人以上,海淀区,本科,上市公司,"移动互联网,生活服务",116.245368,40.072979,全职,5-10年
150,4491936,自动化测试工程师,上海,2018-04-28 09:11:37,19.6,16831,武汉佰钧成技术有限公司,武汉佰钧成技术有限责任公司,2000人以上,长宁区,本科,不需要融资,移动互联网,121.35433,31.220256,全职,3-5年
151,965505,自动化测试,杭州,2018-04-30 10:03:50,15.2,72753,美国道富,道富信息科技浙江有限公司,2000人以上,西湖区,本科,上市公司,金融,120.064683,30.311752,全职,3-5年
152,4433939,运维开发（自动化方向）,北京,2018-04-28 11:46:06,21.0,1880,快手,北京达佳互联信息技术有限公司,500-2000人,海淀区,本科,D轮及以上,移动互联网,116.338727,39.999302,全职,3-5年
153,4076579,自动化测试工程师,成都,2018-04-27 16:32:48,10.8,95229,四川长虹电器股份有限公司,四川长虹电器股份有限公司,2000人以上,高新区,本科,上市公司,硬件,104.063426,30.541304,全职,3-5年
154,4445657,自动化测试工程师,北京,2018-04-27 14:34:52,14.0,37446,APUS Group,北京麒麟合盛科技有限公司,150-500人,朝阳区,本科,B轮,移动互联网,116.480792,39.996,全职,3-5年
155,3968031,自动化测试工程师,深圳,2018-04-28 09:21:56,17.8,15265,我来贷WeLab,深圳卫盈智信科技有限公司,500-2000人,南山区,本科,B轮,金融,113.94212,22.50907,全职,3-5年
156,3935467,自动化测试,上海,2018-04-27 18:40:24,12.0,14093,瞬联软件科技（北京）有限公司,瞬联软件科技（北京）有限公司,500-2000人,徐汇区,硕士,不需要融资,"移动互联网 ,企业服务",121.4017,31.171481,全职,应届毕业生
157,1977317,自动化测试工程师,北京,2018-04-27 16:24:25,19.0,50604,roobo,北京智能管家科技有限公司,150-500人,东城区,本科,B轮,移动互联网,116.433221,39.920718,全职,3-5年
158,4249946,自动化测试工程师,北京,2018-04-27 09:40:13,17.0,173284,印象笔记,艾沃诺特（北京）科技有限公司,150-500人,朝阳区,本科,D轮及以上,"移动互联网,企业服务",116.487867,39.999765,全职,3-5年
159,4437886,自动化测试工程师,北京,2018-04-28 13:26:02,19.0,3038,Gridsum 国双,北京国双科技有限公司,500-2000人,海淀区,本科,上市公司,"数据服务,企业服务",116.33175,39.975987,全职,3-5年
160,4086649,自动化测试工程师,上海,2018-04-27 16:29:15,19.0,40077,上海钢银,上海钢银电子商务股份有限公司,500-2000人,宝山区,本科,上市公司,"移动互联网,电子商务",121.34243,31.30355,全职,3-5年
161,3922143,自动化测试工程师,北京,2018-04-27 15:12:55,25.2,36162,作业盒子,北京作业盒子科技有限公司,500-2000人,朝阳区,本科,C轮,"移动互联网,教育",116.479717,39.995024,全职,3-5年
162,3666907,自动化测试工程师,杭州,2018-04-26 13:26:40,19.0,83866,华院数据,华院数据技术（上海）有限公司,500-2000人,上城区,本科,C轮,"企业服务,数据服务",39.897445,116.331398,全职,3-5年
163,4313262,自动化测试工程师,珠海,2018-04-25 09:52:09,14.0,7835,金山办公软件,北京金山软件有限公司,2000人以上,香洲区,大专,上市公司,移动互联网,113.601205,22.34793,全职,3-5年
164,4049174,自动化测试工程师,北京,2018-04-28 14:25:32,19.0,40459,商汤科技,北京市商汤科技开发有限公司,500-2000人,海淀区,本科,B轮,移动互联网,116.330506,39.994072,全职,3-5年
165,3886909,自动化测试开发,武汉,2018-04-25 10:56:46,6.6,16831,武汉佰钧成技术有限公司,武汉佰钧成技术有限责任公司,2000人以上,东湖新技术开发区,本科,不需要融资,移动互联网,114.541465,30.48937,全职,1-3年
166,4435396,自动化测试工程师,上海,2018-04-28 09:51:27,12.0,6732,穿衣助手,上海优梦信息科技有限公司,50-150人,杨浦区,本科,B轮,"移动互联网,电子商务",121.51801,31.30932,全职,1-3年
167,3548859,自动化测试,上海,2018-04-27 18:40:25,12.6,14093,瞬联软件科技（北京）有限公司,瞬联软件科技（北京）有限公司,500-2000人,闵行区,本科,不需要融资,"移动互联网 ,企业服务",121.390411,31.164691,全职,1-3年
168,4049144,自动化测试工程师,北京,2018-04-28 14:25:31,24.0,40459,商汤科技,北京市商汤科技开发有限公司,500-2000人,海淀区,本科,B轮,移动互联网,116.330506,39.994072,全职,3-5年
169,4477880,自动化测试工程师 (MJ000734),广州,2018-04-28 11:17:39,14.0,44841,PPmoney互联网金融平台,万惠投资管理有限公司,500-2000人,天河区,本科,上市公司,金融,113.326686,23.119559,全职,3-5年
170,4456229,自动化测试工程师,上海,2018-04-20 13:55:16,19.0,29824,众安保险,众安在线财产保险股份有限公司,2000人以上,黄浦区,本科,上市公司,金融,121.48782,31.243034,全职,3-5年
171,3723101,自动化测试工程师,上海,2018-04-08 10:24:04,14.4,60054,掌门1对1在线教育,上海掌小门教育科技有限公司,500-2000人,虹口区,本科,D轮及以上,"移动互联网,教育",121.488669,31.259278,全职,5-10年
172,4486935,自动化测试工程师,深圳,2018-04-28 17:57:06,9.6,90570,Doo Holding,中国都会控股集团有限公司,50-150人,南山区,本科,A轮,金融,113.91389,22.540677,全职,1-3年
173,4152751,移动终端测试（自动化）,上海,2018-04-28 14:47:13,10.8,128998,江苏亿科达,上海海万信息科技股份有限公司,500-2000人,浦东新区,本科,不需要融资,"移动互联网,金融",121.629578,31.210622,全职,3-5年
174,4469663,自动化测试工程师,上海,2018-04-28 10:11:45,16.2,157588,裕宁科技,上海裕宁信息科技有限公司,50-150人,普陀区,本科,未融资,"移动互联网,金融",0.0,0.0,全职,5-10年
175,4116190,自动化测试工程师,成都,2018-04-28 09:53:48,6.8,2548,易我科技,成都易我科技开发有限责任公司,50-150人,高新区,大专,不需要融资,"移动互联网,游戏",103.99341,30.994233,全职,1-3年
176,3492734,自动化测试工程师,杭州,2018-04-27 13:58:53,14.0,71931,车国,浙江车国网络科技有限公司,2000人以上,江干区,本科,不需要融资,"移动互联网,O2O",120.20925,30.241525,全职,3-5年
177,4179321,自动化测试工程师,杭州,2018-04-25 14:56:40,14.4,108389,浙江新再灵科技股份有限公司,浙江新再灵科技股份有限公司,150-500人,滨江区,本科,D轮及以上,移动互联网,120.18475,30.183295,全职,3-5年
178,3479923,自动化测试,上海,2018-04-20 18:12:40,17.0,42418,坤亿科技,上海坤亿信息技术有限公司,50-150人,浦东新区,本科,不需要融资,"电子商务,企业服务",0.0,0.0,全职,3-5年
179,3480574,自动化测试,杭州,2018-04-28 10:52:03,11.2,223237,淘股神,杭州韦恩网络技术有限公司,15-50人,下城区,大专,A轮,"移动互联网,金融",120.162897,30.277435,全职,1-3年
180,3544492,自动化测试工程师,上海,2018-04-28 09:11:37,17.2,16831,武汉佰钧成技术有限公司,武汉佰钧成技术有限责任公司,2000人以上,长宁区,本科,不需要融资,移动互联网,121.35433,31.220256,全职,不限
181,4322606,自动化测试工程师,北京,2018-04-26 19:31:33,21.0,82991,数美,北京数美时代科技有限公司,150-500人,朝阳区,本科,B轮,"企业服务,数据服务",116.465953,40.021083,全职,1-3年
182,3194020,自动化测试,上海,2018-04-24 13:20:20,31.0,150030,北京瑞友,北京瑞友科技股份有限公司,2000人以上,长宁区,本科,上市公司,"移动互联网,电子商务",121.353694,31.222937,全职,5-10年
183,3940428,自动化运维研发高级工程师/资深工程师/专家,广州,2018-04-29 19:20:48,25.2,254799,小鹏汽车,广州小鹏汽车科技有限公司,150-500人,黄埔区,本科,A轮,"移动互联网,硬件",113.496556,23.153887,全职,3-5年
184,4194575,移动终端测试（自动化）,上海,2018-04-28 17:31:47,11.4,128998,江苏亿科达,上海海万信息科技股份有限公司,500-2000人,浦东新区,本科,不需要融资,"移动互联网,金融",121.666906,31.238157,全职,3-5年
185,4208168,自动化测试,西安,2018-04-25 16:23:46,9.6,22862,上海中软华腾软件系统有限公司,上海中软华腾软件系统有限公司,2000人以上,高新技术产业开发区,本科,上市公司,"企业服务,金融",108.835491,34.206457,全职,3-5年
186,4321007,自动化测试工程师,上海,2018-04-23 09:35:03,19.0,172297,国泰产险,国泰财产保险有限责任公司,500-2000人,浦东新区,本科,不需要融资,金融,121.522641,31.229847,全职,3-5年
187,4434578,高级自动化测试工程师,厦门,2018-04-28 17:47:14,14.0,9251,美柚,厦门美柚信息科技有限公司,500-2000人,思明区,本科,D轮及以上,移动互联网,117.993493,23.994066,全职,3-5年
188,3862640,自动化测试工程师,南京,2018-04-25 20:00:36,11.4,53992,苏宁易购,南京苏宁软件技术有限公司,2000人以上,玄武区,本科,上市公司,"O2O,移动互联网",0.0,0.0,全职,3-5年
189,3861963,自动化测试,北京,2018-04-23 14:12:06,17.0,17965,海马玩,北京海誉动想科技有限公司,150-500人,朝阳区,本科,C轮,移动互联网,116.497961,39.975986,全职,3-5年
190,4004421,自动化测试工程师,上海,2018-04-28 17:05:32,15.2,243778,斐讯技术,四川斐讯信息技术有限公司,2000人以上,松江区,本科,不需要融资,"信息安全,硬件",121.160026,31.02424,全职,3-5年
191,4306893,自动化测试专家,北京,2018-04-27 18:31:37,33.0,139755,京东商城,北京京东世纪贸易有限公司,2000人以上,大兴区,本科,上市公司,电子商务,116.50601,39.793232,全职,5-10年
192,3905801,自动化测试工程师,上海,2018-04-27 15:45:23,22.4,86312,再惠网络,再惠（上海）网络科技有限公司,150-500人,长宁区,本科,B轮,"移动互联网,企业服务",121.42700865,31.19913103,全职,1-3年
193,4473830,自动化测试工程师,北京,2018-04-27 09:32:58,22.0,56698,屏芯科技,北京屏芯科技有限公司,500-2000人,海淀区,本科,B轮,"移动互联网,电子商务",116.330301,39.993134,全职,5-10年
194,3790526,自动化测试工程师,北京,2018-04-26 18:53:37,14.0,28659,奥琦玮,奥琦玮信息科技（北京）有限公司,150-500人,朝阳区,本科,B轮,"移动互联网,O2O",115.99339,39.99426,全职,3-5年
195,3435603,自动化测试开发,武汉,2018-04-28 09:28:07,7.0,16831,武汉佰钧成技术有限公司,武汉佰钧成技术有限责任公司,2000人以上,东湖新技术开发区,本科,不需要融资,移动互联网,114.408157,30.477419,全职,1-3年
196,3891764,自动化机械工程师 （智能产品）,郑州,2018-04-26 16:16:37,4.8,294418,郑州鼎之逸网络科技有限公司,郑州鼎之逸网络科技有限公司,500-2000人,金水区,不限,上市公司,"移动互联网,信息安全",113.715814,34.763954,全职,应届毕业生
197,4373776,中/高级自动化测试工程师,上海,2018-04-25 12:00:08,21.0,30830,哔哩哔哩,上海幻电信息科技有限公司,2000人以上,杨浦区,本科,上市公司,"移动互联网,文化娱乐",121.506437,31.308258,全职,3-5年
198,4151854,软件自动化测试工程师,成都,2018-04-28 09:43:21,8.8,40328,成都市米彩科技有限公司,成都市米彩科技有限公司,150-500人,武侯区,本科,不需要融资,"移动互联网,生活服务",104.053708,30.581518,全职,1-3年
199,3097168,高级自动化测试,上海,2018-04-28 10:09:42,22.0,93141,融之家,上海融之家金融信息服务有限公司,150-500人,杨浦区,大专,B轮,"移动互联网,金融",121.5181,31.300344,全职,3-5年
200,3217104,中级自动化运维工程师,北京,2018-04-27 18:20:43,19.0,88433,北京中铁信,北京中铁信科技有限公司,150-500人,海淀区,本科,不需要融资,其他,116.298211,39.947085,全职,3-5年
201,4471264,自动化测试工程师,惠州,2018-04-24 11:35:00,9.8,221266,德赛西威,惠州市德赛西威汽车电子股份有限公司,2000人以上,惠城区,本科,上市公司,"硬件,其他",114.346003,23.044989,全职,1-3年
202,3797513,高级自动化测试工程师,深圳,2018-04-28 17:09:56,14.0,66841,大辰,深圳市大辰科技有限公司,50-150人,南山区,本科,不需要融资,移动互联网,113.9422,22.54878,全职,3-5年
203,3987345,自动化测试工程师,长沙,2018-04-28 11:55:14,10.2,7382,中和农信,中和农信项目管理有限公司,2000人以上,岳麓区,本科,不需要融资,"移动互联网,金融",112.876209,28.228419,全职,3-5年
204,2623163,高级自动化测试工程师,北京,2018-04-28 11:46:06,19.0,6996,智融集团,北京智融时代科技有限公司,150-500人,海淀区,本科,C轮,金融,116.344462,39.976877,全职,3-5年
205,3342321,自动化测试工程师,北京,2018-04-28 11:09:26,15.2,9955,学堂在线,北京慕华信息科技有限公司,150-500人,海淀区,本科,B轮,"移动互联网,教育",116.329427,39.99412,全职,3-5年
206,4497980,中级自动化测试工程师,北京,2018-04-28 11:07:32,14.4,18291,爱康国宾集团,爱康网健康科技（北京）有限公司,150-500人,朝阳区,本科,上市公司,医疗健康,116.471093,39.90765,全职,3-5年
207,4427145,自动化测试工程师,北京,2018-04-27 13:44:02,14.0,8103,汽车之家,北京车之家信息技术有限公司,2000人以上,海淀区,本科,上市公司,"移动互联网,文化娱乐",116.311989,39.979473,全职,3-5年
208,4140635,Web自动化工程师,上海,2018-04-27 10:23:36,10.8,244460,别样app,上海别样秀数据科技有限公司,50-150人,浦东新区,本科,B轮,"移动互联网,电子商务",121.582223,31.199324,全职,1-3年
209,3773946,自动化测试工程师,北京,2018-04-26 11:07:17,16.8,166177,耀莱在线,耀莱在线（北京）商业服务有限公司,500-2000人,朝阳区,本科,上市公司,"移动互联网,电子商务",116.44935,39.936686,全职,3-5年
210,3244075,自动化测试,武汉,2018-04-23 15:41:09,8.4,16831,武汉佰钧成技术有限公司,武汉佰钧成技术有限责任公司,2000人以上,洪山区,本科,不需要融资,移动互联网,114.406936,30.478623,全职,不限
211,4318763,高级自动化测试工程师,北京,2018-04-23 15:01:38,19.0,226679,货圈全,炘宇（北京）科技有限公司,50-150人,朝阳区,本科,A轮,移动互联网,116.415977,40.032988,全职,5-10年
212,3114738,PHP web后台开发-自动化测试/代码重构方向,深圳,2018-04-28 10:28:57,15.2,16039,花果山,深圳花果山科技有限公司,150-500人,南山区,本科,B轮,电子商务,113.952696,22.530438,全职,1-3年
213,4300556,自动化测试,广州,2018-04-27 09:58:51,14.0,150030,北京瑞友,北京瑞友科技股份有限公司,2000人以上,天河区,本科,上市公司,"移动互联网,电子商务",113.371257,23.124448,全职,3-5年
214,3039707,自动化测试工程师,杭州,2018-04-27 09:50:06,11.2,35980,车纷享,杭州车厘子智能科技有限公司,150-500人,拱墅区,大专,不需要融资,移动互联网,120.114024,30.325485,全职,1-3年
215,4373766,中/高级自动化测试工程师,上海,2018-04-25 12:00:09,21.0,30830,哔哩哔哩,上海幻电信息科技有限公司,2000人以上,杨浦区,本科,上市公司,"移动互联网,文化娱乐",121.506437,31.308258,全职,3-5年
216,3318001,资深自动化测试工程师,北京,2018-04-24 09:12:58,39.0,50702,美团点评,北京三快在线科技有限公司,2000人以上,朝阳区,本科,D轮及以上,"移动互联网,O2O",116.466554,39.995147,全职,3-5年
217,3932757,高级自动化测试工程师（厦门）,厦门,2018-04-28 09:13:53,24.0,64620,久趣英语,厦门千时科技有限公司,150-500人,思明区,本科,B轮,教育,118.185325,24.487476,全职,5-10年
218,4481336,高级自动化测试工程师,北京,2018-04-25 16:00:08,35.0,248005,红赢科技,北京红赢科技有限公司,50-150人,海淀区,本科,不需要融资,"移动互联网,金融",116.320755,39.976715,全职,5-10年
219,4473634,自动化测试工程师,北京,2018-04-24 15:31:36,27.0,136978,玖富集团,玖富金科控股集团有限责任公司,2000人以上,朝阳区,本科,C轮,金融,116.46821,40.021814,全职,5-10年
220,3349984,自动化测试工程师,上海,2018-04-27 10:38:20,21.0,228,Strikingly,"Striking.ly, Inc.",150-500人,杨浦区,不限,A轮,移动互联网,121.99341,30.994275,全职,不限
221,4410836,自动化测试工程师,重庆,2018-04-25 09:08:43,8.4,124717,中冶赛迪研发中心,中冶赛迪技术研究中心有限公司,150-500人,渝北区,本科,不需要融资,其他,106.576318,29.636325,全职,不限
222,3531371,高级自动化测试工程师,北京,2018-04-24 09:23:55,19.0,20917,君石控股,北京君石久正投资管理有限公司,150-500人,海淀区,本科,不需要融资,金融,116.313113,39.979474,全职,5-10年
223,4055852,自动化测试工程师,北京,2018-04-16 12:52:28,12.6,74495,JETTECH,上海捷科智诚科技有限公司,500-2000人,海淀区,本科,上市公司,"金融,其他",116.351917,39.977259,全职,3-5年
224,4388357,自动化测试,上海,2018-04-09 14:03:50,14.4,60054,掌门1对1在线教育,上海掌小门教育科技有限公司,500-2000人,虹口区,本科,D轮及以上,"移动互联网,教育",121.488669,31.259278,全职,5-10年
225,4368551,自动化运维工程师,深圳,2018-04-18 08:45:53,19.6,16831,武汉佰钧成技术有限公司,武汉佰钧成技术有限责任公司,2000人以上,龙岗区,本科,不需要融资,移动互联网,0.0,0.0,全职,5-10年
226,952723,自动化测试,上海,2018-04-28 16:33:41,21.0,42899,小蚁,上海小蚁科技有限公司,150-500人,浦东新区,本科,C轮,"移动互联网,硬件",121.60033681,31.20751133,全职,3-5年
227,4359519,自动化测试工程师,北京,2018-04-26 18:53:37,9.6,28659,奥琦玮,奥琦玮信息科技（北京）有限公司,150-500人,朝阳区,本科,B轮,"移动互联网,O2O",116.393925,40.004041,全职,1年以下
228,4411059,自动化售前、售后,深圳,2018-04-26 13:17:00,5.2,363328,拓野,拓野（深圳）自动化科技有限公司,50-150人,龙岗区,不限,不需要融资,"教育,硬件",114.212927,22.653572,全职,不限
229,3929435,中高级自动化测试工程师,广州,2018-04-28 18:32:08,13.2,22862,上海中软华腾软件系统有限公司,上海中软华腾软件系统有限公司,2000人以上,天河区,本科,上市公司,"企业服务,金融",113.332464,23.134217,全职,3-5年
230,3843253,自动化测试,上海,2018-04-27 15:45:23,19.0,86312,再惠网络,再惠（上海）网络科技有限公司,150-500人,长宁区,本科,B轮,"移动互联网,企业服务",121.42700865,31.19913103,全职,3-5年
231,2567581,高级自动化测试工程师,上海,2018-04-26 17:55:16,19.0,41194,泰为,泰为信息科技（上海）有限公司,150-500人,长宁区,本科,上市公司,移动互联网,121.39854,31.20641,全职,3-5年
232,2739865,测试开发工程师（自动化方向）,上海,2018-04-26 17:30:57,14.0,122328,挚极科技,上海挚极信息科技有限公司,150-500人,嘉定区,本科,不需要融资,"移动互联网,硬件",121.16784,31.281747,全职,1-3年
233,4328618,自动化测试/Automation QA,西安,2018-04-28 10:45:27,10.6,308987,艾斯普,美奥多软件科技（西安）有限公司,150-500人,高新技术产业开发区,本科,不需要融资,移动互联网,108.841747,34.207933,全职,3-5年
234,4414140,自动化测试工程师,杭州,2018-04-25 16:07:44,19.0,23252,兑吧,杭州兑吧网络科技有限公司,500-2000人,西湖区,本科,A轮,移动互联网,120.112127,30.287766,全职,3-5年
235,4373123,自动化测试工程师,南京,2018-04-04 14:35:17,12.6,53992,苏宁易购,南京苏宁软件技术有限公司,2000人以上,玄武区,本科,上市公司,"O2O,移动互联网",0.0,0.0,全职,3-5年
236,3820938,自动化测试工程师,北京,2018-04-28 17:17:43,14.0,95651,玩吧,北京默契破冰科技有限公司,50-150人,东城区,本科,B轮,"移动互联网,社交网络",116.436939,39.940498,全职,3-5年
237,3994056,APP自动化测试工程师（最好有开发背景）,上海,2018-04-28 14:47:14,10.8,128998,江苏亿科达,上海海万信息科技股份有限公司,500-2000人,浦东新区,本科,不需要融资,"移动互联网,金融",0.0,0.0,全职,1-3年
238,3220828,自动化测试工程师,北京,2018-04-26 10:36:29,21.0,88433,北京中铁信,北京中铁信科技有限公司,150-500人,海淀区,本科,不需要融资,其他,115.99339,39.99426,全职,3-5年
239,4086884,自动化测试工程师,北京,2018-04-25 09:37:44,14.0,73043,百融金服,百融（北京）金融信息服务股份有限公司,500-2000人,海淀区,本科,B轮,"金融,数据服务",115.99339,39.99426,全职,3-5年
240,4455670,阿里巴巴自动化测试,杭州,2018-04-27 14:18:29,16.4,16831,武汉佰钧成技术有限公司,武汉佰钧成技术有限责任公司,2000人以上,余杭区,大专,不需要融资,移动互联网,0.0,0.0,全职,3-5年
241,4033492,性能及自动化测试工程师,广州,2018-04-24 15:25:04,11.2,65038,支点网络,广州支点网络科技股份有限公司,50-150人,天河区,大专,B轮,"移动互联网,社交网络",113.348976,23.1796,全职,3-5年
242,3037412,自动化测试工程师,西安,2018-04-20 17:09:14,14.0,4828,当当网,北京当当网信息技术有限公司,2000人以上,高新技术产业开发区,本科,上市公司,"移动互联网,电子商务",0.0,0.0,全职,3-5年
243,3166151,自动化测试工程师,北京,2018-04-28 18:06:22,19.0,24523,哗啦啦,北京多来点信息技术有限公司,500-2000人,西城区,本科,不需要融资,"移动互联网,O2O",116.35276,39.94140907,全职,1-3年
244,3217215,自动化测试工程师,北京,2018-04-27 18:20:43,21.0,88433,北京中铁信,北京中铁信科技有限公司,150-500人,海淀区,本科,不需要融资,其他,0.0,0.0,全职,1-3年
245,4271861,自动化测试开发工程师,深圳,2018-04-26 14:50:02,24.0,44982,友金所,深圳前海用友力合金融服务有限公司,500-2000人,南山区,本科,不需要融资,金融,113.94727,22.5466,全职,5-10年
246,3969045,资深测试工程师（自动化测试）,上海,2018-04-24 15:41:17,17.0,37850,GeexFinance,即科金融信息服务（上海）有限公司,150-500人,杨浦区,本科,A轮,金融,121.509865,31.30946,全职,3-5年
247,3003010,自动化测试/测试开发,北京,2018-04-27 14:01:48,24.0,51649,掌众金服,北京掌众科技有限公司,500-2000人,海淀区,不限,B轮,"移动互联网,金融",116.377538,40.032391,全职,5-10年
248,4404349,自动化测试,武汉,2018-04-27 11:04:30,7.6,205821,武汉烧麦财播科技有限公司,武汉烧麦财播科技有限公司,50-150人,武昌区,本科,不需要融资,"移动互联网,金融",114.341085,30.554869,全职,5-10年
249,4364700,自动化测试工程师,北京,2018-04-27 10:01:06,20.2,66815,达飞云贷,达飞云贷科技（北京）有限公司,2000人以上,朝阳区,大专,不需要融资,"移动互联网,金融",0.0,0.0,全职,3-5年
250,4288692,自动化测试工程师,北京,2018-04-26 18:53:37,24.0,28659,奥琦玮,奥琦玮信息科技（北京）有限公司,150-500人,朝阳区,本科,B轮,"移动互联网,O2O",116.393925,40.004041,全职,不限
251,4441202,运维工程师（自动化运维方向）,北京,2018-04-23 20:06:52,21.0,31590,四维图新,北京四维图新科技股份有限公司,2000人以上,海淀区,本科,上市公司,"移动互联网,生活服务",116.245368,40.072979,全职,不限
252,4091695,自动化测试工程师,杭州,2018-04-12 08:59:58,19.0,26248,丁香园,观澜网络（杭州）有限公司,500-2000人,滨江区,不限,D轮及以上,"医疗健康,企业服务",0.0,0.0,全职,3-5年
253,4301100,自动化测试工程师,深圳,2018-04-28 09:08:54,12.0,27382,海豚村,深圳市海豚村信息技术有限公司,150-500人,南山区,本科,B轮,电子商务,113.943839,22.547619,全职,1-3年
254,3935236,自动化测试专家（测试经理）,上海,2018-04-27 22:58:10,20.8,22862,上海中软华腾软件系统有限公司,上海中软华腾软件系统有限公司,2000人以上,浦东新区,本科,上市公司,"企业服务,金融",121.635159,31.222879,全职,5-10年
255,3313872,自动化测试工程师,南京,2018-04-27 14:01:46,12.6,51649,掌众金服,北京掌众科技有限公司,500-2000人,秦淮区,本科,B轮,"移动互联网,金融",118.771576,32.038083,全职,3-5年
256,3682669,运维开发-自动化运维方向,北京,2018-04-27 20:45:02,26.0,534,京东金融,京东金融,2000人以上,大兴区,本科,上市公司,金融,116.52117756,39.82198934,全职,5-10年
257,4000247,自动化测试工程师,北京,2018-04-27 09:47:05,19.0,29337,和信贷,和信电子商务有限公司,150-500人,朝阳区,大专,上市公司,金融,116.47094,39.90763,全职,5-10年
258,4468124,自动化测试工程师,北京,2018-04-26 20:56:25,19.0,3950,销售易,仁科互动（北京）信息科技有限公司,500-2000人,朝阳区,本科,D轮及以上,"移动互联网,数据服务",116.455605,39.924039,全职,3-5年
259,4393306,中高级运维工程师 （自动化运维开发方向）,广州,2018-04-28 19:08:02,14.0,68910,健康猫,广州大象健康科技有限公司,500-2000人,天河区,本科,A轮,移动互联网,113.417401,23.173731,全职,3-5年
260,3320672,高级自动化测试工程师,北京,2018-04-23 14:02:56,19.0,82069,思源科技,北京思源置地投资有限公司,2000人以上,朝阳区,本科,不需要融资,"移动互联网,社交网络",116.458141,39.996441,全职,3-5年
261,4392961,自动化测试工程师（杭州）,杭州,2018-04-28 09:14:21,14.0,143873,云徙科技,广州云徙科技有限公司,150-500人,滨江区,本科,A轮,"数据服务,移动互联网",120.220961,30.207822,全职,3-5年
262,3924820,自动化测试工程师,北京,2018-04-27 15:12:55,25.2,36162,作业盒子,北京作业盒子科技有限公司,500-2000人,朝阳区,本科,C轮,"移动互联网,教育",116.480284,39.996202,全职,3-5年
263,3844384,自动化测试工程师,北京,2018-04-24 09:35:30,15.2,28659,奥琦玮,奥琦玮信息科技（北京）有限公司,150-500人,朝阳区,本科,B轮,"移动互联网,O2O",115.99339,39.99426,全职,5-10年
264,4344596,APP自动化测试,杭州,2018-03-30 13:55:52,14.4,56234,小泰科技,浙江小泰科技有限公司,150-500人,滨江区,大专,不需要融资,金融,120.19961,30.18808,全职,3-5年
265,4467873,中级自动化测试工程师,成都,2018-04-28 16:23:01,10.4,310346,播了么,重庆新想乐文化传媒有限责任公司,500-2000人,高新区,本科,D轮及以上,"移动互联网,广告营销",104.066338,30.589196,全职,3-5年
266,4141353,中高级自动化测试工程师,武汉,2018-04-28 16:14:09,7.6,148027,悠然一指,武汉悠然一指网络有限公司,150-500人,东湖新技术开发区,大专,不需要融资,"移动互联网,社交网络",114.398481,30.506802,全职,3-5年
267,3955789,自动化测试专家,北京,2018-04-26 10:54:16,31.0,136978,玖富集团,玖富金科控股集团有限责任公司,2000人以上,朝阳区,本科,C轮,金融,116.481135,39.996731,全职,5-10年
268,2221136,自动化测试工程师,上海,2018-04-25 12:00:10,10.8,30830,哔哩哔哩,上海幻电信息科技有限公司,2000人以上,浦东新区,本科,上市公司,"移动互联网,文化娱乐",121.52479993,31.2398197,全职,3-5年
269,4330580,自动化测试专家,上海,2018-04-11 11:23:15,24.0,291058,星合金融科技,上海无熵信息科技有限公司,50-150人,浦东新区,本科,不需要融资,"移动互联网,金融",0.0,0.0,全职,5-10年
270,4489784,自动化测试专家,北京,2018-04-26 17:42:34,28.0,3450,北京捷越联合,北京捷越联合信息咨询有限公司,2000人以上,东城区,本科,不需要融资,金融,0.0,0.0,全职,5-10年
271,3816774,自动化机械设计工程师,深圳,2018-04-25 14:21:39,12.0,237500,品图视觉,品图视觉科技有限公司,15-50人,南山区,本科,未融资,"其他,硬件",113.900808,22.518119,全职,应届毕业生
272,3497568,高级自动化测试工程师,郑州,2018-04-18 11:02:57,9.6,80564,UU跑腿,郑州时空隧道信息技术有限公司,50-150人,金水区,大专,A轮,"移动互联网,O2O",113.730034,34.778295,全职,3-5年
273,4111403,自动化运维工程师,深圳,2018-04-22 19:28:23,16.8,16831,武汉佰钧成技术有限公司,武汉佰钧成技术有限责任公司,2000人以上,龙岗区,本科,不需要融资,移动互联网,114.060142,22.643383,全职,5-10年
274,4162892,自动化测试工程师,北京,2018-04-16 09:06:37,12.0,31504,乐知行,北京讯飞乐知行软件有限公司,150-500人,海淀区,本科,未融资,教育,116.285175,40.044846,全职,1-3年
275,4343517,自动化测试开发工程师,广州,2018-04-27 15:49:39,8.2,209072,德惟科技,广州德惟科技有限公司,150-500人,天河区,本科,不需要融资,"金融,移动互联网",113.374048,23.123238,全职,1-3年
276,3928841,自动化测试工程师,杭州,2018-04-20 09:31:54,14.0,211574,TELETRAAN,浙江天垂科技有限公司,15-50人,滨江区,本科,天使轮,"数据服务,企业服务",120.211816,30.20856,全职,3-5年
277,4433611,自动化运维开发工程师,兰州,2018-04-28 14:56:46,13.2,280956,诺基亚华诺科技,湖南华诺科技有限公司,500-2000人,七里河区,本科,不需要融资,"移动互联网,数据服务",103.834303,36.061089,全职,1-3年
278,3412237,资深自动化测试工程师,北京,2018-04-25 11:54:09,21.0,52261,mobike摩拜单车,北京摩拜科技有限公司,150-500人,朝阳区,本科,D轮及以上,移动互联网,116.467804,39.948564,全职,3-5年
279,4150528,自动化测试工程师,杭州,2018-04-24 10:17:21,21.0,196355,脉道,西藏脉道网络科技股份有限公司,500-2000人,西湖区,本科,不需要融资,移动互联网,120.136834,30.273853,全职,3-5年
280,2232993,数据和自动化测试工程师,深圳,2018-04-28 09:27:31,13.2,95529,云天励飞,深圳云天励飞技术有限公司,150-500人,福田区,本科,A轮,移动互联网,114.09440124,22.54068494,全职,3-5年
281,3822709,自动化测试工程师,长沙,2018-04-26 11:39:18,14.0,26785,芒果tv,湖南快乐阳光互动娱乐传媒有限公司,500-2000人,开福区,本科,B轮,文化娱乐,112.993417,27.994254,全职,5-10年
282,4394764,c-自动化测试工程师,广州,2018-04-27 09:58:51,19.0,150030,北京瑞友,北京瑞友科技股份有限公司,2000人以上,天河区,本科,上市公司,"移动互联网,电子商务",113.37208,23.12342,全职,3-5年
283,4069237,自动化测试J10858,北京,2018-04-03 15:26:02,16.0,82069,思源科技,北京思源置地投资有限公司,2000人以上,朝阳区,本科,不需要融资,"移动互联网,社交网络",115.99339,39.99426,全职,1-3年
284,2879456,资深测试工程师（自动化/性能测试）,南京,2018-04-27 13:05:12,13.2,34683,买单侠,上海秦苍信息科技有限公司,500-2000人,雨花台区,本科,C轮,移动互联网、金融,118.99344,31.994276,全职,5-10年
285,4290345,自动化测试工程师（key）,上海,2018-04-28 09:11:37,31.0,16831,武汉佰钧成技术有限公司,武汉佰钧成技术有限责任公司,2000人以上,长宁区,本科,不需要融资,移动互联网,121.35433,31.220256,全职,5-10年
286,4491698,自动化运维工程师,乌鲁木齐,2018-04-28 14:56:45,13.2,280956,诺基亚华诺科技,湖南华诺科技有限公司,500-2000人,新市区,本科,不需要融资,"移动互联网,数据服务",87.616848,43.825592,全职,3-5年
287,4159427,自动化测试开发工程师,北京,2018-04-27 09:32:54,21.0,56698,屏芯科技,北京屏芯科技有限公司,500-2000人,海淀区,本科,B轮,"移动互联网,电子商务",116.33030093,39.99313402,全职,3-5年
288,3220763,中级自动化运维工程师,北京,2018-04-26 10:36:28,21.0,88433,北京中铁信,北京中铁信科技有限公司,150-500人,海淀区,本科,不需要融资,其他,115.99339,39.99426,全职,3-5年
289,3806886,自动化测试,杭州,2018-04-25 15:37:54,10.8,34842,臻善科技,浙江臻善科技有限公司,500-2000人,西湖区,本科,不需要融资,企业服务,120.12131,30.27888,全职,3-5年
290,4354183,自动化测试工程师（APP方向）,上海,2018-04-28 17:14:09,20.8,23348,中通快递,上海中通吉网络技术有限公司,2000人以上,青浦区,大专,上市公司,电子商务,121.205232,31.227724,全职,3-5年
291,4500740,自动化测试工程师,广州,2018-04-28 16:48:34,12.0,83683,睿家科技,北京睿家科技有限公司,15-50人,天河区,本科,A轮,O2O,113.314917,23.137728,全职,3-5年
292,3580933,自动化测试工程师,北京,2018-04-28 14:47:12,21.0,67118,达闼科技,达闼科技（北京）有限公司,150-500人,朝阳区,本科,B轮,移动互联网,116.479397,39.995298,全职,3-5年
293,4169062,自动化测试,上海,2018-04-27 10:22:32,10.2,25317,金证股份,深圳市金证科技股份有限公司,2000人以上,浦东新区,本科,上市公司,金融,121.531974,31.224473,全职,1-3年
294,4380238,高级自动化测试工程师,福州,2018-04-08 11:20:31,14.4,173334,龙腾简合,福州龙腾简合网络技术有限公司,150-500人,台江区,本科,未融资,"游戏,移动互联网",119.278028,26.059516,全职,3-5年
295,4104901,高级自动化测试工程师,北京,2018-04-28 13:32:34,28.0,248005,红赢科技,北京红赢科技有限公司,50-150人,海淀区,本科,不需要融资,"移动互联网,金融",116.298056,39.959912,全职,5-10年
296,176355,商业搜索广告-高级自动化测试工程师,北京,2018-04-28 10:39:29,24.0,1537,搜狗,北京搜狗科技发展有限公司,2000人以上,海淀区,本科,上市公司,"移动互联网,数据服务",116.332289,39.993798,全职,3-5年
297,4406053,自动化测试工程师,上海,2018-04-27 17:27:25,14.0,142626,CLPS,上海华钦信息科技股份有限公司,500-2000人,浦东新区,本科,未融资,"数据服务,金融",121.586706,31.210889,全职,1-3年
298,4407933,自动化测试工程师,上海,2018-04-28 18:19:06,19.0,47740,视+AR,视辰信息科技（上海）有限公司,50-150人,浦东新区,本科,B轮,"移动互联网,数据服务",121.598997,31.208792,全职,3-5年
299,4501041,移动终端测试（自动化）,深圳,2018-04-28 17:20:08,11.2,128998,江苏亿科达,上海海万信息科技股份有限公司,500-2000人,福田区,本科,不需要融资,"移动互联网,金融",114.053855,22.535702,全职,3-5年
300,4433601,自动化运维开发工程师,呼和浩特,2018-04-28 14:56:46,13.2,280956,诺基亚华诺科技,湖南华诺科技有限公司,500-2000人,新城区,本科,不需要融资,"移动互联网,数据服务",111.67265,40.818829,全职,1-3年
301,3441149,爱立信自动化测试工程师,上海,2018-04-10 11:44:40,17.0,16831,武汉佰钧成技术有限公司,武汉佰钧成技术有限责任公司,2000人以上,长宁区,本科,不需要融资,移动互联网,121.354703,31.219114,全职,5-10年
302,3204918,高级自动化测试,北京,2018-04-28 09:57:45,18.2,7094,The ONE,小叶子（北京）科技有限公司,150-500人,朝阳区,本科,C轮,"硬件,教育",116.469451,40.018758,全职,3-5年
303,3589491,中高级自动化测试工具开发,上海,2018-04-27 22:58:09,13.2,22862,上海中软华腾软件系统有限公司,上海中软华腾软件系统有限公司,2000人以上,浦东新区,本科,上市公司,"企业服务,金融",121.635159,31.222879,全职,3-5年
304,4491700,自动化测试工程师（资深/专家）,北京,2018-04-27 10:23:27,26.0,3450,北京捷越联合,北京捷越联合信息咨询有限公司,2000人以上,朝阳区,本科,不需要融资,金融,0.0,0.0,全职,5-10年
305,3969710,自动化测试分析,深圳,2018-04-27 10:22:32,12.0,25317,金证股份,深圳市金证科技股份有限公司,2000人以上,南山区,本科,上市公司,金融,113.915214,22.523675,全职,3-5年
306,4165563,资深自动化测试工程师,北京,2018-04-25 16:44:48,17.8,136978,玖富集团,玖富金科控股集团有限责任公司,2000人以上,朝阳区,本科,C轮,金融,116.48016,39.9969,全职,5-10年
307,1894813,高级自动化测试开发工程师,杭州,2018-04-25 14:23:05,14.0,56234,小泰科技,浙江小泰科技有限公司,150-500人,滨江区,大专,不需要融资,金融,120.19961009,30.18807963,全职,3-5年
308,3881045,自动化测试专家,广州,2018-04-28 23:56:59,15.2,7520,广东三维家信息科技有限公司,广东三维家信息科技有限公司,150-500人,天河区,本科,A轮,"移动互联网,硬件",113.414,23.170774,全职,3-5年
309,3752358,软件测试工程师（自动化）,深圳,2018-04-27 12:58:24,14.0,5972,4PX,深圳市递四方信息科技有限公司,500-2000人,宝安区,大专,D轮及以上,"移动互联网,电子商务",113.867674,22.567199,全职,3-5年
310,3420851,自动化测试工程师,北京,2018-04-26 15:29:24,17.0,7001,指掌易,北京指掌易科技有限公司,150-500人,海淀区,本科,B轮,移动互联网,39.897445,116.331398,全职,3-5年
311,3998280,自动化测试开发工程师,广州,2018-04-28 12:33:32,14.0,212032,尚德机构,北京尚德在线教育科技有限公司,2000人以上,天河区,本科,上市公司,教育,113.376521,23.127218,全职,5-10年
312,4207732,自动化测试工程师,北京,2018-04-28 09:50:18,14.0,53260,桔子分期,北京桔子分期电子商务有限公司,150-500人,朝阳区,本科,A轮,"电子商务,金融",116.434837,39.998879,全职,3-5年
313,4004530,资深自动化测试工程师,上海,2018-04-27 10:18:34,25.2,47993,鱼泡泡,上海鱼泡泡信息科技有限公司,150-500人,徐汇区,本科,B轮,生活服务,121.39779,31.16459,全职,3-5年
314,3632294,自动化运维系统开发工程师,杭州,2018-04-25 15:04:00,12.0,329,网易,网易（杭州）有限公司,2000人以上,滨江区,本科,上市公司,"电子商务,移动互联网",120.192295,30.188393,全职,3-5年
315,3265656,爱立信自动化测试工程师,上海,2018-04-10 11:44:40,17.2,16831,武汉佰钧成技术有限公司,武汉佰钧成技术有限责任公司,2000人以上,长宁区,本科,不需要融资,移动互联网,121.354703,31.219114,全职,3-5年
316,3618729,自动化测试主管,深圳,2018-04-17 15:52:31,12.6,25317,金证股份,深圳市金证科技股份有限公司,2000人以上,南山区,本科,上市公司,金融,113.947453,22.534948,全职,3-5年
317,4462472,自动化销售工程师,北京,2018-04-23 10:03:39,4.2,369088,英泰利德,北京英泰利德技术有限公司,15-50人,,不限,未融资,其他 不限,116.646833,39.832431,全职,不限
318,3982236,APP自动化测试工程师,上海,2018-04-28 15:59:33,9.4,128998,江苏亿科达,上海海万信息科技股份有限公司,500-2000人,浦东新区,大专,不需要融资,"移动互联网,金融",121.5025,31.237015,全职,3-5年
319,3773788,自动化测试工程师,深圳,2018-04-28 09:03:24,14.4,69152,博奥特科技,深圳市博奥特科技有限公司,150-500人,罗湖区,大专,未融资,"移动互联网,金融",114.105511,22.542334,全职,5-10年
320,4310297,自动化测试,上海,2018-04-26 09:53:39,14.4,22862,上海中软华腾软件系统有限公司,上海中软华腾软件系统有限公司,2000人以上,黄浦区,本科,上市公司,"企业服务,金融",121.477175,31.238463,全职,3-5年
321,3400830,高级自动化测试工程师,上海,2018-04-25 16:26:08,19.0,15281,上海晨之科,上海晨之科信息技术有限公司,150-500人,徐汇区,大专,C轮,"移动互联网,游戏",121.417459,31.175027,全职,3-5年
322,2097095,自动化测试工程师,天津,2018-04-19 16:14:58,12.0,31444,神州商龙,天津市神州商龙科技股份有限公司,150-500人,,本科,上市公司,"移动互联网,O2O",117.12259415,39.0907832,全职,3-5年
323,2186611,高级自动化测试工程师,北京,2018-04-24 13:37:29,19.0,70,宝宝树,宝宝树（北京）信息技术有限公司,500-2000人,朝阳区,不限,D轮及以上,社交网络,116.46251308,39.92809782,全职,3-5年
324,4467892,高级自动化测试工程师,成都,2018-04-28 16:23:01,14.0,310346,播了么,重庆新想乐文化传媒有限责任公司,500-2000人,高新区,本科,D轮及以上,"移动互联网,广告营销",104.066338,30.589196,全职,5-10年
325,3366300,自动化测试开发工程师,广州,2018-04-28 15:21:56,21.0,212032,尚德机构,北京尚德在线教育科技有限公司,2000人以上,天河区,本科,上市公司,教育,113.376459,23.12754,全职,3-5年
326,4484316,高级自动化测试,深圳,2018-04-28 12:50:30,16.8,138746,嘉联支付,嘉联支付有限公司,500-2000人,南山区,本科,未融资,"金融,移动互联网",39.897445,116.331398,全职,5-10年
327,3462635,技术工程部-自动化运维平台研发工程师,北京,2018-04-28 10:39:31,31.0,1537,搜狗,北京搜狗科技发展有限公司,2000人以上,海淀区,本科,上市公司,"移动互联网,数据服务",116.33254,39.99366006,全职,5-10年
328,4498159,自动化测试（汇丰银行）,广州,2018-04-28 11:23:14,15.4,50241,Symbio-Freeborders,信必优(深圳)信息技术有限公司,2000人以上,天河区,本科,未融资,"移动互联网,电子商务",113.332464,23.134217,全职,5-10年
329,4312526,自动化测试,上海,2018-04-28 09:19:12,9.4,337876,薇薇印刷,宁波薇薇珺晨广告设计有限公司,15-50人,浦东新区,本科,不需要融资,其他,,,全职,1-3年
330,4125781,初中高级自动化测试工程师,上海,2018-04-26 10:12:16,21.0,16831,武汉佰钧成技术有限公司,武汉佰钧成技术有限责任公司,2000人以上,长宁区,本科,不需要融资,移动互联网,121.354703,31.219114,全职,不限
331,4323433,自动化测试工程师,深圳,2018-04-28 09:03:16,15.2,69152,博奥特科技,深圳市博奥特科技有限公司,150-500人,南山区,大专,未融资,"移动互联网,金融",113.941779,22.519131,全职,3-5年
332,4379516,监控运维自动化工程师,北京,2018-04-26 14:47:39,10.8,1650,联想集团,联想（北京）有限公司,2000人以上,海淀区,本科,上市公司,"移动互联网,数据服务",116.30858,40.05547,全职,1-3年
333,4133718,自动化测试工程师,深圳,2018-04-25 15:50:17,12.0,21666,维恩贝特,维恩贝特科技有限公司,500-2000人,南山区,本科,A轮,"电子商务,金融",113.884846,22.524049,全职,3-5年
334,4291576,自动化测试,上海,2018-04-25 09:47:59,14.0,341475,态特网络,上海态特网络科技有限公司,50-150人,静安区,本科,不需要融资,"电子商务,金融",121.442477,31.284734,全职,3-5年
335,4441484,证券-性能及自动化测试工程师,深圳,2018-04-24 19:32:54,14.0,25317,金证股份,深圳市金证科技股份有限公司,2000人以上,南山区,本科,上市公司,金融,113.993578,22.99368,全职,3-5年
336,4080413,自动化测试,深圳,2018-04-28 15:31:38,14.0,55397,绿米,深圳绿米联创科技有限公司,150-500人,南山区,本科,B轮,硬件,0.0,0.0,全职,1-3年
337,4467324,自动化测试工程师,深圳,2018-04-28 14:24:32,10.8,28420,赫美智科,深圳赫美智慧科技有限公司,500-2000人,福田区,大专,B轮,金融,114.026256,22.531594,全职,1-3年
338,4473385,自动化测试工程师,上海,2018-04-28 13:16:44,17.6,367769,明思软件,明思（上海）软件技术有限公司,150-500人,静安区,本科,不需要融资,"移动互联网,数据服务",121.428711,31.228466,全职,5-10年
339,4092520,高级自动化测试工程师,北京,2018-04-25 09:37:44,19.0,73043,百融金服,百融（北京）金融信息服务股份有限公司,500-2000人,海淀区,本科,B轮,"金融,数据服务",115.99339,39.99426,全职,5-10年
340,4474090,自动化测试工程师,成都,2018-04-24 16:01:56,12.0,29303,活跃网络,活跃网络（成都）有限公司,500-2000人,锦江区,本科,上市公司,移动互联网,103.99341,30.994233,全职,3-5年
341,3752909,自动化测试工程师,广州,2018-04-23 10:47:56,10.8,128835,沐融科技,北京沐融信息科技有限公司,500-2000人,天河区,本科,C轮,"移动互联网,金融",113.361993,23.1318,全职,3-5年
342,4240528,移动终端测试（自动化）,上海,2018-04-28 15:59:34,11.2,128998,江苏亿科达,上海海万信息科技股份有限公司,500-2000人,浦东新区,大专,不需要融资,"移动互联网,金融",121.629578,31.210622,全职,3-5年
343,2967907,高级自动化测试工程师,北京,2018-04-27 14:01:47,22.8,51649,掌众金服,北京掌众科技有限公司,500-2000人,海淀区,本科,B轮,"移动互联网,金融",116.348771,39.975851,全职,3-5年
344,4430517,自动化测试工程师,上海,2018-04-16 22:22:12,12.0,140029,维代电子,上海维代电子科技有限公司,15-50人,黄浦区,本科,未融资,"游戏,硬件",121.496072,31.227203,全职,1年以下
345,3798666,上海高级自动化测试工程师,上海,2018-04-10 11:44:40,22.8,16831,武汉佰钧成技术有限公司,武汉佰钧成技术有限责任公司,2000人以上,长宁区,本科,不需要融资,移动互联网,121.35433,31.220256,全职,5-10年
346,4204310,主管测试工程师（自动化）,深圳,2018-04-20 09:38:35,12.0,25317,金证股份,深圳市金证科技股份有限公司,2000人以上,南山区,本科,上市公司,金融,113.947453,22.534948,全职,3-5年
347,3635310,自动化测试工程师,深圳,2018-04-28 17:16:23,12.0,128998,江苏亿科达,上海海万信息科技股份有限公司,500-2000人,福田区,本科,不需要融资,"移动互联网,金融",114.059297,22.568264,全职,3-5年
348,4429183,高级自动化测试工程师,北京,2018-04-26 15:58:20,26.0,262476,中化能源科技有限公司,中化石油有限公司,2000人以上,海淀区,本科,不需要融资,"移动互联网,电子商务",116.308811,39.983578,全职,5-10年
349,4448528,自动化测试,北京,2018-04-19 11:49:21,12.0,43460,精英智通,北京精英智通科技股份有限公司,500-2000人,海淀区,大专,上市公司,移动互联网,116.341166,40.048298,全职,3-5年
350,4414462,资深自动化软件测试工程师,深圳,2018-04-28 18:45:06,19.0,35539,即有分期,深圳前海达飞金融服务有限公司,2000人以上,福田区,本科,C轮,金融,113.993578,22.99368,全职,5-10年
351,4324413,自动化测试工程师,杭州,2018-04-28 10:59:23,14.0,271720,杭州锐石网络科技有限公司,杭州锐石网络科技有限公司,15-50人,滨江区,大专,未融资,移动互联网,120.139088,30.186623,全职,3-5年
352,2124014,自动化测试,北京,2018-04-27 11:18:12,17.8,62831,明略数据,北京明略软件系统有限公司,150-500人,朝阳区,本科,C轮,数据服务,116.41208054,40.04674874,全职,5-10年
353,2934972,自动化测试工程师,深圳,2018-04-27 10:38:18,14.4,142041,奇虎360金融,上海淇毓信息科技有限公司,500-2000人,福田区,本科,未融资,"移动互联网,金融",114.059772,22.572043,全职,3-5年
354,4371552,自动化测试工程师,北京,2018-04-26 10:39:17,14.0,243191,北京上古未来科技有限公司,北京上古未来科技有限公司,50-150人,朝阳区,本科,不需要融资,"移动互联网,游戏",116.452722,39.932479,全职,3-5年
355,3955361,自动化运维研发岗,深圳,2018-04-11 14:42:47,18.2,301344,招商金融科技,招商局金融科技有限公司,150-500人,南山区,本科,不需要融资,金融,113.912968,22.482034,全职,3-5年
356,4322807,高级自动化测试工程师,北京,2018-04-28 19:33:42,24.0,248005,红赢科技,北京红赢科技有限公司,50-150人,海淀区,本科,不需要融资,"移动互联网,金融",116.320755,39.976715,全职,5-10年
357,4467857,初级自动化测试工程师,成都,2018-04-28 16:23:01,7.6,310346,播了么,重庆新想乐文化传媒有限责任公司,500-2000人,高新区,本科,D轮及以上,"移动互联网,广告营销",104.066338,30.589196,全职,1-3年
358,2217949,自动化测试,上海,2018-04-27 14:29:47,9.4,15533,乐其网络,东莞市乐其网络科技有限公司,500-2000人,长宁区,本科,D轮及以上,电子商务,121.42572027,31.21928967,全职,1-3年
359,3186166,自动化测试工程师,广州,2018-04-11 14:00:58,12.4,149167,美云智数,深圳美云智数科技有限公司,500-2000人,番禺区,本科,不需要融资,"企业服务,数据服务",0.0,0.0,全职,3-5年
360,4492210,自动化测试工程师,上海,2018-04-27 11:03:05,19.6,16831,武汉佰钧成技术有限公司,武汉佰钧成技术有限责任公司,2000人以上,长宁区,本科,不需要融资,移动互联网,121.354952,31.219288,全职,3-5年
361,3217007,初级自动化运维工程师,北京,2018-04-27 18:20:42,14.0,88433,北京中铁信,北京中铁信科技有限公司,150-500人,海淀区,本科,不需要融资,其他,116.298211,39.947085,全职,1-3年
362,3725389,高级自动化测试工程师,上海,2018-04-27 16:19:35,15.2,76235,启赟金融,启赟金融服务信息（上海）有限公司,50-150人,浦东新区,大专,A轮,"移动互联网,金融",121.514782,31.232262,全职,3-5年
363,4393440,自动化测试（支付宝项目）,杭州,2018-04-26 13:30:52,13.2,17693,神州数码通用软件,神州数码通用软件（北京）有限公司,500-2000人,西湖区,大专,不需要融资,企业服务,120.137878,30.253166,全职,3-5年
364,3900418,自动化测试工程师,深圳,2018-04-26 13:23:13,9.8,74495,JETTECH,上海捷科智诚科技有限公司,500-2000人,南山区,本科,上市公司,"金融,其他",113.946832,22.544671,全职,不限
365,4366073,自动化软件测试,上海,2018-04-13 11:25:26,17.4,142626,CLPS,上海华钦信息科技股份有限公司,500-2000人,浦东新区,本科,未融资,"数据服务,金融",121.5982,31.2108,全职,3-5年
366,3391333,软件自动化测试工程师,上海,2018-04-28 18:26:22,19.0,36009,途虎养车网,上海阑途信息技术有限公司,2000人以上,闵行区,本科,D轮及以上,移动互联网,121.398332,31.131918,全职,3-5年
367,3581720,自动化测试工程师-深圳-00498,深圳,2018-04-28 16:23:33,8.4,8332,任子行,任子行网络技术股份有限公司,500-2000人,南山区,本科,上市公司,移动互联网,113.907091,22.54964,全职,1-3年
368,4457236,Web自动化测试工程师(J11129),成都,2018-04-28 10:49:55,9.6,7551,客如云,客如云科技（北京）股份有限公司,500-2000人,高新区,本科,C轮,"移动互联网,O2O",104.06847,30.54032,全职,3-5年
369,3789364,高级QA/资深自动化测试,武汉,2018-04-07 11:30:27,20.8,7182,尚德机构,北京尚德在线教育科技有限公司,2000人以上,洪山区,本科,上市公司,教育,114.418082,30.466992,全职,5-10年
370,3819166,自动化测试工程师,深圳,2018-04-28 09:03:19,15.2,69152,博奥特科技,深圳市博奥特科技有限公司,150-500人,南山区,本科,未融资,"移动互联网,金融",114.06492,22.541437,全职,3-5年
371,3783903,测试工程师（自动化测试）,广州,2018-04-27 10:10:02,8.8,141525,LG电子上海研发,乐金电子研发中心（上海）有限公司,15-50人,天河区,大专,上市公司,其他,0.0,0.0,全职,1-3年
372,2848263,自动化测试工程师,北京,2018-04-24 20:20:48,19.0,104715,信美相互,信美人寿相互保险社,150-500人,西城区,本科,不需要融资,"移动互联网,金融",115.99339,39.99426,全职,1-3年
373,2556537,自动化测试工程师,上海,2018-04-20 10:04:46,17.0,56741,红星美凯龙互联网集团,红星美凯龙家居集团股份有限公司,2000人以上,,本科,上市公司,"移动互联网,O2O",121.38534,31.2374184,全职,1-3年
374,4001760,自动化测试工程师,北京,2018-04-09 15:49:42,12.6,163147,115科技,广东一一五科技股份有限公司,150-500人,海淀区,本科,B轮,移动互联网,116.299636,40.050801,全职,3-5年
375,3885656,数通测试工程师（自动化脚本开发）,南京,2018-04-27 17:52:28,11.4,16831,武汉佰钧成技术有限公司,武汉佰钧成技术有限责任公司,2000人以上,雨花台区,本科,不需要融资,移动互联网,118.767867,31.986663,全职,3-5年
376,4376486,C#工程师（自动化工具）,上海,2018-04-27 17:56:31,13.6,44833,恒生聚源,上海恒生聚源数据服务有限公司,150-500人,浦东新区,本科,A轮,"金融,数据服务",121.53233,31.21656,全职,1-3年
377,4392266,自动化结构设计高级(中级)工程师,深圳,2018-04-26 15:57:57,21.0,35996,顺丰科技有限公司,顺丰科技有限公司,500-2000人,南山区,本科,不需要融资,"移动互联网,电子商务",113.937987,22.523392,全职,5-10年
378,4446294,自动化测试工程师,北京,2018-04-25 14:41:50,21.0,285419,动因体育,北京动因体育科技有限公司,2000人以上,朝阳区,本科,不需要融资,"文化娱乐,教育",116.492332,39.97626,全职,5-10年
379,3489802,自动化测试工程师,北京,2018-04-25 10:12:02,19.0,4188,INK 银客集团,银客未来科技（北京）有限公司,500-2000人,海淀区,本科,C轮,"移动互联网,金融",116.356033,40.046578,全职,3-5年
380,4473995,自动化测试工程师,深圳,2018-04-26 17:49:24,9.6,254646,中电数通,中电数通科技有限公司,150-500人,南山区,本科,天使轮,"移动互联网,信息安全",114.11718,22.652657,全职,3-5年
381,4394248,自动化测试,深圳,2018-04-26 11:07:19,20.8,123777,通力互联,北京通力互联技术服务有限公司,2000人以上,龙岗区,本科,不需要融资,"电子商务,企业服务",114.061997,22.663609,全职,5-10年
382,4120984,自动化测试工程师（手工+自动化）,西安,2018-04-17 14:54:56,12.6,29303,活跃网络,活跃网络（成都）有限公司,500-2000人,高新技术产业开发区,本科,上市公司,移动互联网,0.0,0.0,全职,3-5年
383,4106956,自动化测试工程师,上海,2018-04-30 14:26:55,24.0,254725,达家迎,上海达家迎信息科技有限公司,150-500人,闵行区,本科,B轮,O2O,121.31151,31.19334,全职,3-5年
384,3965352,自动化测试工程师,北京,2018-04-23 13:45:23,10.8,106789,合源科技,北京合源智慧科技发展有限公司,150-500人,朝阳区,大专,B轮,"移动互联网,数据服务",116.493446,39.975524,全职,3-5年
385,2528226,自动化运维(devops),上海,2018-04-27 14:29:48,12.0,15533,乐其网络,东莞市乐其网络科技有限公司,500-2000人,长宁区,本科,D轮及以上,电子商务,120.993464,30.994061,全职,1-3年
386,4227328,自动化测试工程师,上海,2018-04-27 16:27:53,15.2,301606,谷瑞特,大连谷瑞特科技有限公司,50-150人,长宁区,本科,不需要融资,移动互联网,121.354674,31.219097,全职,3-5年
387,3185539,自动化测试工程师（驻马来西亚）,广州,2018-04-26 15:56:26,19.0,161601,宙讯达网络,深圳市宙讯达网络科技有限公司,50-150人,天河区,大专,不需要融资,移动互联网,113.324496,23.110965,全职,3-5年
388,4476488,自动化测试工程师,上海,2018-04-24 21:30:54,19.0,372333,融巧计算机,上海融巧计算机科技有限公司,少于15人,,本科,未融资,教育 不限,121.338442,31.112431,全职,5-10年
389,3855675,自动化测试工程师/专家,深圳,2018-04-19 09:26:16,35.0,19875,vivo,维沃移动通信有限公司,2000人以上,福田区,本科,未融资,移动互联网,114.060635,22.567334,全职,5-10年
390,2512231,自动化测试顾问,深圳,2018-04-25 10:52:10,21.0,16831,武汉佰钧成技术有限公司,武汉佰钧成技术有限责任公司,2000人以上,龙岗区,大专,不需要融资,移动互联网,114.069975,22.659042,全职,5-10年
391,4374532,自动化测试,上海,2018-04-04 16:44:14,14.2,48410,热璞科技,上海热璞网络科技有限公司,50-150人,闵行区,本科,未融资,"企业服务,数据服务",121.376291,31.176439,全职,3-5年
392,506611,自动化测试,上海,2018-04-28 19:32:34,14.0,57682,爱可生,上海爱可生信息技术股份有限公司,150-500人,徐汇区,本科,B轮,数据服务,,,全职,不限
393,3274050,高级自动化测试工程师,北京,2018-04-28 16:57:20,25.2,149208,田米科技,北京田米科技有限公司,2000人以上,海淀区,大专,D轮及以上,移动互联网,116.332861,40.040791,全职,不限
394,3856510,高级/资深自动化测试工程师,上海,2018-04-27 10:18:33,22.0,47993,鱼泡泡,上海鱼泡泡信息科技有限公司,150-500人,徐汇区,本科,B轮,生活服务,121.39779,31.16459,全职,3-5年
395,4425740,自动化测试工程师,上海,2018-04-26 10:15:43,15.2,113416,V.Photos云摄影,唯存（上海）网络科技有限公司,150-500人,黄浦区,大专,A轮,移动互联网,121.49428,31.230333,全职,3-5年
396,4167073,系统测试岗（自动化&amp;性能测试）(001985),上海,2018-04-19 15:41:32,17.0,140240,平安租赁,平安国际融资租赁有限公司,500-2000人,浦东新区,本科,不需要融资,金融,121.50107,31.23658,全职,5-10年
397,4426363,Devops自动化运维工程师,深圳,2018-04-28 14:24:32,14.0,28420,赫美智科,深圳赫美智慧科技有限公司,500-2000人,福田区,大专,B轮,金融,114.026256,22.531594,全职,3-5年
398,4478017,自动化运维工程师,东莞,2018-04-28 10:51:24,5.2,44160,Fnetlink东莞光联,东莞市光联通信有限公司,50-150人,东莞市市辖区,大专,未融资,"移动互联网,企业服务",0.0,0.0,全职,不限
399,4263552,高级自动化测试工程师,广州,2018-04-28 09:42:39,14.4,130202,贝聊,广州市贝聊信息科技有限公司,150-500人,天河区,本科,B轮,"移动互联网,教育",113.37336103,23.12153514,全职,3-5年
400,4079433,自动化测试工程师,深圳,2018-04-23 15:28:02,14.0,65802,嘟嘟巴士,深圳市乐途宝网络科技有限公司,50-150人,南山区,本科,B轮,移动互联网,113.932749,22.541047,全职,5-10年
401,2775659,软件测试工程师（性能或自动化）,北京,2018-04-20 17:47:11,13.2,104947,国美控股集团,国美控股集团有限公司,2000人以上,朝阳区,本科,不需要融资,"移动互联网,电子商务",116.466458,39.959036,全职,3-5年
402,4322648,自动化测试工程师,北京,2018-04-19 14:30:38,25.2,309483,cobo wallet,上海福萝电子科技有限公司,15-50人,朝阳区,本科,A轮,移动互联网 信息安全,116.479874,39.987108,全职,3-5年
403,3204476,自动化测试实习生,北京,2018-04-28 09:57:45,4.2,7094,The ONE,小叶子（北京）科技有限公司,150-500人,朝阳区,本科,C轮,"硬件,教育",0.0,0.0,实习,应届毕业生
404,3861377,自动化测试工程师,北京,2018-04-09 15:49:43,11.2,163147,115科技,广东一一五科技股份有限公司,150-500人,海淀区,大专,B轮,移动互联网,116.300028,40.049517,全职,3-5年
405,4248169,中高级自动化测试工程师,上海,2018-04-10 11:44:39,28.0,16831,武汉佰钧成技术有限公司,武汉佰钧成技术有限责任公司,2000人以上,长宁区,本科,不需要融资,移动互联网,121.412331,31.209185,全职,5-10年
406,3461579,自动化测试工程师,宁波,2018-04-17 17:09:34,10.8,15063,TCL通讯宁波,TCL通讯（宁波）有限公司,500-2000人,鄞州区,本科,不需要融资,移动互联网,121.63522,29.88221,全职,3-5年
407,3754715,自动化开发运维工程师,西安,2018-04-27 15:35:28,12.0,36760,Nova科技,西安诺瓦电子科技有限公司,500-2000人,高新技术产业开发区,本科,未融资,"硬件,数据服务",108.993463,33.994053,全职,3-5年
408,4481403,金证引擎-自动化测试工程师,深圳,2018-04-25 16:06:16,19.0,25317,金证股份,深圳市金证科技股份有限公司,2000人以上,南山区,本科,上市公司,金融,113.94759,22.535119,全职,3-5年
409,654726,自动化测试工程师,北京,2018-04-24 17:04:30,17.0,15457,中青旅遨游网,中青旅控股股份有限公司,500-2000人,东城区,本科,上市公司,旅游,116.432478,39.937882,全职,3-5年
410,4273669,自动化测试开发工程师,北京,2018-04-23 15:47:29,11.2,78150,Chope,CHOPE GROUP LIMITED,150-500人,海淀区,本科,D轮及以上,"移动互联网,O2O",116.30191,40.054538,全职,3-5年
411,4475591,自动化测试（高级及资深）,深圳,2018-04-27 16:06:49,14.4,4210,神州信息,神州数码信息服务股份有限公司,2000人以上,南山区,本科,上市公司,"移动互联网,企业服务",113.943551,22.548179,全职,5-10年
412,4321462,自动化测试工程师,北京,2018-04-27 10:49:24,12.0,61844,国信优易,国信优易数据有限公司,150-500人,丰台区,本科,B轮,数据服务,116.288308,39.826493,全职,3-5年
413,4438155,运维开发工程师（运维自动化开发方向）,广州,2018-04-23 13:43:06,17.0,22790,网易游戏,广州博冠信息科技有限公司,2000人以上,天河区,本科,上市公司,游戏,113.37322,23.126291,全职,1-3年
414,4293664,自动化测试工程师,北京,2018-04-17 15:57:05,21.0,1880,快手,北京达佳互联信息技术有限公司,500-2000人,海淀区,本科,D轮及以上,移动互联网,116.339107,39.998997,全职,3-5年
415,4207719,自动化测试工程师,北京,2018-04-28 09:50:22,14.0,53260,桔子分期,北京桔子分期电子商务有限公司,150-500人,朝阳区,本科,A轮,"电子商务,金融",116.434837,39.998879,全职,3-5年
416,3936534,测试开发工程师（移动端自动化方向）,北京,2018-04-27 20:45:00,21.0,534,京东金融,京东金融,2000人以上,大兴区,本科,上市公司,金融,116.56438326,39.78603815,全职,3-5年
417,2731119,自动化测试,深圳,2018-04-26 14:30:04,9.6,24574,赛意,广州赛意信息科技股份有限公司,2000人以上,龙华新区,大专,上市公司,"硬件,企业服务",114.06449,22.674036,全职,3-5年
418,4225128,自动化测试,北京,2018-04-08 11:58:25,14.0,41731,云智汇,北京云智汇科技有限公司,15-50人,朝阳区,本科,未融资,"移动互联网,教育",116.489401,39.97275,全职,3-5年
419,3360142,自动化测试专家,深圳,2018-04-03 15:55:34,21.2,6927,OPPO,广东欧珀移动通信有限公司,2000人以上,南山区,本科,不需要融资,移动互联网,113.94304363,22.51878473,全职,5-10年
420,3477616,高级自动化测试,上海,2018-04-27 10:04:38,17.0,131324,多赋信息,上海多赋信息科技有限公司,50-150人,浦东新区,本科,不需要融资,"移动互联网,硬件",121.671082,31.246746,全职,3-5年
421,3891784,APP自动化测试工程师（上海）,上海,2018-04-23 10:47:55,9.0,128835,沐融科技,北京沐融信息科技有限公司,500-2000人,普陀区,本科,C轮,"移动互联网,金融",121.383923,31.245538,全职,1-3年
422,4128351,自动化测试J10946,成都,2018-04-16 09:14:44,12.0,7551,客如云,客如云科技（北京）股份有限公司,500-2000人,高新区,本科,C轮,"移动互联网,O2O",104.068359,30.538196,全职,3-5年
423,4446441,郑州自动化测试岗位,郑州,2018-04-28 14:56:46,11.2,280956,诺基亚华诺科技,湖南华诺科技有限公司,500-2000人,郑东新区,本科,不需要融资,"移动互联网,数据服务",0.0,0.0,全职,1-3年
424,3133537,高级自动化测试工程师(J10909),上海,2018-04-25 10:01:07,24.0,3112,沪江,沪江教育科技（上海）股份有限公司,500-2000人,浦东新区,本科,D轮及以上,"移动互联网,教育",121.603788,31.202542,全职,3-5年
425,4369946,自动化测试工程师,北京,2018-04-09 10:26:42,16.8,101211,易美健,易思互动（北京）科技有限公司,50-150人,海淀区,本科,A轮,"金融,医疗健康",116.342273,39.965227,全职,3-5年
426,4296826,自动化测试工程师,上海,2018-04-27 08:54:46,16.8,4950,好买基金网（联想腾讯注资企业）,好买财富管理股份有限公司,500-2000人,虹口区,本科,C轮,"电子商务,金融",121.48048,31.26677,全职,3-5年
427,4485706,自动化运维开发,杭州,2018-04-26 11:21:42,19.0,150296,秉持专注企业运维管控平台,杭州悠云软件科技有限公司,50-150人,下沙,大专,未融资,移动互联网,120.390047,30.299576,全职,3-5年
428,4322166,自动化测试工程师,北京,2018-04-23 20:57:16,12.0,142592,Stratifyd,北京斯图飞腾科技有限公司,15-50人,朝阳区,本科,A轮,数据服务,116.451487,39.919755,全职,1-3年
429,4151982,自动化测试工程师,上海,2018-04-10 18:16:31,17.0,19409,有孚网络,上海有孚网络股份有限公司,150-500人,杨浦区,本科,B轮,"移动互联网,数据服务",121.99341,30.994275,全职,3-5年
430,4110301,高级自动化测试工程师（测试开发方向）,北京,2018-04-28 10:16:11,20.0,3326,everbridge,北京万桥达观信息技术有限公司,500-2000人,东城区,本科,上市公司,"电子商务,数据服务",115.99339,39.99426,全职,3-5年
431,3926527,自动化测试工程师,广州,2018-04-26 14:33:23,13.2,174043,颉一软件,广州杰颉软件科技有限公司,15-50人,天河区,本科,A轮,"信息安全,数据服务",113.40631,23.150285,全职,3-5年
432,4420988,自动化测试开发工程师,郑州,2018-04-17 15:24:14,10.8,356859,精准软件,郑州精准软件科技有限公司,15-50人,郑东新区,本科,不需要融资,"移动互联网,数据服务",113.756238,34.780433,全职,3-5年
433,3314895,自动化测试工程师,北京,2018-04-03 10:35:48,10.2,150030,北京瑞友,北京瑞友科技股份有限公司,2000人以上,朝阳区,本科,上市公司,"移动互联网,电子商务",116.433666,39.923823,全职,1-3年
434,4432138,自动化测试工程师,苏州,2018-04-17 10:53:27,6.8,116098,中科天启,苏州中科天启遥感科技有限公司,150-500人,高新区,本科,未融资,"数据服务,其他",120.432664,31.323332,全职,1-3年
435,4025902,自动化测试工程师,厦门,2018-04-02 08:38:24,14.0,70447,厦门节点,厦门市节点科技集团有限公司,50-150人,思明区,硕士,不需要融资,"其他,企业服务",118.175239,24.485642,全职,3-5年
436,3976821,移动端自动化测试开发,北京,2018-04-28 16:58:26,24.8,50702,美团点评,北京三快在线科技有限公司,2000人以上,朝阳区,本科,D轮及以上,"移动互联网,O2O",116.443108,39.92147,全职,不限
437,4418538,自动化测试工程师,北京,2018-04-25 12:21:38,14.0,355321,天工矩阵,北京天工矩阵信息技术有限公司,50-150人,大兴区,本科,A轮,"电子商务,企业服务",116.350816,39.762254,全职,3-5年
438,4156872,高级自动化测试工程师,深圳,2018-04-19 14:50:23,14.0,16609,EC,深圳市六度人和科技有限公司,150-500人,南山区,本科,C轮,"移动互联网,企业服务",113.956522,22.539099,全职,3-5年
439,4432286,自动化测试工程师,北京,2018-04-17 11:02:43,17.0,143986,12家全国性股份制商业银行之一,恒丰银行股份有限公司,2000人以上,西城区,本科,不需要融资,金融,121.535827,31.23538,全职,3-5年
440,4209971,自动化运维工程师,郑州,2018-04-15 21:18:46,14.0,228753,shsnc,shsnc,500-2000人,高新区,本科,不需要融资,"数据服务,移动互联网",113.54112,34.80497,全职,3-5年
441,4430294,自动化测试工程师,北京,2018-04-28 10:04:24,21.0,3328,好未来,北京世纪好未来教育科技有限公司,2000人以上,海淀区,本科,上市公司,"移动互联网,教育",116.313701,39.978427,全职,3-5年
442,3759102,自动化测试开发工程师,上海,2018-04-27 09:42:05,18.2,128830,CloudChef,上海骞云信息科技有限公司,50-150人,杨浦区,本科,B轮,"企业服务,数据服务",121.545889,31.276121,全职,3-5年
443,3849782,自动化测试工程师,北京,2018-04-26 10:16:33,17.8,21474,必要商城,珠海随变科技有限公司,50-150人,朝阳区,大专,不需要融资,电子商务,115.99339,39.99426,全职,3-5年
444,4446471,自动化测试工程师,上海,2018-04-24 10:03:16,11.2,61907,YoMail,上海无距信息技术有限公司,15-50人,徐汇区,本科,不需要融资,社交网络,121.40391,31.164019,全职,1-3年
445,3819645,自动化测试工程师,深圳,2018-04-28 12:55:31,14.0,69152,博奥特科技,深圳市博奥特科技有限公司,150-500人,南山区,本科,未融资,"移动互联网,金融",113.930476,22.533013,全职,3-5年
446,3808393,自动化测试专家,深圳,2018-04-23 14:13:53,21.0,6927,OPPO,广东欧珀移动通信有限公司,2000人以上,南山区,本科,不需要融资,移动互联网,113.94304363,22.51878473,全职,不限
447,4356700,自动化设备销售工程师,深圳,2018-04-22 11:57:22,5.6,283051,熙和力,深圳市熙和力自动化设备有限公司,少于15人,宝安区,大专,不需要融资,其他,113.886786,22.569998,全职,应届毕业生
448,4459079,自动化测试工程师,深圳,2018-04-20 18:29:55,21.0,101,迅雷,深圳市迅雷网络技术有限公司,500-2000人,南山区,本科,上市公司,移动互联网,113.93851,22.54505,全职,3-5年
449,4384356,自动化测试工程师（云平台方向）,南京,2018-04-25 10:39:52,14.0,83580,地平线机器人,北京地平线信息技术有限公司,150-500人,栖霞区,不限,A轮,"移动互联网,硬件",118.878204,32.137577,全职,不限
450,4295935,产品经理（自动化营销）,北京,2018-04-27 20:45:00,21.0,534,京东金融,京东金融,2000人以上,大兴区,本科,上市公司,金融,116.56438326,39.78603815,全职,3-5年
451,4175207,自动化测试工程师,北京,2018-04-26 16:14:08,19.0,107408,AdMaster,精硕科技（北京）股份有限公司,500-2000人,海淀区,本科,不需要融资,数据服务,116.357186,40.042672,全职,3-5年
452,4431786,平台自动化测试,北京,2018-04-25 11:13:20,24.0,1650,联想集团,联想（北京）有限公司,2000人以上,海淀区,本科,上市公司,"移动互联网,数据服务",116.273572,40.046061,全职,3-5年
453,2941323,资深自动化测试工程师,北京,2018-04-25 10:12:02,24.0,4188,INK 银客集团,银客未来科技（北京）有限公司,500-2000人,海淀区,本科,C轮,"移动互联网,金融",116.356033,40.046578,全职,5-10年
454,2662927,自动化测试工程师,上海,2018-04-17 17:49:25,21.0,85685,亚创,亚创（上海）工程技术有限公司,150-500人,徐汇区,本科,不需要融资,"企业服务,硬件",121.398301,31.171605,全职,1-3年
455,4374626,自动化测试工程师,上海,2018-04-04 16:53:12,14.2,48410,热璞科技,上海热璞网络科技有限公司,50-150人,闵行区,本科,未融资,"企业服务,数据服务",121.376291,31.176439,全职,3-5年
456,4224789,自动化测试工程师,南京,2018-04-28 09:36:02,14.0,47444,艾佳生活,江苏艾佳家居用品有限公司,150-500人,雨花台区,本科,A轮,电子商务,118.775444,31.974297,全职,3-5年
457,4373453,自动化测试工程师,北京,2018-04-14 17:36:38,15.4,148758,航天数据,北京航天数据股份有限公司,150-500人,海淀区,本科,不需要融资,"信息安全,数据服务",116.307495,39.983916,全职,3-5年
458,4362516,自动化测试工程师,北京,2018-04-10 09:20:28,17.0,24733,微网通联,北京微网通联股份有限公司,150-500人,海淀区,本科,不需要融资,"移动互联网,广告营销",116.282791,40.047314,全职,5-10年
459,4103400,自动化测试开发,上海,2018-04-03 09:44:55,17.8,16831,武汉佰钧成技术有限公司,武汉佰钧成技术有限责任公司,2000人以上,长宁区,本科,不需要融资,移动互联网,,,全职,3-5年
460,4395230,高级自动化测试工程师（英语）,大连,2018-04-10 12:30:51,12.6,142626,CLPS,上海华钦信息科技股份有限公司,500-2000人,高新园区,本科,未融资,"数据服务,金融",121.511293,38.847343,全职,3-5年
461,3929407,中高级自动化测试工程师,西安,2018-04-28 18:32:05,12.2,22862,上海中软华腾软件系统有限公司,上海中软华腾软件系统有限公司,2000人以上,雁塔区,本科,上市公司,"企业服务,金融",108.838275,34.2085,全职,3-5年
462,4376924,自动化测试（手机）,惠州,2018-04-06 11:34:23,12.0,72408,上海网韬信息技术有限公司,上海网韬信息技术有限公司,50-150人,惠城区,本科,不需要融资,"移动互联网,企业服务",114.480737,22.992574,全职,5-10年
463,3903084,自动化测试开发工程师,深圳,2018-04-26 15:29:58,14.0,40459,商汤科技,北京市商汤科技开发有限公司,500-2000人,南山区,本科,B轮,移动互联网,113.920038,22.494927,全职,5-10年
464,4475579,自动化测试（初中）,深圳,2018-04-27 16:06:46,9.0,4210,神州信息,神州数码信息服务股份有限公司,2000人以上,南山区,本科,上市公司,"移动互联网,企业服务",113.943551,22.548179,全职,1-3年
465,3716154,自动化测试,西安,2018-03-30 09:25:18,10.0,16831,武汉佰钧成技术有限公司,武汉佰钧成技术有限责任公司,2000人以上,高新技术产业开发区,本科,不需要融资,移动互联网,0.0,0.0,全职,3-5年
466,4179135,投产验证测试（自动化接口测试方向）,上海,2018-04-26 09:53:39,12.0,22862,上海中软华腾软件系统有限公司,上海中软华腾软件系统有限公司,2000人以上,黄浦区,本科,上市公司,"企业服务,金融",121.477175,31.238463,全职,3-5年
467,3809999,自动化测试,南京,2018-04-17 09:39:09,12.0,153170,语诺诚,北京语诺诚科技有限公司,150-500人,建邺区,本科,不需要融资,"移动互联网,电子商务",118.731694,32.003552,全职,1-3年
468,3350598,自动化测试工程师（深圳）,深圳,2018-04-26 17:22:19,21.0,24748,平安科技,平安科技（深圳）有限公司,2000人以上,福田区,本科,不需要融资,金融,114.055755,22.533344,全职,5-10年
469,4149727,自动化测试开发工程师,厦门,2018-04-25 14:05:54,14.0,9237,RingCentral厦门研发中心,厦门铃盛软件有限公司,500-2000人,思明区,不限,上市公司,"移动互联网,数据服务",0.0,0.0,全职,1-3年
470,4250961,APP自动化测试工程师,广州,2018-04-27 11:26:12,14.0,217320,豆播,广州豆播信息科技有限公司,50-150人,天河区,大专,天使轮,"移动互联网,电子商务",113.321731,23.120154,全职,3-5年
471,4496161,自动化测试工程师,深圳,2018-04-27 18:35:27,9.6,49185,蓝筹科技,深圳第一蓝筹科技有限公司,15-50人,南山区,本科,A轮,移动互联网,113.935496,22.557211,全职,3-5年
472,4313645,自动化测试中高级人员,北京,2018-04-02 14:47:51,19.0,102234,创源微致,北京创源微致软件有限公司,150-500人,海淀区,本科,不需要融资,移动互联网,116.346845,40.033533,全职,3-5年
473,4226954,软件自动化测试研发工程师,杭州,2018-04-27 02:44:55,14.0,335109,天纯软件,天纯软件（杭州）有限公司,少于15人,西湖区,本科,不需要融资,"移动互联网,医疗健康",120.133737,30.276755,全职,3-5年
474,4281686,系统运维工程师（偏自动化运维方向）,福州,2018-04-25 09:17:51,10.2,192316,弘扬软件,福建弘扬软件股份有限公司,150-500人,仓山区,本科,上市公司,"移动互联网,医疗健康",119.253153,26.061234,全职,3-5年
475,3619560,首席运维开发工程师（自动化运维）,北京,2018-04-26 17:45:18,40.2,7000,FreeWheel,飞维美地信息技术（北京）有限公司,500-2000人,朝阳区,本科,上市公司,"企业服务,数据服务",116.471469,39.953193,全职,5-10年
476,4476847,自动化测试工程师,北京,2018-04-25 09:11:55,26.0,4802,广联达,广联达软件股份有限公司,2000人以上,海淀区,本科,上市公司,企业服务,0.0,0.0,全职,5-10年
477,4372247,自动化测试工程师,北京,2018-04-04 12:01:00,15.2,220867,全悉科技,全悉科技（北京）有限公司,15-50人,海淀区,本科,天使轮,信息安全,0.0,0.0,全职,3-5年
478,4434595,自动化测试专家,北京,2018-04-26 10:47:51,24.0,2422,凡普金科,凡普金科集团有限公司,2000人以上,东城区,本科,不需要融资,金融,116.433286,39.92048,全职,5-10年
479,4280129,高级自动化测试工程师,杭州,2018-04-26 08:42:23,14.0,138865,衣科,杭州衣科信息技术有限公司,150-500人,滨江区,大专,不需要融资,"移动互联网,其他",120.216487,30.211519,全职,3-5年
480,3744610,自动化测试工程师,上海,2018-04-27 10:56:38,26.0,16831,武汉佰钧成技术有限公司,武汉佰钧成技术有限责任公司,2000人以上,长宁区,本科,不需要融资,移动互联网,121.354952,31.219288,全职,5-10年
481,4354079,自动化测试实习生,上海,2018-04-19 09:27:45,3.4,272198,联众金融,上海曌扬汽车服务有限公司,500-2000人,浦东新区,本科,A轮,金融,121.515331,31.22761,实习,不限
482,4221827,自动化测试系统工程师,北京,2018-04-24 16:13:00,12.0,114603,中国信通院,中国信息通信研究院,2000人以上,海淀区,本科,不需要融资,"信息安全,移动互联网",39.897445,116.331398,全职,3-5年
483,3467556,自动化测试工程师,北京,2018-04-18 12:43:36,15.2,164574,央视国际视频通讯有限公司,央视国际视频通讯有限公司,150-500人,朝阳区,本科,不需要融资,文化娱乐,116.46374,39.915084,全职,3-5年
484,3870580,自动化测试工程师,成都,2018-04-04 09:00:07,14.0,284236,海德智和科技,四川海德智和科技有限公司,15-50人,锦江区,本科,不需要融资,移动互联网,104.088638,30.647956,全职,5-10年
485,4211816,自动化测试工程师,北京,2018-04-23 16:05:29,43.0,201747,百信银行,中信百信银行股份有限公司,150-500人,朝阳区,本科,不需要融资,"金融,移动互联网",0.0,0.0,全职,5-10年
486,3885784,自动化测试工程师,上海,2018-04-11 15:03:11,21.0,143863,聚泛科技,上海聚泛信息科技有限公司,50-150人,徐汇区,本科,A轮,"金融,移动互联网",121.442914,31.172111,全职,3-5年
487,4380620,自动化测试工程师,北京,2018-04-08 11:46:13,14.0,357996,数建科技,杭州数建科技有限公司,15-50人,海淀区,本科,未融资,"企业服务,数据服务",116.306384,39.977364,全职,3-5年
488,3144801,自动化测试工程师,广州,2018-04-26 14:33:23,7.0,174043,颉一软件,广州杰颉软件科技有限公司,15-50人,天河区,大专,A轮,"信息安全,数据服务",113.40631,23.150285,全职,1-3年
489,4125712,自动化测试工程师,上海,2018-04-09 11:26:10,22.0,78685,驿氪科技EZR,上海驿氪信息科技有限公司,50-150人,闵行区,本科,B轮,"移动互联网,生活服务",121.39381,31.18866,全职,5-10年
490,4448178,自动化测试工程师,北京,2018-04-19 11:26:55,14.0,43931,迅游科技,四川迅游网络科技股份有限公司北京分公司,150-500人,朝阳区,本科,上市公司,移动互联网,116.486118,40.000637,全职,1-3年
491,4161679,测试工程师（自动化测试）,广州,2018-04-18 19:03:06,7.6,68025,广州思迈特,广州思迈特软件有限公司,150-500人,天河区,本科,不需要融资,"企业服务,数据服务",113.410609,23.172075,全职,1-3年
492,4070975,自动化测试工程师,北京,2018-04-09 11:44:23,12.0,59006,小存折,北京清果金融信息服务有限公司,15-50人,海淀区,大专,天使轮,金融,116.33063,39.99574,全职,3-5年
493,4368916,自动化测试工程师,北京,2018-04-03 17:34:58,10.0,73523,创嘉,福建创意嘉和软件有限公司,150-500人,朝阳区,大专,B轮,游戏,116.308811,39.983578,全职,3-5年
494,3553449,接口自动化测试,深圳,2018-04-28 17:16:25,14.0,128998,江苏亿科达,上海海万信息科技股份有限公司,500-2000人,福田区,大专,不需要融资,"移动互联网,金融",114.053855,22.535702,全职,3-5年
495,4400828,自动化运维工程师,成都,2018-04-27 09:42:41,12.0,125138,博雅成信,成都博雅成信科技有限公司,2000人以上,高新区,大专,不需要融资,金融,104.06601,30.582358,全职,3-5年
496,4270516,自动化测试工程师,北京,2018-04-12 13:54:28,14.0,67810,新浪时金,新浪时金（上海）信息技术有限公司,2000人以上,海淀区,本科,上市公司,金融,116.28288,40.047453,全职,3-5年
497,3031989,自动化运维工程师,广州,2018-04-26 13:50:33,33.0,25419,广发证券,广发证券股份有限公司,2000人以上,天河区,本科,上市公司,金融,113.342831,23.118145,全职,5-10年
498,4035145,高级自动化运维工程师,重庆,2018-04-19 15:02:20,16.8,49067,博尼施,重庆博尼施科技有限公司,15-50人,渝中区,本科,不需要融资,移动互联网,106.51121,29.538898,全职,3-5年
499,3946658,自动化运维架构师,深圳,2018-04-11 14:42:47,20.6,301344,招商金融科技,招商局金融科技有限公司,150-500人,南山区,本科,不需要融资,金融,113.912968,22.482034,全职,3-5年
500,4351513,自动化测试工程师,北京,2018-04-28 11:26:55,7.0,326997,大然航空,北京大然航空服务有限公司,50-150人,朝阳区,不限,不需要融资,旅游,116.492874,39.973926,全职,不限
501,4388902,自动化测试,苏州,2018-04-09 14:42:41,9.2,119552,食行生鲜,苏州食行生鲜电子商务有限公司,500-2000人,高新区,本科,C轮,电子商务,120.993464,30.994061,全职,1-3年
502,4385972,自动化测试,上海,2018-04-09 09:57:32,16.8,49500,创昱达,创昱达信息技术有限公司,150-500人,长宁区,本科,不需要融资,移动互联网,121.407744,31.20438,全职,3-5年
503,4497032,软件测试工程师（偏自动化）,北京,2018-04-28 09:45:29,7.0,27907,医视时代,北京医视时代科技发展有限公司,150-500人,朝阳区,大专,B轮,移动互联网,116.436464,39.982385,全职,不限
504,4349493,自动化测试工程师,北京,2018-03-30 09:38:06,17.0,311534,秋实基金,深圳秋实惠智基金销售有限公司,150-500人,朝阳区,本科,A轮,金融 O2O,0.0,0.0,全职,1-3年
505,4403512,高级硬件自动化测试工程师,深圳,2018-04-18 18:31:51,15.2,216662,SENSORO,北京升哲科技有限公司,50-150人,南山区,本科,B轮,"移动互联网,硬件",113.926001,22.53296,全职,3-5年
506,4176031,自动化运维软件开发工程师,成都,2018-04-27 11:13:55,17.0,32720,招银网络科技,招银网络科技（深圳）有限公司,2000人以上,高新区,本科,不需要融资,金融,104.056539,30.543386,全职,1-3年
507,4339474,功能自动化测试,广州,2018-04-28 18:40:12,13.2,309028,小树科技,广州小树网络科技有限公司,50-150人,天河区,大专,不需要融资,"移动互联网,数据服务",113.356072,23.16205,全职,1-3年
508,4418064,自动化测试,上海,2018-04-27 10:09:32,12.6,365078,拓保软件,深圳市拓保软件有限公司上海分公司,500-2000人,浦东新区,大专,不需要融资,企业服务 数据服务,121.475719,31.23277,全职,3-5年
509,3293410,自动化测试工程师,深圳,2018-04-26 10:13:02,17.0,210490,汇商通盈,深圳汇商通盈科技有限公司,15-50人,南山区,本科,A轮,移动互联网,113.952429,22.537847,全职,3-5年
510,3594950,测试开发-UI自动化方向,北京,2018-04-25 10:12:01,19.6,4188,INK 银客集团,银客未来科技（北京）有限公司,500-2000人,海淀区,本科,C轮,"移动互联网,金融",116.356355,40.047633,全职,3-5年
511,4409205,自动化测试/工具框架和脚本开发工程师,南京,2018-04-12 11:02:56,10.8,316687,zteclaa,中兴克拉科技（苏州）有限公司,50-150人,雨花台区,本科,未融资,移动互联网 数据服务,118.787669,31.975599,全职,3-5年
512,4487372,Python开发工程师（网络自动化方向）,杭州,2018-04-26 14:41:07,12.0,329,网易,网易（杭州）有限公司,2000人以上,滨江区,本科,上市公司,"电子商务,移动互联网",120.192295,30.188393,全职,3-5年
513,2385656,自动化测试,深圳,2018-04-25 12:47:01,19.0,16831,武汉佰钧成技术有限公司,武汉佰钧成技术有限责任公司,2000人以上,宝安区,不限,不需要融资,移动互联网,114.057909,22.642235,全职,5-10年
514,4492220,自动化测试工程师 (MJ000574),深圳,2018-04-28 11:17:37,14.0,44841,PPmoney互联网金融平台,万惠投资管理有限公司,500-2000人,南山区,不限,上市公司,金融,113.95432,22.535613,全职,不限
515,4309992,自动化测试工程师,上海,2018-04-27 11:43:45,14.0,15257,美味不用等,美味不用等（上海）信息科技股份有限公司,500-2000人,浦东新区,本科,C轮,"移动互联网,O2O",121.5935,31.207614,全职,1-3年
516,4410945,DevOps运维开发经理（自动化开发）,上海,2018-04-23 17:32:52,19.0,106387,合阔信息,上海合阔信息技术有限公司,15-50人,长宁区,大专,A轮,"企业服务,移动互联网",121.420258,31.208495,全职,3-5年
517,4306101,自动化测试（嵌入式软件方向）,北京,2018-04-25 11:53:57,21.0,52261,mobike摩拜单车,北京摩拜科技有限公司,150-500人,朝阳区,本科,D轮及以上,移动互联网,0.0,0.0,全职,3-5年
518,3863182,自动化测试工程师,成都,2018-04-04 09:00:20,17.0,284236,海德智和科技,四川海德智和科技有限公司,15-50人,锦江区,本科,不需要融资,移动互联网,104.088638,30.647956,全职,5-10年
519,4427964,高级自动化测试工程师,上海,2018-04-28 10:10:59,28.0,9343,百姓网,百姓网股份有限公司,500-2000人,徐汇区,本科,上市公司,移动互联网,120.993464,30.994061,全职,5-10年
520,238187,自动化测试工程师,杭州,2018-04-28 10:03:34,14.0,3770,in,杭州九言科技股份有限公司,150-500人,西湖区,本科,B轮,"广告营销,移动互联网",120.12500956,30.27303013,全职,3-5年
521,4088466,自动化测试工程师（西安 APP）,西安,2018-04-28 19:04:56,12.0,183990,u,海尔优家智能科技（北京）有限公司,150-500人,高新技术产业开发区,本科,未融资,其他,108.871506,34.1905,全职,3-5年
522,2795791,机器自动化销售工程师,广州,2018-04-27 17:08:14,4.2,123916,华颉科技,广州市华颉电子科技有限公司,15-50人,萝岗区,大专,未融资,"硬件,移动互联网",113.450495,23.163659,全职,1-3年
523,3185543,自动化测试工程师（驻马来西亚吉隆坡）,深圳,2018-04-26 15:56:26,19.0,161601,宙讯达网络,深圳市宙讯达网络科技有限公司,50-150人,南山区,大专,不需要融资,移动互联网,114.04849,22.51936,全职,3-5年
524,3529817,自动化测试工程师,上海,2018-04-03 10:30:15,14.0,30830,哔哩哔哩,上海幻电信息科技有限公司,2000人以上,浦东新区,本科,上市公司,"移动互联网,文化娱乐",0.0,0.0,全职,1-3年
525,4352885,测试工程师（自动化）,深圳,2018-04-23 12:00:35,14.0,157312,深圳市番趣互动娱乐有限公司,深圳市番趣互动娱乐有限公司,50-150人,南山区,本科,不需要融资,"数据服务,游戏",0.0,0.0,全职,3-5年
526,4381828,运维自动化系统产品经理,上海,2018-04-16 17:12:02,26.0,6636,携程,携程计算机技术（上海）有限公司,2000人以上,长宁区,本科,上市公司,"移动互联网,旅游",121.358602,31.220557,全职,3-5年
527,4171150,功能、接口、自动化测试工程师,北京,2018-04-28 09:11:29,24.0,3328,好未来,北京世纪好未来教育科技有限公司,2000人以上,海淀区,本科,上市公司,"移动互联网,教育",0.0,0.0,全职,3-5年
528,3618715,自动化测试工程师,深圳,2018-04-20 09:38:34,10.8,25317,金证股份,深圳市金证科技股份有限公司,2000人以上,南山区,本科,上市公司,金融,113.947453,22.534948,全职,1-3年
529,2736835,自动化测试,北京,2018-04-23 18:24:46,25.2,167325,同创,北京鼎立同创网络科技有限公司,15-50人,朝阳区,本科,未融资,移动互联网,116.480792,39.996,全职,不限
530,4350704,WEB自动化测试工程师（英文办公环境）,北京,2018-03-30 11:18:17,17.0,123777,通力互联,北京通力互联技术服务有限公司,2000人以上,海淀区,本科,不需要融资,"电子商务,企业服务",116.285469,40.044303,全职,5-10年
531,4310291,自动化测试工程师,北京,2018-04-23 11:01:32,28.0,2422,凡普金科,凡普金科集团有限公司,2000人以上,东城区,本科,不需要融资,金融,116.433367,39.922635,全职,5-10年
532,3538605,自动化测试工程师（Python）,北京,2018-04-30 09:08:21,15.2,9955,学堂在线,北京慕华信息科技有限公司,150-500人,海淀区,本科,B轮,"移动互联网,教育",116.329427,39.99412,全职,3-5年
533,4283553,自动化测试,上海,2018-04-28 11:37:26,16.0,143863,聚泛科技,上海聚泛信息科技有限公司,50-150人,徐汇区,本科,A轮,"金融,移动互联网",121.442914,31.172111,全职,1-3年
534,4449994,自动化测试工程师,上海,2018-04-28 19:41:45,16.8,82677,云从科技,重庆中科云丛科技有限公司,150-500人,浦东新区,大专,A轮,"金融,信息安全",121.587891,31.190237,全职,3-5年
535,2494986,测试工程师（自动化/功能）,上海,2018-04-26 16:15:14,14.4,1403,爱回收,上海悦易网络信息技术有限公司,500-2000人,,本科,D轮及以上,"电子商务,O2O",121.51053373,31.30740296,全职,3-5年
536,4120810,高级运维工程师（自动化系统研发运维方向）,上海,2018-04-25 14:23:20,21.0,51480,饿了么,拉扎斯网络科技（上海）有限公司,2000人以上,普陀区,本科,D轮及以上,移动互联网,121.38240794,31.23317234,全职,3-5年
537,4372761,DevOps自动化运维工程师,北京,2018-04-04 13:59:13,19.0,3454,北京三星通信研究院,北京三星通信技术研究有限公司,500-2000人,朝阳区,硕士,D轮及以上,其他,116.444661,39.972375,全职,不限
538,3317463,自动化测试工程师,北京,2018-04-25 11:34:22,16.8,6678,人人贷,人人贷商务顾问（北京）有限公司,500-2000人,海淀区,本科,A轮,金融,116.330778,39.994714,全职,3-5年
539,3505559,自动化运维工程师,重庆,2018-04-13 13:42:17,7.8,49067,博尼施,重庆博尼施科技有限公司,15-50人,渝中区,本科,不需要融资,移动互联网,106.51121,29.538898,全职,1-3年
540,4276909,自动化框架开发工程师（java),深圳,2018-04-20 09:38:34,16.0,25317,金证股份,深圳市金证科技股份有限公司,2000人以上,南山区,本科,上市公司,金融,113.947453,22.534948,全职,不限
541,3505559,自动化运维工程师,重庆,2018-04-13 13:42:17,7.8,49067,博尼施,重庆博尼施科技有限公司,15-50人,渝中区,本科,不需要融资,移动互联网,106.51121,29.538898,全职,1-3年
542,4446869,Python自动化开发工程师,苏州,2018-04-27 16:28:06,14.0,81524,AGS,苏州华冠科技有限公司,50-150人,吴中区,本科,不需要融资,企业服务,120.729683,31.261928,全职,3-5年
543,4480281,便利蜂-自动化测试工程师,北京,2018-04-25 14:39:39,21.0,175557,便利蜂,便利蜂商贸有限公司,2000人以上,朝阳区,本科,不需要融资,"移动互联网,生活服务",116.49388,39.978087,全职,1年以下
544,4094983,自动化测试工程师,武汉,2018-04-25 10:48:41,10.8,83054,大件会,武汉大见时代网络科技有限公司,150-500人,武昌区,大专,A轮,"电子商务,生活服务",114.32052,30.522177,全职,3-5年
545,4483053,自动化测试工程师,武汉,2018-04-25 18:19:23,10.8,39550,易途科技,北京易途科技有限公司,50-150人,江汉区,本科,天使轮,移动互联网,114.288978,30.567715,全职,3-5年
546,4475896,自动化测试,成都,2018-04-26 11:51:01,6.8,103756,四象联创,成都四象联创科技有限公司,50-150人,郫县,大专,未融资,"移动互联网,金融",103.974193,30.733985,全职,1-3年
547,3772903,自动化测试工程师（龙珠直播）,上海,2018-04-23 17:22:40,16.4,17291,PPTV聚力,上海聚力传媒技术有限公司,500-2000人,浦东新区,本科,D轮及以上,文化娱乐,121.531728,31.216657,全职,3-5年
548,4484156,自动化测试工程师（银行系统）,上海,2018-04-26 09:33:25,11.6,371656,爱元通,上海爱元通科技有限公司,150-500人,浦东新区,本科,未融资,"移动互联网,金融",121.558816,31.236982,全职,1-3年
549,4411644,软件自动化测试工程师,广州,2018-04-25 16:07:47,12.0,333986,佛山市宝诗龙精密五金有限公司,佛山市宝诗龙精密五金有限公司,500-2000人,天河区,本科,上市公司,移动互联网,113.350951,23.118877,全职,1-3年
550,3740707,自动化测试工程师,北京,2018-04-08 16:22:21,11.2,59987,北京润和,北京润和汇智信息技术有限公司,50-150人,朝阳区,本科,上市公司,移动互联网,116.481049,39.996796,全职,1-3年
551,4134881,自动化测试工程师,上海,2018-04-27 09:27:00,15.2,139645,河姆渡电子商务有限公司,上海河姆渡实业发展有限公司,500-2000人,浦东新区,本科,A轮,电子商务,121.54986,31.2026,全职,1-3年
552,4122006,自动化测试工程师,天津,2018-04-11 18:07:28,17.0,38368,北京盛安德,北京盛安德科技发展有限公司,150-500人,河西区,本科,不需要融资,"移动互联网,企业服务",117.217687,39.112902,全职,5-10年
553,2750793,自动化测试引擎开发工程师,深圳,2018-03-30 10:22:48,28.0,19875,vivo,维沃移动通信有限公司,2000人以上,福田区,本科,未融资,移动互联网,113.993578,22.99368,全职,3-5年
554,3113840,自动化测试开发,上海,2018-04-27 10:11:43,19.0,30843,ezbuy,前海煦逸信息技术（深圳）有限公司,500-2000人,浦东新区,本科,C轮,"电子商务,生活服务",121.629771,31.210218,全职,3-5年
555,3946265,高级网络自动化运维研发工程师,深圳,2018-04-11 14:42:47,20.6,301344,招商金融科技,招商局金融科技有限公司,150-500人,南山区,本科,不需要融资,金融,113.912968,22.482034,全职,3-5年
556,4188392,自动化测试工程师,北京,2018-04-26 20:01:07,14.0,96115,大账房,北京大账房信息技术有限公司,150-500人,海淀区,本科,上市公司,"移动互联网,数据服务",116.300657,39.968897,全职,3-5年
557,3003282,自动化测试工程师,上海,2018-04-25 18:18:24,12.0,22726,金银猫,上海金银猫金融服务有限公司,150-500人,浦东新区,本科,B轮,金融,121.5319,31.21733,全职,3-5年
558,3634977,功能测试（有涉及到自动化、接口）,上海,2018-04-27 14:53:26,7.2,24995,泛微,上海泛微网络科技股份有限公司,2000人以上,闵行区,本科,上市公司,"移动互联网,企业服务",121.52396,31.07979,全职,1-3年
559,4143383,自动化测试开发工程师,深圳,2018-04-24 10:40:31,13.2,45943,信锐技术,深圳市信锐网科技术有限公司,500-2000人,南山区,本科,不需要融资,移动互联网,114.002362,22.591866,全职,1-3年
560,4467848,自动化测试,深圳,2018-04-23 17:48:20,8.8,168557,YIDATEC,亿达信息技术（深圳）有限公司,2000人以上,南山区,大专,不需要融资,"移动互联网,游戏",113.94679,22.556374,全职,3-5年
561,4122002,自动化测试工程师,北京,2018-04-11 18:07:27,22.0,38368,北京盛安德,北京盛安德科技发展有限公司,150-500人,西城区,本科,不需要融资,"移动互联网,企业服务",116.3743,39.95627,全职,5-10年
562,3035508,自动化测试工程师,上海,2018-04-25 11:19:26,17.0,96590,华夏信财,华夏信财互联网金融信息服务（上海）有限公司,2000人以上,黄浦区,本科,A轮,"移动互联网,金融",120.993464,30.994061,全职,5-10年
563,2924462,移动端自动化测试开发工程师,深圳,2018-04-03 15:17:51,14.4,136714,Anker,安克创新科技股份有限公司,500-2000人,南山区,本科,不需要融资,移动互联网,113.953402,22.568938,全职,3-5年
564,3017811,高级测试工程师 自动化测试 性能测试 功能测试,北京,2018-04-28 17:43:06,19.0,31173,悠易,悠易互通（北京）广告有限公司,150-500人,朝阳区,本科,C轮,广告营销,116.459324,39.918852,全职,3-5年
565,4369886,自动化测试工程师,北京,2018-04-03 20:00:24,25.2,18139,京东集团,北京京东世纪贸易有限公司,2000人以上,朝阳区,本科,上市公司,"电子商务,数据服务",116.387477,40.000236,全职,5-10年
566,2307547,自动化测试,杭州,2018-04-18 11:43:02,14.0,50354,百世物流,浙江百世技术有限公司,2000人以上,西湖区,本科,D轮及以上,"移动互联网,O2O",120.12211042,30.27455008,全职,3-5年
567,3260165,自动化测试工程师,上海,2018-04-04 15:24:04,14.0,113723,上海拿米金服,上海拿米金融信息服务有限公司,150-500人,徐汇区,大专,不需要融资,"移动互联网,金融",121.410559,31.171432,全职,3-5年
568,3619537,资深运维开发工程师（自动化运维）,北京,2018-04-26 17:45:19,27.6,7000,FreeWheel,飞维美地信息技术（北京）有限公司,500-2000人,朝阳区,本科,上市公司,"企业服务,数据服务",116.471469,39.953193,全职,3-5年
569,4496026,自动化测试全职讲师,深圳,2018-04-27 18:14:27,19.0,375194,三只啄木鸟,深圳市三只啄木鸟信息技术有限公司,15-50人,宝安区,大专,不需要融资,"移动互联网,教育",113.870182,22.57102,全职,3-5年
570,4320089,自动化测试工程师,重庆,2018-04-28 11:59:48,10.0,140307,晓道科技,重庆晓道信息科技有限公司,150-500人,渝中区,本科,不需要融资,电子商务,106.993928,29.993808,全职,3-5年
571,4394846,自动化测试工程师,北京,2018-04-26 19:05:59,14.0,37949,小牛电动车,北京牛电科技有限责任公司,150-500人,朝阳区,本科,A轮,"电子商务,硬件",116.483553,39.991794,全职,3-5年
572,4304964,自动化测试工程师,武汉,2018-04-23 16:20:55,8.4,53438,白虹软件,武汉白虹软件科技有限公司,150-500人,洪山区,本科,上市公司,"移动互联网,信息安全",0.0,0.0,全职,3-5年
573,2727239,资深自动化运维工程师,北京,2018-04-26 10:29:40,16.8,64003,北京社区半径信息技术有限公司,北京社区半径信息技术有限公司,150-500人,海淀区,大专,不需要融资,"移动互联网,O2O",116.322298,39.968799,全职,3-5年
574,3945956,网络自动化运维研发工程师,深圳,2018-04-11 14:42:48,15.0,301344,招商金融科技,招商局金融科技有限公司,150-500人,南山区,本科,不需要融资,金融,113.912968,22.482034,全职,1-3年
575,4049357,Java开发工程师（自动化测试）,上海,2018-04-27 17:27:18,14.0,142626,CLPS,上海华钦信息科技股份有限公司,500-2000人,浦东新区,本科,未融资,"数据服务,金融",121.59819964,31.21080018,全职,3-5年
576,3175548,自动化测试工程师,长沙,2018-04-25 18:22:12,11.4,6628,益丰大药房,益丰大药房连锁股份有限公司,2000人以上,岳麓区,本科,上市公司,"电子商务,医疗健康",112.993417,27.994254,全职,3-5年
577,3654785,自动化测试,北京,2018-04-23 12:00:51,26.0,72106,蛋壳公寓,紫梧桐（北京）资产管理有限公司,2000人以上,东城区,本科,B轮,O2O,116.430795,39.923886,全职,5-10年
578,4170071,自动化测试工程师,北京,2018-04-28 15:54:42,10.8,156182,瞻世趣,瞻世趣科技发展（北京）有限公司,50-150人,丰台区,大专,未融资,"移动互联网,电子商务",116.286071,39.832633,全职,1-3年
579,4482368,自动化测试工程师,北京,2018-04-25 17:18:28,27.2,2422,凡普金科,凡普金科集团有限公司,2000人以上,东城区,本科,不需要融资,金融,116.433221,39.920718,全职,3-5年
580,4340823,自动化测试,成都,2018-04-23 13:40:34,7.0,89918,Symphony Teleca,哈曼智联科技（成都）有限公司,2000人以上,高新区,本科,不需要融资,"移动互联网,其他",104.071259,30.546143,全职,3-5年
581,3639370,自动化测试工程师,深圳,2018-04-28 10:05:50,10.8,94153,海云天科技,深圳市海云天科技股份有限公司,500-2000人,南山区,本科,上市公司,"移动互联网,教育",113.94943201,22.550123,全职,3-5年
582,4334172,自动化测试,上海,2018-04-25 14:07:04,18.2,160671,千匠网络,上海千匠网络科技有限公司,150-500人,徐汇区,大专,未融资,"电子商务,移动互联网",0.0,0.0,全职,3-5年
583,3872563,APP自动化测试工程师,上海,2018-04-25 10:28:36,26.0,189022,微创,上海微创软件股份有限公司北京分公司,2000人以上,虹口区,本科,上市公司,"移动互联网,电子商务",0.0,0.0,全职,5-10年
584,4317291,自动化测试工程师,北京,2018-04-24 11:20:57,19.0,48133,福佑卡车,北京福佑在线信息技术有限公司,150-500人,海淀区,本科,C轮,O2O,116.320763,39.97655,全职,3-5年
585,4463478,自动化测试工程师,重庆,2018-04-23 11:23:17,8.2,364942,云南航天工程物探检测股份有限公司,云南航天工程物探检测股份有限公司,150-500人,渝北区,本科,上市公司,"企业服务,信息安全",106.502662,29.61598,全职,3-5年
586,3510757,软件测试工程师（自动化）,成都,2018-04-28 10:45:12,9.6,235197,皓图智能,成都皓图智能科技有限责任公司,15-50人,成华区,本科,A轮,"其他,移动互联网",104.10839,30.67449,全职,3-5年
587,4084330,Java开发工程师（自动化工具开发）,上海,2018-04-27 17:27:34,14.0,142626,CLPS,上海华钦信息科技股份有限公司,500-2000人,浦东新区,本科,未融资,"数据服务,金融",121.59819964,31.21080018,全职,1-3年
588,4119303,自动化测试工程师,武汉,2018-04-24 09:24:12,3.8,227155,中电九天智能科技有限公司,中电九天智能科技有限公司,50-150人,武昌区,本科,未融资,其他,114.331489,30.536697,全职,不限
589,1809386,自动化测试,杭州,2018-04-23 09:30:33,14.0,50796,北京大成元方信息科技有限公司,北京大成元方信息科技有限公司,50-150人,西湖区,本科,未融资,移动互联网,120.12728015,30.27683991,全职,3-5年
590,4231274,自动化测试,成都,2018-04-18 17:53:53,8.2,337198,成都宏盛,成都宏盛天下科技有限公司,500-2000人,郫县,本科,不需要融资,电子商务,103.968024,30.734205,全职,1-3年
591,4311070,自动化测试工程师,上海,2018-04-24 09:16:35,19.0,284825,小黑鱼,小黑鱼科技有限公司,150-500人,浦东新区,本科,A轮,"移动互联网,金融",,,全职,3-5年
592,3369291,高级自动化测试工程师,广州,2018-04-25 10:02:05,16.8,231546,极点三维,中山市极点三维电子科技有限公司广州分公司,50-150人,天河区,本科,未融资,"移动互联网,其他",113.327026,23.13217,全职,5-10年
593,4365894,自动化测试工程师,北京,2018-04-19 17:06:49,16.8,101211,易美健,易思互动（北京）科技有限公司,50-150人,海淀区,本科,A轮,"金融,医疗健康",116.341865,39.966298,全职,1-3年
594,3259202,java自动化测试工程师,北京,2018-04-28 18:07:36,19.0,24523,哗啦啦,北京多来点信息技术有限公司,500-2000人,西城区,本科,不需要融资,"移动互联网,O2O",116.35281182,39.94134779,全职,1-3年
595,2988764,自动化测试工程师,成都,2018-04-27 10:25:37,7.0,111616,成都炎龙,成都炎龙科技有限公司,150-500人,锦江区,大专,上市公司,"移动互联网,游戏",104.068819,30.64876,全职,1-3年
596,3113295,自动化测试工程师,上海,2018-04-26 15:07:57,14.4,6636,携程,携程计算机技术（上海）有限公司,2000人以上,长宁区,本科,上市公司,"移动互联网,旅游",121.35631021,31.22061947,全职,3-5年
597,4067854,自动化测试,上海,2018-03-30 09:28:13,7.6,200108,中科航天,中科航天（北京）科技有限公司,50-150人,黄浦区,大专,未融资,"移动互联网,教育",121.470456,31.206254,全职,1-3年
598,3839782,自动化测试工程师（jenkins）,北京,2018-04-28 11:17:05,13.2,30605,赢时胜软件,深圳市赢时胜信息技术股份有限公司,500-2000人,朝阳区,本科,上市公司,金融,116.514624,39.937265,全职,1-3年
599,4109153,自动化测试工程师,成都,2018-04-28 09:43:50,9.6,67390,订货宝,成都阿商信息技术有限公司,50-150人,高新区,本科,B轮,电子商务,104.06540042,30.53656953,全职,3-5年
600,4402466,自动化测试工程师,广州,2018-04-27 09:31:17,19.0,343752,智蓝信息科技,江苏智蓝信息科技有限公司,150-500人,天河区,本科,未融资,"移动互联网,数据服务",113.371102,23.124512,全职,3-5年
601,3458641,软件自动化测试工程师,上海,2018-04-28 14:01:41,16.0,103736,享骑出行,上海享骑电动车服务有限公司,150-500人,闵行区,大专,未融资,"移动互联网,电子商务",121.361819,31.136124,全职,5-10年
602,4090051,自动化测试工程师,上海,2018-04-10 10:23:53,15.2,113723,上海拿米金服,上海拿米金融信息服务有限公司,150-500人,徐汇区,大专,不需要融资,"移动互联网,金融",121.41045,31.17033,全职,3-5年
603,4361928,自动化测试工程师,成都,2018-04-02 17:13:47,9.6,7334,1919酒类直供,壹玖壹玖酒类平台科技股份有限公司,2000人以上,武侯区,本科,上市公司,O2O,104.064703,30.567031,全职,3-5年
604,4064799,自动化测试工程师,广州,2018-04-26 13:50:33,33.0,25419,广发证券,广发证券股份有限公司,2000人以上,天河区,本科,上市公司,金融,113.342831,23.118145,全职,3-5年
605,4410189,自动化测试,北京,2018-04-27 10:15:03,10.8,304477,捷程易信,捷程易信（北京）信息技术有限公司,50-150人,海淀区,大专,不需要融资,移动互联网,0.0,0.0,全职,1-3年
606,4319643,自动化测试工程师,深圳,2018-04-25 09:55:17,12.8,73980,银信科技,北京银信长远科技股份有限公司,500-2000人,南山区,本科,上市公司,"移动互联网,硬件",113.933501,22.541043,全职,3-5年
607,1898301,自动化测试,北京,2018-04-18 17:14:40,9.0,82689,PICA8,北京品科技术有限公司,50-150人,海淀区,本科,C轮,"移动互联网,数据服务",116.33226099,39.98070807,全职,应届毕业生
608,2376465,自动化测试,成都,2018-04-24 10:05:55,11.2,13751,Zara,飒拉商业（上海）有限公司,2000人以上,武侯区,本科,上市公司,生活服务,104.08127,30.656768,全职,1-3年
609,4466093,自动化测试工程师,上海,2018-04-23 15:40:21,19.0,312262,迪拍科技,迪拍（上海）信息科技有限公司,50-150人,静安区,本科,未融资,移动互联网,121.428328,31.22863,全职,3-5年
610,4130506,自动化测试工程师,北京,2018-04-13 17:51:00,12.0,86110,首汽约车,首约科技（北京）有限公司,2000人以上,东城区,本科,B轮,"移动互联网,O2O",0.0,0.0,全职,3-5年
611,4011643,自动化测试经理,武汉,2018-04-08 11:32:27,10.8,38784,上海其易信息科技有限公司武汉分公司,上海其易信息科技有限公司武汉分公司,50-150人,东湖新技术开发区,本科,不需要融资,数据服务,114.421696,30.48051,全职,5-10年
612,3562329,自动化测试工程师,上海,2018-04-26 09:24:33,14.0,35179,东方财富,东方财富信息股份有限公司,2000人以上,徐汇区,本科,上市公司,金融,0.0,0.0,全职,1-3年
613,4212265,自动化测试工程师,西安,2018-04-25 16:46:10,5.6,210669,盛安德西安第一分公司,北京盛安德科技发展有限公司西安第一分公司,15-50人,高新技术产业开发区,不限,未融资,"移动互联网,企业服务",,,全职,不限
614,4176431,自动化测试工程师,深圳,2018-04-20 14:27:25,14.4,64077,华海乐盈,深圳华海乐盈网络科技集团有限公司,500-2000人,南山区,本科,不需要融资,移动互联网,113.94672,22.54406,全职,5-10年
615,4064884,自动化测试工程师,上海,2018-04-26 13:50:32,33.0,25419,广发证券,广发证券股份有限公司,2000人以上,浦东新区,本科,上市公司,金融,121.524406,31.228903,全职,3-5年
616,3053222,测试工程师（自动化方向）,北京,2018-04-27 15:04:58,6.2,53658,踏浪者,北京踏浪者科技有限公司,500-2000人,朝阳区,本科,B轮,电子商务,116.424862,40.033937,全职,1-3年
617,4115863,自动化测试人,深圳,2018-04-23 16:34:24,10.8,70667,比茨信息,大连比茨信息技术有限公司,150-500人,南山区,大专,未融资,招聘,113.948041,22.53842,全职,1-3年
618,4396043,自动化测试,西安,2018-04-16 10:29:52,10.0,139096,政大教育,北京政大教育科技有限公司,15-50人,碑林区,大专,未融资,教育,108.890044,34.236466,全职,3-5年
619,4496076,自动化测试讲师,深圳,2018-04-27 18:20:59,7.6,375194,三只啄木鸟,深圳市三只啄木鸟信息技术有限公司,15-50人,宝安区,本科,不需要融资,"移动互联网,教育",113.870182,22.57102,兼职,3-5年
620,4142886,自动化测试工程师,北京,2018-04-08 09:34:24,14.0,4368,91科技集团,九一金融信息服务（北京）有限公司,150-500人,西城区,本科,C轮,金融,0.0,0.0,全职,1-3年
621,4452920,Android APP自动化测试工程师,广州,2018-04-27 14:04:47,19.0,42975,小鱼在家,北京小鱼儿网络科技有限公司,150-500人,天河区,本科,C轮,移动互联网,113.3612,23.12468,全职,1-3年
622,4196910,自动化测试工程师,武汉,2018-04-23 09:02:35,8.4,54450,星云海数字科技,星云海数字科技股份有限公司,2000人以上,汉阳区,大专,不需要融资,电子商务,114.204257,30.547894,全职,3-5年
623,4250270,自动化测试工程师,成都,2018-04-16 18:18:10,6.6,147865,德鲁伊科技,成都德鲁伊科技有限公司,15-50人,高新区,本科,天使轮,"数据服务,其他",0.0,0.0,全职,3-5年
624,4372502,自动化测试,深圳,2018-04-04 13:16:38,10.4,296391,汇合,深圳市汇合发展有限公司,2000人以上,南山区,本科,不需要融资,企业服务、招聘,113.932899,22.542186,全职,1-3年
625,4369954,初级自动化测试工程师/实习生,北京,2018-04-09 10:26:34,9.8,101211,易美健,易思互动（北京）科技有限公司,50-150人,海淀区,本科,A轮,"金融,医疗健康",116.342273,39.965227,全职,不限
626,4080004,自动化测试工程师J10074,北京,2018-04-25 19:13:24,24.0,165980,包银消费金融,包头市包银消费金融股份有限公司,150-500人,朝阳区,本科,不需要融资,"移动互联网,金融",116.418003,39.989574,全职,3-5年
627,3654540,自动化测试工程师,深圳,2018-04-23 14:36:05,10.8,31505,轻松行,深圳市轻松行商旅网有限公司,50-150人,福田区,本科,A轮,"移动互联网,电子商务",114.031537,22.534054,全职,3-5年
628,3706108,自动化测试工程师,北京,2018-04-17 15:38:30,21.0,45131,中国电信云计算公司,中国电信股份有限公司云计算分公司,500-2000人,海淀区,本科,上市公司,数据服务,116.223084,39.956607,全职,不限
629,4477847,YF401自动化测试工程师,北京,2018-04-25 10:33:02,17.0,205713,数美科技,杭州数美科技有限公司,150-500人,朝阳区,大专,天使轮,"数据服务,企业服务",0.0,0.0,全职,3-5年
630,3654540,自动化测试工程师,深圳,2018-04-23 14:36:05,10.8,31505,轻松行,深圳市轻松行商旅网有限公司,50-150人,福田区,本科,A轮,"移动互联网,电子商务",114.031537,22.534054,全职,3-5年
631,3706108,自动化测试工程师,北京,2018-04-17 15:38:30,21.0,45131,中国电信云计算公司,中国电信股份有限公司云计算分公司,500-2000人,海淀区,本科,上市公司,数据服务,116.223084,39.956607,全职,不限
632,4477847,YF401自动化测试工程师,北京,2018-04-25 10:33:02,17.0,205713,数美科技,杭州数美科技有限公司,150-500人,朝阳区,大专,天使轮,"数据服务,企业服务",0.0,0.0,全职,3-5年
633,4464371,测试工程师(自动化方向),成都,2018-04-23 13:10:53,8.4,61844,国信优易,国信优易数据有限公司,150-500人,郫县,本科,B轮,数据服务,103.858722,30.777208,全职,3-5年
634,4338558,自动化测试开发,广州,2018-04-20 10:44:19,6.8,64688,易热捷,广州易热捷信息技术有限公司,50-150人,天河区,本科,不需要融资,"移动互联网,金融",113.320868,23.139189,全职,1年以下
635,4106927,自动化测试高级工程师,上海,2018-04-30 14:26:55,28.0,254725,达家迎,上海达家迎信息科技有限公司,150-500人,闵行区,本科,B轮,O2O,121.31151,31.19334,全职,5-10年
636,4290257,自动化测试工程师,深圳,2018-04-26 17:49:10,15.2,6636,携程,携程计算机技术（上海）有限公司,2000人以上,南山区,本科,上市公司,"移动互联网,旅游",113.936046,22.524411,全职,3-5年
637,3803441,测试开发工程师（自动化测试）,杭州,2018-04-18 11:43:04,17.8,50354,百世物流,浙江百世技术有限公司,2000人以上,西湖区,本科,D轮及以上,"移动互联网,O2O",120.12211,30.27455,全职,3-5年
638,4349119,自动化测试工程师,深圳,2018-04-16 10:05:23,21.0,451,腾讯,腾讯科技(深圳)有限公司,2000人以上,南山区,本科,上市公司,"移动互联网 ,游戏",113.952731,22.535766,全职,3-5年
639,4407681,软件测试（自动化）,北京,2018-04-11 23:39:28,8.8,8236,捷库动力,捷库动力（北京）信息技术有限公司,15-50人,朝阳区,本科,A轮,移动互联网,116.491532,39.914711,全职,1-3年
640,4143465,智能电视和OTT应用自动化测试工程师,上海,2018-04-26 11:39:18,19.0,26785,芒果tv,湖南快乐阳光互动娱乐传媒有限公司,500-2000人,浦东新区,本科,B轮,文化娱乐,121.588883,31.25283,全职,3-5年
641,4311641,自动化测试工程师,广州,2018-04-19 11:01:31,12.6,225508,新心金融,深圳前海新心金融管理有限公司,150-500人,天河区,本科,天使轮,金融,113.327051,23.118046,全职,不限
642,1946403,高级自动化测试工程师/测试经理,北京,2018-04-28 10:52:11,16.8,22139,第三石科技,北京第三石科技发展有限公司,50-150人,朝阳区,本科,B轮,"移动互联网,电子商务",116.479717,39.99502406,全职,3-5年
643,4410728,自动化测试开发工程师,深圳,2018-04-27 09:10:43,14.2,352855,新世纪科技,深圳市新世纪智能安防科技有限公司,50-150人,龙华新区,大专,不需要融资,"移动互联网,企业服务",114.011392,22.639645,全职,1-3年
644,4243585,高级自动化测试工程师,武汉,2018-04-17 17:46:41,12.0,12271,CmsTop,北京思拓合众科技有限公司,50-150人,洪山区,本科,未融资,移动互联网,114.408917,30.477669,全职,3-5年
645,3467630,自动化测试工程师,北京,2018-04-18 12:43:37,15.2,164574,央视国际视频通讯有限公司,央视国际视频通讯有限公司,150-500人,朝阳区,本科,不需要融资,文化娱乐,116.46374,39.915084,全职,3-5年
646,3829839,测试工程师（自动化测试方向）,上海,2018-04-26 17:56:05,13.2,54393,东航电商公司,东方航空电子商务有限公司,2000人以上,闵行区,本科,不需要融资,"移动互联网,电子商务",121.327992,31.18888,全职,3-5年
647,4155137,自动化测试工程师,上海,2018-04-09 15:20:40,20.6,156662,天宝集团,天寶集團控股有限公司,2000人以上,闵行区,大专,上市公司,"移动互联网,社交网络",121.384772,31.166542,全职,3-5年
648,3259238,Python测试工程师（自动化）,北京,2018-04-28 18:08:57,19.0,24523,哗啦啦,北京多来点信息技术有限公司,500-2000人,西城区,本科,不需要融资,"移动互联网,O2O",116.35276,39.94140907,全职,1-3年
649,3886282,工控自动化产品销售(新加坡驻深圳分公司),深圳,2018-04-22 11:57:22,4.8,283051,熙和力,深圳市熙和力自动化设备有限公司,少于15人,宝安区,大专,不需要融资,其他,113.886786,22.569998,全职,应届毕业生
650,4365098,自动化测试工程师,重庆,2018-04-03 11:10:44,5.6,258050,中迪医疗,重庆市中迪医疗信息科技股份有限公司,150-500人,巴南区,大专,上市公司,医疗健康,106.515623,29.365272,全职,1-3年
651,4449755,高级自动化测试工程师,深圳,2018-04-20 19:44:57,15.4,1720,万兴科技股份有限公司,万兴科技股份有限公司,150-500人,南山区,本科,上市公司,移动互联网,113.936816,22.524171,全职,3-5年
652,4445292,自动化测试工程师,北京,2018-04-18 18:29:02,14.0,113884,天学网,北京天学网教育科技股份有限公司,500-2000人,海淀区,本科,上市公司,移动互联网,116.30803,39.96658,全职,3-5年
653,4090342,自动化测试工程师,上海,2018-04-08 19:11:37,15.2,113723,上海拿米金服,上海拿米金融信息服务有限公司,150-500人,徐汇区,大专,不需要融资,"移动互联网,金融",121.410559,31.171432,全职,3-5年
654,3840831,APP自动化测试,上海,2018-04-28 16:57:45,12.0,1373,喜马拉雅,上海证大喜马拉雅网络科技有限公司,500-2000人,浦东新区,本科,D轮及以上,"移动互联网,文化娱乐",121.59440921,31.20434934,全职,1-3年
655,2091075,自动化测试工程师（移动端）,上海,2018-04-28 16:25:10,18.2,51480,饿了么,拉扎斯网络科技（上海）有限公司,2000人以上,普陀区,本科,D轮及以上,移动互联网,121.38149999,31.23318987,全职,1-3年
656,3639633,运维工程师（python自动化运维）,上海,2018-04-27 14:53:24,9.0,24995,泛微,上海泛微网络科技股份有限公司,2000人以上,闵行区,本科,上市公司,"移动互联网,企业服务",121.52396,31.07979,全职,1-3年
657,4350631,大数据产品经理（企业级自动化营销方向）,上海,2018-04-26 17:26:55,14.0,202989,chinapex,创络（上海）数据科技有限公司,50-150人,徐汇区,本科,B轮,"数据服务,广告营销",0.0,0.0,全职,1-3年
658,4353909,自动化测试工程师,上海,2018-04-11 10:28:42,19.6,353209,ONEROOT,上海启日信息技术有限公司,15-50人,虹口区,本科,A轮,移动互联网,121.477215,31.271142,全职,3-5年
659,4301105,高级测试工程师 自动化测试 web测试,上海,2018-04-27 15:20:13,21.0,126467,商米科技,上海商米科技有限公司,150-500人,杨浦区,本科,C轮,O2O,121.512935,31.307607,全职,5-10年
660,4421822,高级自动化测试工程师,北京,2018-04-14 13:32:01,28.0,365194,大都会资本,大都会资本有限公司,15-50人,朝阳区,本科,未融资,移动互联网 金融,116.45225,39.99382,全职,5-10年
661,4257165,自动化测试工程师（OS平台研发部）,上海,2018-04-28 10:15:45,19.0,126467,商米科技,上海商米科技有限公司,150-500人,杨浦区,本科,C轮,O2O,121.512935,31.307607,全职,3-5年
662,4420174,测试工程师（Web+APP+自动化）,北京,2018-04-17 09:28:10,10.8,6364,新华网,新华网股份有限公司,500-2000人,西城区,本科,上市公司,"移动互联网,文化娱乐",116.35983,39.900428,全职,不限
663,3904768,java开发转自动化测试,深圳,2018-04-26 13:23:13,8.4,74495,JETTECH,上海捷科智诚科技有限公司,500-2000人,南山区,本科,上市公司,"金融,其他",113.946832,22.544671,全职,不限
664,2835293,高级软件测试工程师（自动化）,深圳,2018-04-28 16:35:11,19.0,28834,Sunvalley,深圳市泽宝电子商务股份有限公司,500-2000人,龙岗区,本科,D轮及以上,电子商务,114.059238,22.604946,全职,5-10年
665,4343206,高级自动化测试工程师,上海,2018-04-26 14:14:29,17.0,33943,国凯英,上海国凯英计算机科技有限公司,15-50人,黄浦区,大专,未融资,数据服务,0.0,0.0,全职,3-5年
666,4108756,APP自动化测试工程师,上海,2018-04-26 19:23:14,24.8,270893,利杰轩,广州市利杰轩财税咨询有限公司,500-2000人,徐汇区,大专,不需要融资,"企业服务,移动互联网",121.472603,31.212884,全职,3-5年
667,4365883,初级自动化测试工程师（应届毕业生）,北京,2018-04-03 12:34:45,9.8,101211,易美健,易思互动（北京）科技有限公司,50-150人,海淀区,本科,A轮,"金融,医疗健康",116.341865,39.966298,全职,不限
668,4057338,高级自动化测试工程师,济南,2018-04-03 09:59:46,8.2,170925,云媒股份,山东云媒软件股份有限公司,150-500人,历下区,大专,上市公司,"移动互联网,O2O",117.054778,36.666809,全职,1-3年
669,4308846,通信软件自动化测试,上海,2018-04-24 10:57:12,10.8,286559,瞬联软件,瞬联软件科技（北京）有限公司上海分公司,500-2000人,浦东新区,本科,不需要融资,"移动互联网,其他",121.598177,31.204668,全职,应届毕业生
670,3867303,高级自动化测试工程师（北京）,北京,2018-04-27 17:43:53,21.0,51480,饿了么,拉扎斯网络科技（上海）有限公司,2000人以上,朝阳区,本科,D轮及以上,移动互联网,116.480085,39.986834,全职,3-5年
671,4440229,自动化软件测试实习生（上海）,上海,2018-04-18 11:15:45,5.4,349049,ADI,亚德诺半导体技术（上海）有限公司,2000人以上,浦东新区,硕士,上市公司,硬件,0.0,0.0,实习,应届毕业生
672,2487073,"性能测试,自动化测试 顾问",深圳,2018-04-07 10:39:07,13.6,149905,星航智能,深圳市星航智能科技发展有限公司,2000人以上,,大专,不需要融资,"信息安全,移动互联网",114.038747,22.63895,全职,3-5年
673,3429938,运维工程师（python自动化运维）,上海,2018-04-27 17:14:22,8.4,24995,泛微,上海泛微网络科技股份有限公司,2000人以上,闵行区,本科,上市公司,"移动互联网,企业服务",121.525236,31.080356,全职,1-3年
674,4096170,自动化测试工程师（服务器方向）,北京,2018-04-27 18:02:59,22.0,64220,海誉动想青岛（海马玩模拟器）,北京海誉动想科技有限公司青岛分公司,50-150人,朝阳区,大专,B轮,移动互联网,116.497961,39.975986,全职,3-5年
675,4428269,娱乐系统自动化测试开发工程师-上海,上海,2018-04-16 16:31:42,12.0,358008,上汽通用汽车有限公司,上汽通用汽车有限公司,2000人以上,浦东新区,本科,不需要融资,"分类信息,其他",121.634832,31.279751,全职,1-3年
676,4455076,自动化脚本工程师（Windows软件、Web网页）,北京,2018-04-20 11:12:59,19.0,368962,视觉互联,视觉互联（北京）网络科技有限公司,少于15人,朝阳区,本科,不需要融资,"企业服务,数据服务",116.494615,39.978416,全职,1-3年
677,4452946,IOS APP自动化测试工程师,广州,2018-04-27 14:04:48,19.0,42975,小鱼在家,北京小鱼儿网络科技有限公司,150-500人,天河区,本科,C轮,移动互联网,113.3612,23.12468,全职,1-3年
678,4452682,自动化测试工程师（web端）,深圳,2018-04-26 15:31:05,14.0,27228,TOMTOP,深圳市通拓科技有限公司,500-2000人,龙岗区,大专,C轮,电子商务,114.1229,22.679,全职,3-5年
679,3832555,python自动化运维 讲师,北京,2018-04-08 11:14:02,16.8,6040,慕课网,北京奥鹏远程教育中心有限公司,50-150人,海淀区,本科,不需要融资,"移动互联网,教育",116.314673,39.956947,兼职,3-5年
680,4321447,iOS自动化测试,北京,2018-04-25 16:51:43,14.0,418,世纪佳缘,上海花千树信息科技有限公司北京分公司,500-2000人,朝阳区,本科,上市公司,移动互联网,116.400542,39.967978,全职,1-3年
681,4396182,射频C#自动化测试,上海,2018-04-10 14:30:54,16.8,156748,Altenchina,欧立腾（北京）技术咨询有限公司上海分公司,2000人以上,浦东新区,本科,上市公司,"企业服务,其他",121.593389,31.326413,全职,3-5年
682,4467811,Test automation（自动化测试）,大连,2018-04-26 10:12:16,13.2,16831,武汉佰钧成技术有限公司,武汉佰钧成技术有限责任公司,2000人以上,高新园区,本科,不需要融资,移动互联网,0.0,0.0,全职,不限
683,3519999,自动化测试（Java语言）,上海,2018-04-11 15:03:11,21.0,143863,聚泛科技,上海聚泛信息科技有限公司,50-150人,徐汇区,本科,A轮,"金融,移动互联网",121.442914,31.172111,全职,1-3年
684,4225231,iOS高级开发工程师（办公自动化）,广州,2018-04-27 16:34:34,17.0,22790,网易游戏,广州博冠信息科技有限公司,2000人以上,天河区,本科,上市公司,游戏,113.321853,23.122696,全职,1-3年
685,4114976,自动化测试工程师（PB级大数据）-校招-00063,北京,2018-04-10 17:57:06,12.0,53081,日志易,北京优特捷信息技术有限公司,50-150人,朝阳区,本科,A轮,数据服务,116.479928,39.996968,全职,应届毕业生
686,4375068,【热招】：系统运维工程师（自动化）,深圳,2018-04-04 17:35:17,26.0,79086,网心科技,深圳市网心科技有限公司,150-500人,南山区,本科,未融资,"移动互联网,企业服务",113.993578,22.99368,全职,3-5年
687,3848093,python自动化测试,西安,2018-04-14 17:58:23,11.2,149331,麻花网络,西安麻花网络技术有限公司,150-500人,高新技术产业开发区,本科,不需要融资,"移动互联网,社交网络",108.840656,34.209171,全职,不限
688,4380766,高级Python工程师（爬虫、自动化方向）,北京,2018-04-08 12:00:11,14.0,93808,汇游,北京汇游科技有限公司,15-50人,朝阳区,本科,不需要融资,"移动互联网,旅游",116.416791,40.03133,全职,3-5年
689,4192330,自动化测试工程师（C#/Java),北京,2018-04-27 17:34:34,8.2,85685,亚创,亚创（上海）工程技术有限公司,150-500人,朝阳区,本科,不需要融资,"企业服务,硬件",116.485238,40.010211,全职,1-3年
690,4164577,Web前端高级开发工程师（办公自动化）,广州,2018-04-27 16:34:35,17.0,22790,网易游戏,广州博冠信息科技有限公司,2000人以上,天河区,本科,上市公司,游戏,113.321853,23.122696,全职,3-5年
691,4414255,资深Python工程师（爬虫/自动化运维方向）,北京,2018-04-12 18:58:21,24.0,211004,视觉互联,北京视觉互联科技有限公司,50-150人,朝阳区,本科,不需要融资,移动互联网,116.491198,39.977856,全职,3-5年
692,4127399,电子/电气自动化实习生,南京,2018-04-29 15:22:42,3.8,233304,燃网络,南京网燃网络科技有限公司,少于15人,秦淮区,大专,未融资,"移动互联网,游戏",118.788719,32.049374,全职,1年以下
693,4088625,电气及自动化工程师助理可实习,南京,2018-04-29 15:22:43,3.8,233304,燃网络,南京网燃网络科技有限公司,少于15人,秦淮区,大专,未融资,"移动互联网,游戏",118.788719,32.049374,全职,不限
694,4499716,自动化设备维修工程师,无锡,2018-04-29 15:22:42,4.8,233304,燃网络,南京网燃网络科技有限公司,少于15人,崇安区,大专,未融资,"移动互联网,游戏",120.307543,31.571228,全职,1年以下
695,4486012,自动化测试工程师助理（稳定高薪）,无锡,2018-04-30 15:00:49,4.8,233304,燃网络,南京网燃网络科技有限公司,少于15人,崇安区,大专,未融资,"移动互联网,游戏",120.307543,31.571228,全职,1年以下
696,3441105,爱立信初级中级自动化测试工程师,上海,2018-04-10 11:44:39,14.0,16831,武汉佰钧成技术有限公司,武汉佰钧成技术有限责任公司,2000人以上,长宁区,本科,不需要融资,移动互联网,121.354703,31.219114,全职,3-5年
697,4311906,中高级自动化测试工程师,上海,2018-04-10 11:44:40,28.0,16831,武汉佰钧成技术有限公司,武汉佰钧成技术有限责任公司,2000人以上,长宁区,本科,不需要融资,移动互联网,121.412331,31.209185,全职,5-10年
698,1509975,自动化测试,深圳,2018-04-27 10:10:39,14.0,35996,顺丰科技有限公司,顺丰科技有限公司,500-2000人,南山区,本科,不需要融资,"移动互联网,电子商务",113.937987,22.523392,全职,5-10年
699,4070103,自动化测试工程师,深圳,2018-04-27 14:33:40,21.0,35996,顺丰科技有限公司,顺丰科技有限公司,500-2000人,南山区,本科,不需要融资,"移动互联网,电子商务",113.937987,22.523392,全职,3-5年
700,3955308,办公自动化运维研发岗,深圳,2018-04-11 14:42:47,18.2,301344,招商金融科技,招商局金融科技有限公司,150-500人,南山区,本科,不需要融资,金融,113.912968,22.482034,全职,3-5年
