,职位编码,职位名称,所在城市,发布日期,薪资待遇(k),公司编码,公司名称,公司全称,公司规模,所在区域,最低学历,融资状态,公司类型,经度,纬度,全职/实习,工作经验
0,3183495,驱动开发,武汉,2018-04-23 15:41:09,14.0,16831,武汉佰钧成技术有限公司,武汉佰钧成技术有限责任公司,2000人以上,洪山区,本科,不需要融资,移动互联网,114.406936,30.478623,全职,3-5年
1,4387151,驱动开发工程师,杭州,2018-04-28 09:18:59,28.0,719,顺网科技,杭州顺网科技股份有限公司,500-2000人,西湖区,不限,上市公司,"游戏,文化娱乐",120.057035,30.286205,全职,3-5年
2,4008440,驱动开发工程师,上海,2018-04-28 11:14:03,21.0,103828,比领网络,上海比领网络科技有限公司,50-150人,徐汇区,本科,天使轮,"移动互联网,信息安全",0.0,0.0,全职,1-3年
3,4492535,驱动开发工程师,成都,2018-04-27 11:31:55,8.2,142626,CLPS,上海华钦信息科技股份有限公司,500-2000人,高新区,本科,未融资,"数据服务,金融",104.071493,30.539235,全职,1-3年
4,2995600,驱动开发,厦门,2018-04-23 10:07:04,19.0,53336,米冠网络,厦门米冠网络科技有限公司,50-150人,思明区,本科,不需要融资,"移动互联网,电子商务",,,全职,1-3年
5,1934971,驱动开发,深圳,2018-04-28 10:04:28,14.0,128547,超节点,超节点创新科技（深圳）有限公司,15-50人,南山区,本科,不需要融资,"硬件,其他",113.950928,22.57625199,全职,1-3年
6,4085226,软件工程师---通讯驱动开发,广州,2018-04-28 09:45:17,19.0,38655,白云电气,白云电气集团有限公司,2000人以上,白云区,本科,上市公司,企业服务,113.3353,23.29826,全职,3-5年
7,4363556,驱动开发,成都,2018-04-08 17:44:31,19.0,60135,华为技术,华为技术有限公司IT产品线,2000人以上,郫县,硕士,不需要融资,数据服务,103.895121,30.764941,全职,3-5年
8,4087914,驱动开发工程师,北京,2018-04-26 15:57:59,21.0,26557,锤子科技,锤子科技（北京）股份有限公司,500-2000人,朝阳区,本科,B轮,"移动互联网,硬件",116.479423,40.012226,全职,不限
9,3514262,Linux 内核/驱动开发工程师,长沙,2018-04-27 17:15:16,12.0,171591,天津麒麟,天津麒麟信息技术有限公司,150-500人,开福区,本科,不需要融资,"移动互联网,信息安全",112.996765,28.229219,全职,1-3年
10,4459515,电机驱动开发工程师,杭州,2018-04-25 12:21:18,21.0,135867,北京金网华威科技有限公司,北京金网华威科技有限公司,500-2000人,余杭区,本科,上市公司,其他,120.031071,30.242508,全职,3-5年
11,4126092,嵌入式/驱动开发工程师,北京,2018-04-28 16:45:22,19.0,141309,讯飞幻境,讯飞幻境（北京）科技有限公司,50-150人,海淀区,大专,A轮,教育,116.269931,40.048636,全职,3-5年
12,4402945,驱动开发工程师,深圳,2018-04-25 13:42:44,14.0,72405,仝安,深圳仝安技术有限公司,少于15人,龙华新区,本科,天使轮,移动互联网,114.046177,22.600929,全职,5-10年
13,4478884,驱动开发工程师,杭州,2018-04-25 11:37:36,28.0,176123,网足科技,杭州网足科技有限公司,15-50人,滨江区,不限,天使轮,"企业服务,数据服务",120.138631,30.186537,全职,3-5年
14,3749970,驱动开发工程师/软件研发工程师,武汉,2018-04-23 14:22:34,14.0,70964,九博科技,广东九博电子科技有限公司,150-500人,洪山区,大专,不需要融资,"信息安全,硬件",114.429976,30.504879,全职,应届毕业生
15,3507299,底层驱动开发,武汉,2018-04-28 09:28:07,10.8,16831,武汉佰钧成技术有限公司,武汉佰钧成技术有限责任公司,2000人以上,东湖新技术开发区,本科,不需要融资,移动互联网,114.408157,30.477419,全职,3-5年
16,4426942,驱动开发工程师,深圳,2018-04-16 15:04:30,13.2,366862,恒扬数据,深圳市恒扬数据股份有限公司,150-500人,南山区,不限,上市公司,其他,113.939885,22.522782,全职,1年以下
17,4397328,电机驱动开发工程师,深圳,2018-04-23 11:45:09,12.0,361574,三分之一有限公司,深圳市三分之一睡眠科技有限公司,50-150人,南山区,本科,不需要融资,"医疗健康,硬件",113.965496,22.571039,全职,3-5年
18,1194094,Linux--驱动开发,成都,2018-04-17 16:43:28,9.8,97878,成都万创,成都万创科技有限责任公司,50-150人,武侯区,本科,上市公司,"移动互联网,硬件",103.98592536,30.63141743,全职,1-3年
19,4092033,高级驱动开发工程师,北京,2018-04-27 10:11:29,26.0,1650,联想集团,联想（北京）有限公司,2000人以上,海淀区,本科,上市公司,"移动互联网,数据服务",116.273572,40.046061,全职,3-5年
20,4359508,BSP/底层驱动开发工程师,深圳,2018-04-02 13:48:13,17.0,12121,盛世辉智控,北京盛世辉科技有限公司,15-50人,南山区,本科,天使轮,"移动互联网,数据服务",113.948984,22.534043,全职,1-3年
21,4469765,高级驱动开发工程师（总部）,深圳,2018-04-24 10:02:26,12.6,73639,证通电子,深圳市证通电子股份有限公司,500-2000人,光明新区,本科,上市公司,信息安全,0.0,0.0,全职,3-5年
22,4238615,驱动开发工程师,深圳,2018-04-20 09:59:53,14.0,338822,益光科技,深圳市益光科技有限公司,150-500人,宝安区,大专,未融资,"生活服务,硬件",113.832112,22.665654,全职,1-3年
23,3570158,软件驱动开发工程师,深圳,2018-04-23 18:26:15,22.0,180131,科思科技,深圳市科思科技股份有限公司,150-500人,南山区,本科,不需要融资,"硬件,移动互联网",113.950781,22.555537,全职,3-5年
24,3809682,汽车电子驱动开发,上海,2018-04-19 16:26:46,14.0,99990,上海宝宏,上海宝宏软件有限公司,150-500人,嘉定区,本科,未融资,"企业服务,其他",121.252745,31.381755,全职,1-3年
25,3513056,Android系统&amp;驱动开发工程师（POS机）,深圳,2018-04-27 14:55:00,21.0,85948,Justtide,深圳市九思泰达技术有限公司,150-500人,南山区,本科,不需要融资,信息安全,113.94924,22.534373,全职,3-5年
26,4287633,高速网卡驱动开发-Linux,杭州,2018-04-11 15:45:07,20.8,346588,Raymax,浙江锐文科技有限公司,15-50人,余杭区,本科,天使轮,"信息安全,硬件",,,全职,3-5年
27,3864295,音频驱动开发工程师,北京,2018-04-26 15:09:19,24.0,26557,锤子科技,锤子科技（北京）股份有限公司,500-2000人,朝阳区,本科,B轮,"移动互联网,硬件",116.479423,40.012226,全职,不限
28,4474253,硬件工程师-硬件驱动开发方向,厦门,2018-04-24 16:13:18,9.8,23905,美亚柏科,厦门市美亚柏科信息股份有限公司,2000人以上,思明区,本科,上市公司,"信息安全,数据服务",0.0,0.0,全职,1-3年
29,4358965,钉钉(Dingtalk)-固件驱动开发专家-硬件技,杭州,2018-04-02 11:54:00,42.0,285786,淘宝,淘宝（中国）软件有限公司,2000人以上,余杭区,本科,上市公司,"电子商务,移动互联网",120.299402,30.419045,全职,5-10年
30,3914351,驱动开发,武汉,2018-04-10 09:35:38,11.2,16831,武汉佰钧成技术有限公司,武汉佰钧成技术有限责任公司,2000人以上,东湖新技术开发区,本科,不需要融资,移动互联网,114.537997,30.494336,全职,不限
31,4474201,高级Camera驱动开发工程师,北京,2018-04-27 17:43:06,21.0,72546,Pico VR （小鸟看看）,北京小鸟看看科技有限公司,150-500人,海淀区,本科,不需要融资,"硬件,其他",116.352004,39.985809,全职,3-5年
32,4333379,驱动开发工程师（Camera模块）,深圳,2018-04-23 10:17:28,25.2,23291,美图公司,厦门美图之家科技有限公司,500-2000人,南山区,本科,上市公司,"移动互联网,硬件",113.951672,22.540834,全职,3-5年
33,4004593,Linux驱动开发工程师,北京,2018-04-26 11:13:25,19.0,21190,深思数盾,北京深思数盾科技股份有限公司,50-150人,海淀区,本科,不需要融资,"信息安全,移动互联网",116.280017,40.047522,全职,3-5年
34,4261611,Linux驱动开发工程师,深圳,2018-04-28 17:47:53,19.0,168101,CTAccel联捷科技,联捷计算科技（深圳）有限公司,50-150人,福田区,本科,A轮,"移动互联网,数据服务",114.062476,22.534205,全职,3-5年
35,3826103,linux驱动开发工程师,西安,2018-04-27 15:35:27,11.4,36760,Nova科技,西安诺瓦电子科技有限公司,500-2000人,高新技术产业开发区,本科,未融资,"硬件,数据服务",108.993463,33.994053,全职,3-5年
36,4180638,linux 内核/驱动开发 （车机安全方向）,北京,2018-04-04 10:58:04,28.0,87977,车和家,北京车和家信息技术有限责任公司,500-2000人,朝阳区,本科,B轮,其他,116.505042,40.006274,全职,不限
37,3916601,DSP驱动开发工程师,北京,2018-04-27 16:24:24,26.0,50604,roobo,北京智能管家科技有限公司,150-500人,东城区,本科,B轮,移动互联网,116.433221,39.920718,全职,3-5年
38,3751213,Linux 驱动开发工程师,武汉,2018-04-28 10:16:29,9.0,14093,瞬联软件科技（北京）有限公司,瞬联软件科技（北京）有限公司,500-2000人,洪山区,大专,不需要融资,"移动互联网 ,企业服务",114.40676,30.477134,全职,不限
39,3593072,linux系统驱动开发工程师,上海,2018-04-28 15:45:35,19.0,143428,云知声,北京云知声信息技术有限公司,150-500人,徐汇区,本科,C轮,移动互联网,121.404636,31.172869,全职,3-5年
40,4441011,Linux底层驱动开发工程师,惠州,2018-04-18 12:16:01,9.8,221266,德赛西威,惠州市德赛西威汽车电子股份有限公司,2000人以上,惠城区,本科,上市公司,"硬件,其他",114.346003,23.044989,全职,1-3年
41,3915224,Windows驱动开发工程师,哈尔滨,2018-04-23 19:25:48,7.2,38414,安天,哈尔滨安天科技股份有限公司,500-2000人,松北区,不限,未融资,信息安全,126.512155,45.798207,全职,1-3年
42,1417384,嵌入式驱动开发工程师,上海,2018-04-28 16:33:40,23.6,42899,小蚁,上海小蚁科技有限公司,150-500人,浦东新区,本科,C轮,"移动互联网,硬件",116.33346224,40.02762128,全职,3-5年
43,4238165,Linux驱动开发工程师,深圳,2018-04-27 14:24:18,21.0,25576,团贷网,广东俊特团贷网络信息服务股份有限公司,2000人以上,南山区,大专,C轮,"移动互联网,金融",113.950586,22.554548,全职,3-5年
44,4250309,camera驱动开发工程师,上海,2018-03-30 09:28:13,12.0,200108,中科航天,中科航天（北京）科技有限公司,50-150人,浦东新区,本科,未融资,"移动互联网,教育",121.597651,31.210955,全职,1-3年
45,1172380,底层驱动开发工程师,武汉,2018-04-30 13:46:53,11.2,16831,武汉佰钧成技术有限公司,武汉佰钧成技术有限责任公司,2000人以上,东湖新技术开发区,本科,不需要融资,移动互联网,114.41634765,30.49348465,全职,不限
46,4115990,驱动开发工程师（Camera模块）,深圳,2018-04-17 09:41:26,21.0,23291,美图公司,厦门美图之家科技有限公司,500-2000人,南山区,本科,上市公司,"移动互联网,硬件",113.951672,22.540834,全职,3-5年
47,4117276,Windows驱动开发工程师,哈尔滨,2018-04-23 10:05:52,6.8,38414,安天,哈尔滨安天科技股份有限公司,500-2000人,松北区,本科,未融资,信息安全,126.512372,45.797877,全职,不限
48,4309243,Windows 驱动开发工程师,北京,2018-04-23 18:51:37,14.0,128271,彩量科技,北京新彩量科技有限公司,50-150人,朝阳区,不限,不需要融资,移动互联网,116.479717,39.995024,全职,1-3年
49,4029268,安卓驱动开发工程师,深圳,2018-04-28 10:15:45,21.0,126467,商米科技,上海商米科技有限公司,150-500人,南山区,本科,C轮,O2O,113.94167,22.554075,全职,5-10年
50,4238755,Linux驱动开发工程师,深圳,2018-04-26 09:51:04,14.0,797,乐刷,深圳市移卡科技有限公司,150-500人,南山区,本科,B轮,移动互联网,0.0,0.0,全职,3-5年
51,4266136,Windows驱动开发,长沙,2018-04-24 19:26:47,24.0,182070,深信服科技集团,深信服科技股份有限公司,2000人以上,岳麓区,本科,不需要融资,"信息安全,企业服务",112.882387,28.206857,全职,3-5年
52,4449187,android 驱动开发工程师,杭州,2018-04-27 14:46:33,19.0,34315,涂鸦智能,杭州涂鸦信息技术有限公司,150-500人,西湖区,本科,B轮,"移动互联网,硬件",119.993591,29.993662,全职,3-5年
53,4454677,windows 驱动开发,北京,2018-04-28 13:52:59,28.0,150885,微步在线,北京微步在线科技有限公司,50-150人,海淀区,本科,B轮,信息安全,0.0,0.0,全职,3-5年
54,4374652,Windows驱动开发,长沙,2018-04-04 16:57:04,14.4,224456,湖南南澳,湖南南澳网络科技有限公司,50-150人,岳麓区,大专,不需要融资,移动互联网,112.891976,28.213617,全职,1-3年
55,4236858,windows驱动开发工程师,南京,2018-04-23 14:11:22,5.6,330779,BEEPRT,南京蜂之云信息科技有限公司,15-50人,鼓楼区,本科,不需要融资,"移动互联网,硬件",118.801062,32.120111,全职,1-3年
56,4140421,bsp驱动开发工程师,西安,2018-04-24 10:39:07,14.0,131936,万像电子,西安万像电子科技有限公司,150-500人,高新技术产业开发区,本科,不需要融资,"硬件,其他",108.885423,34.187026,全职,3-5年
57,3935201,Android驱动开发高级工程师/专家,广州,2018-04-29 19:20:49,28.0,254799,小鹏汽车,广州小鹏汽车科技有限公司,150-500人,黄埔区,本科,A轮,"移动互联网,硬件",113.496556,23.153887,全职,5-10年
58,3603385,嵌入式驱动开发工程师,北京,2018-04-27 10:11:29,21.0,1650,联想集团,联想（北京）有限公司,2000人以上,海淀区,本科,上市公司,"移动互联网,数据服务",116.29846,40.0534,全职,3-5年
59,3771762,Andriod 驱动开发工程师,西安,2018-04-27 15:35:28,12.0,36760,Nova科技,西安诺瓦电子科技有限公司,500-2000人,高新技术产业开发区,本科,未融资,"硬件,数据服务",108.993463,33.994053,全职,3-5年
60,3531302,驱动开发工程师,武汉,2018-04-27 14:40:57,11.2,16831,武汉佰钧成技术有限公司,武汉佰钧成技术有限责任公司,2000人以上,江夏区,本科,不需要融资,移动互联网,114.53759,30.4905,全职,3-5年
61,4439168,linux 驱动开发,北京,2018-04-23 16:17:56,15.0,36631,企顺,上海企顺信息系统有限公司,150-500人,海淀区,本科,未融资,企业服务,116.331252,39.993553,全职,3-5年
62,3636808,Android 内核驱动开发工程师,北京,2018-04-28 12:29:53,26.0,18165,新东方教育行业研究院,北京点石经纬科技有限公司,150-500人,海淀区,本科,B轮,"移动互联网,教育",116.312696,39.980267,全职,5-10年
63,4350276,Linux驱动开发工程师,武汉,2018-03-30 10:45:57,12.0,263751,武汉南斗六星系统集成有限公司,武汉南斗六星系统集成有限公司,150-500人,武汉经济技术开发区,本科,不需要融资,"数据服务,企业服务",114.202712,30.503729,全职,3-5年
64,4455184,Android驱动开发工程师,深圳,2018-04-25 19:56:38,28.0,6927,OPPO,广东欧珀移动通信有限公司,2000人以上,南山区,本科,不需要融资,移动互联网,113.943044,22.518785,全职,3-5年
65,4480703,安卓驱动开发,珠海,2018-04-25 15:11:57,12.8,192713,深圳前海黑鲸科技有限公司,深圳前海黑鲸科技有限公司,15-50人,香洲区,本科,A轮,"硬件,数据服务",0.0,0.0,全职,1-3年
66,4383639,Android驱动开发工程师,东莞,2018-04-08 17:02:41,21.0,353834,小黄狗环保科技有限公司,小黄狗环保科技有限公司,2000人以上,东莞市市辖区,大专,D轮及以上,"移动互联网,生活服务",0.0,0.0,全职,3-5年
67,2860868,嵌入式驱动开发工程师 (北京),北京,2018-04-28 08:00:56,10.8,53268,妙微科技,北京妙微科技有限公司,15-50人,朝阳区,本科,天使轮,"移动互联网,其他",116.47378,40.012684,全职,3-5年
68,1418054,嵌入式驱动开发工程师,上海,2018-04-08 09:39:52,12.0,106799,上海协同科技股份有限公司,上海协同科技股份有限公司,150-500人,普陀区,本科,不需要融资,"数据服务,硬件",121.41638295,31.2433947,全职,3-5年
69,4428612,android驱动开发工程师助理,武汉,2018-04-16 16:54:05,3.8,343296,粤嵌科技,广州粤嵌通信科技股份有限公司武汉分公司,150-500人,洪山区,不限,上市公司,企业服务,114.355287,30.526426,全职,应届毕业生
70,4065116,C++嵌入式驱动开发工程师,深圳,2018-04-27 09:21:59,17.0,33195,博为教育,深圳博为教育科技有限公司,50-150人,南山区,本科,B轮,"移动互联网,教育",113.950859,22.555593,全职,3-5年
71,4439460,嵌入式驱动开发,杭州,2018-04-18 10:26:01,6.4,18749,东信,东方通信股份有限公司,2000人以上,滨江区,本科,上市公司,硬件,120.14494,30.17631,全职,1年以下
72,1567847,嵌入式硬件驱动开发工程师,重庆,2018-04-23 15:31:57,7.6,48808,速位,重庆速占位科技有限公司,50-150人,渝中区,不限,A轮,"移动互联网,硬件",106.580833,29.559059,全职,不限
73,4407080,嵌入式驱动开发工程师,北京,2018-04-11 19:32:12,26.0,188322,风云众成,北京风云众成科技有限公司,15-50人,昌平区,本科,不需要融资,移动互联网,116.414919,40.068469,全职,3-5年
74,4352366,安卓驱动开发,南京,2018-03-30 14:54:35,14.0,355836,landmore,南京蓝摩科技有限公司,150-500人,栖霞区,本科,未融资,其他,118.906129,32.123765,全职,1-3年
75,2987823,手机驱动开发,武汉,2018-04-20 18:35:35,12.6,16831,武汉佰钧成技术有限公司,武汉佰钧成技术有限责任公司,2000人以上,东湖新技术开发区,本科,不需要融资,移动互联网,114.407233,30.478822,全职,3-5年
76,2662621,Android驱动开发工程师,深圳,2018-04-25 19:56:39,21.0,6927,OPPO,广东欧珀移动通信有限公司,2000人以上,南山区,本科,不需要融资,移动互联网,113.943044,22.518792,全职,3-5年
77,4106995,嵌入式软件开发实习生（驱动开发方向）,杭州,2018-04-09 11:34:29,3.4,329,网易,网易（杭州）有限公司,2000人以上,滨江区,本科,上市公司,"电子商务,移动互联网",120.190729,30.187795,实习,应届毕业生
78,4347433,Windows驱动开发工程师,北京,2018-04-19 09:52:53,17.8,81435,优炫软件,北京优炫软件股份有限公司,150-500人,海淀区,本科,上市公司,"企业服务,信息安全",116.348748,39.975866,全职,1-3年
79,4309665,安卓驱动开发工程师,上海,2018-04-27 15:20:14,28.0,126467,商米科技,上海商米科技有限公司,150-500人,杨浦区,本科,C轮,O2O,121.512935,31.307607,全职,5-10年
80,3797829,资深嵌入式驱动开发工程师（OTT）,上海,2018-04-23 17:22:41,17.0,17291,PPTV聚力,上海聚力传媒技术有限公司,500-2000人,浦东新区,大专,D轮及以上,文化娱乐,121.583487,31.199996,全职,5-10年
81,4186247,安卓驱动开发工程师,深圳,2018-04-28 09:05:51,13.2,647,三三得玖,深圳市三三得玖通信技术有限公司,150-500人,南山区,本科,B轮,"移动互联网,企业服务",113.942458,22.55038,全职,1-3年
82,3979372,Android驱动开发工程师,厦门,2018-03-31 11:48:36,12.0,305640,厦门雅迅,厦门雅迅网络股份有限公司,500-2000人,思明区,本科,未融资,"移动互联网,数据服务",118.187156,24.483861,全职,应届毕业生
83,4406060,Android驱动开发工程师,深圳,2018-04-27 09:35:07,16.8,322508,光启集团,深圳光启超材料技术有限公司,500-2000人,南山区,本科,上市公司,"数据服务,硬件",113.937833,22.522872,全职,3-5年
84,4400490,初级驱动开发工程师（linux C/C++）,武汉,2018-04-23 09:25:26,7.0,74116,诚迈科技,诚迈科技（南京）股份有限公司-广州研发中心,2000人以上,东湖新技术开发区,本科,上市公司,移动互联网,114.538478,30.489386,全职,1年以下
85,944405,Android驱动开发工程师,成都,2018-04-04 11:26:36,9.8,43275,TCL通讯科技（成都）有限公司,TCL通讯科技（成都）有限公司,150-500人,高新区,本科,上市公司,"移动互联网,硬件",104.07269967,30.53957685,全职,3-5年
86,3507119,QT软件工程师/Linux驱动开发（医疗器械）,深圳,2018-04-16 13:58:13,15.2,246544,普康电子,深圳市普康电子有限公司,50-150人,宝安区,本科,不需要融资,医疗健康,113.886035,22.596894,全职,1-3年
87,4422742,Android嵌入式系统底层驱动开发工程师,深圳,2018-04-27 20:21:09,19.0,320727,赛点公司,深圳市赛点投资有限公司,50-150人,南山区,不限,A轮,"企业服务,硬件",113.992977,22.589488,全职,3-5年
88,4290840,linux驱动开发工程师,武汉,2018-04-30 13:46:53,9.8,16831,武汉佰钧成技术有限公司,武汉佰钧成技术有限责任公司,2000人以上,东湖新技术开发区,本科,不需要融资,移动互联网,114.541465,30.48937,全职,不限
89,4277364,linux驱动开发工程师,深圳,2018-04-26 08:37:33,9.8,16831,武汉佰钧成技术有限公司,武汉佰钧成技术有限责任公司,2000人以上,龙岗区,本科,不需要融资,移动互联网,,,全职,3-5年
90,3027129,中级Linux驱动开发,武汉,2018-04-22 12:59:13,12.0,16831,武汉佰钧成技术有限公司,武汉佰钧成技术有限责任公司,2000人以上,东湖新技术开发区,本科,不需要融资,移动互联网,114.538458,30.489425,全职,3-5年
91,4319855,Linux驱动开发,深圳,2018-04-22 19:28:22,11.2,16831,武汉佰钧成技术有限公司,武汉佰钧成技术有限责任公司,2000人以上,龙岗区,本科,不需要融资,移动互联网,0.0,0.0,全职,3-5年
92,4481870,安卓驱动开发工程师,西安,2018-04-28 14:24:40,15.2,16831,武汉佰钧成技术有限公司,武汉佰钧成技术有限责任公司,2000人以上,高新技术产业开发区,本科,不需要融资,移动互联网,0.0,0.0,全职,3-5年
93,4459304,Android音频驱动开发工程师,深圳,2018-04-25 19:56:39,28.0,6927,OPPO,广东欧珀移动通信有限公司,2000人以上,南山区,本科,不需要融资,移动互联网,113.943044,22.518785,全职,3-5年
94,4406096,Android驱动开发工程师,西安,2018-04-27 09:35:06,16.8,322508,光启集团,深圳光启超材料技术有限公司,500-2000人,高新技术产业开发区,本科,上市公司,"数据服务,硬件",108.837036,34.20777,全职,3-5年
