,职位编码,职位名称,所在城市,发布日期,薪资待遇(k),公司编码,公司名称,公司全称,公司规模,所在区域,最低学历,融资状态,公司类型,经度,纬度,全职/实习,工作经验,吸引条件
0,4426886,Flash设计师,广州,2018-04-28 14:16:39,6.4,271701,贪玩游戏,江西贪玩信息技术有限公司广州分公司,500-2000人,天河区,大专,D轮及以上,游戏,113.368584,23.113076,全职,应届毕业生,"['带薪年假', '定期体检', '年度旅游', '五险一金']"
1,2792375,Flash开发工程师,上海,2018-04-28 09:51:02,8.0,14983,游族网络,上海游族信息技术有限公司,500-2000人,徐汇区,本科,上市公司,"移动互联网,游戏",39.897445,116.331398,全职,1-3年,"['五险一金', '岗位晋升', '弹性工作', '扁平管理']"
2,1190162,Flash设计师,厦门,2018-04-28 09:26:23,6.2,26742,趣游（厦门）科技有限公司,趣游（厦门）科技有限公司,150-500人,湖里区,本科,不需要融资,移动互联网,118.15669643,24.52427144,全职,不限,"['绩效奖金', '年底双薪', '五险一金', '带薪年假']"
3,4466745,Flash开发工程师,北京,2018-04-23 16:26:09,17.2,280,畅游,北京畅游天下网络技术有限公司,2000人以上,石景山区,大专,上市公司,"移动互联网,游戏",116.205484,39.909728,全职,1-3年,"['节日礼物', '技能培训', '带薪年假', '岗位晋升']"
4,3519693,Flash设计,北京,2018-04-27 11:19:34,5.6,219965,青果灵动,北京青果灵动科技股份有限公司,150-500人,朝阳区,不限,不需要融资,游戏,116.538389,39.913014,全职,不限,"['专项奖金', '带薪年假', '年终分红', '定期体检']"
5,4068801,Flash开发工程师,杭州,2018-04-28 11:52:33,18.2,114739,游卡桌游,杭州游卡网络技术有限公司,500-2000人,西湖区,大专,不需要融资,"游戏,移动互联网",120.116811,30.290398,全职,3-5年,"['品牌IP', '福利健全', '稳定平台', '创业文化']"
6,3707796,flash设计师,北京,2018-04-28 12:08:35,5.8,150256,思享时代（北京）科技有限公司,思享时代（北京）科技有限公司,150-500人,朝阳区,本科,不需要融资,"移动互联网,社交网络",116.41135,39.969418,全职,不限,"['国内外旅行', '水果下午茶', '8天带薪假期', '免费自助晚餐']"
7,3995499,flash开发工程师,上海,2018-04-26 15:12:13,17.0,232470,上海傲梦网络科技有限公司,上海傲梦网络科技有限公司,150-500人,长宁区,不限,B轮,教育,121.359916,31.220034,全职,3-5年,"['绩效奖金', '带薪年假', '弹性工作', '帅哥多']"
8,2785975,flash实习,北京,2018-04-29 11:18:41,3.4,5706,洋葱数学,光合新知（北京）科技有限公司,150-500人,朝阳区,大专,C轮,"移动互联网,教育",116.500139,39.991999,实习,应届毕业生,"['产品领先行业', '关注学习本源', '明星跨界团队', '股票期权']"
9,2997151,高级flash开发,北京,2018-04-29 00:05:04,21.0,107435,熊猫直播,上海熊猫互娱文化有限公司北京分公司,500-2000人,朝阳区,本科,未融资,"移动互联网,文化娱乐",116.48016,39.9969,全职,3-5年,"['年底双薪', '带薪年假', '午餐补助', '绩效奖金']"
10,3818726,Flash动画师,北京,2018-05-01 10:45:59,7.0,28795,汽车头条,北京智阅网络科技有限公司,150-500人,朝阳区,本科,上市公司,"移动互联网,文化娱乐",116.496602,39.960579,全职,1-3年,"['绩效奖金', '年终分红', '专项奖金', '五险一金']"
11,3546867,Flash设计师,广州,2018-04-25 10:39:18,5.6,589,多益网络,广州多益网络股份有限公司,500-2000人,萝岗区,不限,不需要融资,"移动互联网,游戏",113.505122,23.161058,全职,不限,"['扁平化管理', '现象级产品']"
12,2618284,Flash动画师,成都,2018-04-26 09:13:26,5.6,4178,凯奇谷,北京凯奇谷信息技术股份有限公司,150-500人,高新区,不限,上市公司,"移动互联网,游戏",104.048199,30.585378,全职,不限,"['技能培训', '股票期权', '年度旅游', '岗位晋升']"
13,3804084,Flash动画开发工程师,西安,2018-04-26 09:08:45,4.8,35691,博导前程,北京博导前程信息技术有限公司,150-500人,高新技术产业开发区,大专,上市公司,"电子商务,教育",108.885527,34.187259,全职,1-3年,"['年底双薪', '绩效奖金', '带薪年假', '通讯津贴']"
14,4204917,flash动画师,上海,2018-04-28 15:54:39,6.2,64177,飞碟说,飞碟视界传媒科技（上海）有限公司,50-150人,闵行区,大专,B轮,"移动互联网,文化娱乐",121.270094,31.215457,全职,不限,"['节日礼物', '年度旅游', '每天水果', '免费班车']"
15,4178023,Flash/Ui特效师,厦门,2018-04-28 17:58:45,7.0,26742,趣游（厦门）科技有限公司,趣游（厦门）科技有限公司,150-500人,湖里区,不限,不需要融资,移动互联网,118.156696,24.524271,全职,不限,"['绩效奖金', '年底双薪', '五险一金', '带薪年假']"
16,4388183,Flash AS3开发,上海,2018-04-28 09:51:01,14.4,14983,游族网络,上海游族信息技术有限公司,500-2000人,徐汇区,不限,上市公司,"移动互联网,游戏",39.897445,116.331398,全职,1-3年,"['五险一金', '岗位晋升', '弹性工作', '扁平管理']"
17,4114516,Flash实习生,北京,2018-04-27 17:33:43,2.8,5706,洋葱数学,光合新知（北京）科技有限公司,150-500人,朝阳区,不限,C轮,"移动互联网,教育",116.501588,39.99314,实习,应届毕业生,"['产品领先行业', '关注学习本源', '明星跨界团队', '股票期权']"
18,2229958,Flash动画师,北京,2018-04-30 17:53:16,7.0,4178,凯奇谷,北京凯奇谷信息技术股份有限公司,150-500人,朝阳区,不限,上市公司,"移动互联网,游戏",116.462495,39.900399,全职,不限,"['技能培训', '股票期权', '年度旅游', '岗位晋升']"
19,1132401,Flash设计师,广州,2018-04-24 10:30:53,3.8,60828,原创动力,广东原创动力文化传播有限公司,150-500人,越秀区,不限,不需要融资,文化娱乐,113.2965375,23.14255793,全职,不限,"['节日礼物', '技能培训', '带薪年假', '年度旅游']"
20,4482348,Flash设计 实习生,无锡,2018-04-30 15:37:44,4.8,233304,燃网络,南京网燃网络科技有限公司,少于15人,崇安区,大专,未融资,"移动互联网,游戏",120.307543,31.571228,全职,1年以下,[]
21,2972395,Flash设计师,杭州,2018-04-24 14:19:29,5.6,56938,超级课堂,杭州秀铂网络科技有限公司,150-500人,西湖区,大专,A轮,"移动互联网,教育",119.993591,29.993662,全职,不限,"['技能培训', '绩效奖金', '年度旅游', '岗位晋升']"
22,4476869,Flash动画师,杭州,2018-04-26 11:03:23,6.2,38306,阿拉丁信息科技,浙江阿拉丁电子商务股份有限公司,150-500人,拱墅区,本科,上市公司,移动互联网,120.111605,30.334787,全职,1-3年,"['技能培训', '节日礼物', '带薪年假', '绩效奖金']"
23,3766912,flash动画师,北京,2018-04-28 08:54:56,6.2,37986,世纪超星,北京世纪超星信息技术发展有限责任公司,2000人以上,海淀区,本科,不需要融资,教育、移动互联网,116.312542,40.039356,全职,不限,"['年底双薪', '专项奖金', '带薪年假', '绩效奖金']"
24,3761156,flash AS3客户端开发工程师,上海,2018-04-28 15:01:13,13.2,171640,实牛信息技术,上海实牛信息技术服务有限公司,15-50人,浦东新区,大专,不需要融资,移动互联网,121.525186,31.214557,全职,1-3年,[]
25,4397064,flash动画师,郑州,2018-04-12 09:15:56,4.2,50984,咿啦看书,郑州点读电子科技有限公司,150-500人,高新区,大专,A轮,"移动互联网,电子商务",113.599683,34.797065,全职,1-3年,"['氛围好', '充满童趣', '带薪年假', '岗位晋升']"
26,3703325,Flash动画师,广州,2018-04-27 14:36:49,4.8,125157,晓教育,广东世纪晓教育科技有限公司,2000人以上,天河区,大专,不需要融资,教育,113.333955,23.133699,全职,1-3年,"['五险一金', '丰厚薪酬', '配股分红', '免息贷款']"
27,2945933,FLASH开发工程师,广州,2018-04-19 16:18:12,15.2,177725,卓睿网络,广州市卓睿网络科技有限公司,50-150人,天河区,大专,不需要融资,"移动互联网,企业服务",113.32004,23.126948,全职,1-3年,[]
28,4451392,NAND Flash固件工程师,厦门,2018-04-19 16:37:44,12.0,369448,鑫忆讯,厦门鑫忆讯科技有限公司,15-50人,海沧区,本科,天使轮,移动互联网,118.080764,24.4601,全职,1-3年,"['""""']"
29,4046690,flash动画师,厦门,2018-04-28 17:47:15,11.2,9251,美柚,厦门美柚信息科技有限公司,500-2000人,思明区,本科,D轮及以上,移动互联网,118.17884,24.48956,全职,1-3年,"['绩效奖金', '股票期权', '年底双薪', '专项奖金']"
30,3153785,Flash页游主程（AS3主程）,上海,2018-04-28 09:51:04,27.0,14983,游族网络,上海游族信息技术有限公司,500-2000人,徐汇区,不限,上市公司,"移动互联网,游戏",39.897445,116.331398,全职,5-10年,"['五险一金', '岗位晋升', '弹性工作', '扁平管理']"
31,3920723,flash动画师,郑州,2018-04-11 09:52:54,4.2,50984,咿啦看书,郑州点读电子科技有限公司,150-500人,高新区,大专,A轮,"移动互联网,电子商务",113.599683,34.797065,全职,1-3年,"['氛围好', '充满童趣', '带薪年假', '岗位晋升']"
32,4436370,Flash动画师,杭州,2018-04-25 15:43:25,5.4,38306,阿拉丁信息科技,浙江阿拉丁电子商务股份有限公司,150-500人,拱墅区,大专,上市公司,移动互联网,120.111971,30.334812,全职,不限,"['技能培训', '节日礼物', '带薪年假', '绩效奖金']"
33,1002606,flash动画设计师,北京,2018-04-29 11:18:40,8.4,5706,洋葱数学,光合新知（北京）科技有限公司,150-500人,朝阳区,不限,C轮,"移动互联网,教育",116.500139,39.991999,全职,1-3年,"['产品领先行业', '关注学习本源', '明星跨界团队', '股票期权']"
34,4482390,flash动画师实习/设计助理,无锡,2018-04-30 15:00:49,4.8,233304,燃网络,南京网燃网络科技有限公司,少于15人,崇安区,大专,未融资,"移动互联网,游戏",120.307543,31.571228,全职,1年以下,[]
35,2262676,Flash动画师,广州,2018-04-28 18:33:00,3.8,115284,嗨小冷,广州疏格广告有限公司,15-50人,天河区,大专,不需要融资,"文化娱乐,广告营销",113.37243999,23.1233,全职,1-3年,"['年底双薪', '绩效奖金', '带薪年假', '帅哥多']"
36,4434649,Flash游戏开发工程师,深圳,2018-04-25 10:23:06,28.0,34660,云趣网络,深圳市天趣网络科技有限公司,50-150人,南山区,大专,A轮,游戏,113.95257,22.5379,全职,3-5年,"['额外绩效奖金', '春节16天假', '丰厚年终奖', '年度旅游']"
37,4461662,Flash设计学徒5K起,温州,2018-04-29 15:08:28,5.2,307640,人人科技,北京才秀人人科技有限公司,150-500人,鹿城区,不限,未融资,移动互联网,120.710315,27.997536,全职,应届毕业生,"['""""']"
38,3194809,FLASH/MOHO 动画设计师,深圳,2018-04-23 17:20:19,8.4,133345,卷卷动漫,深圳市鼎成品牌顾问有限公司,15-50人,福田区,大专,A轮,"文化娱乐,移动互联网",113.992085,22.543177,全职,1-3年,"['年底双薪', '股票期权', '带薪年假', '专项奖金']"
39,4224606,flash动画师,成都,2018-04-20 19:17:23,4.8,91687,福宝科技,成都福宝科技有限公司,少于15人,高新区,大专,未融资,移动互联网,104.06882,30.53446,全职,1-3年,[]
40,4269804,Flash动画实习生,上海,2018-04-29 20:35:51,1.4,64177,飞碟说,飞碟视界传媒科技（上海）有限公司,50-150人,闵行区,大专,B轮,"移动互联网,文化娱乐",121.270094,31.215457,实习,应届毕业生,"['节日礼物', '年度旅游', '每天水果', '免费班车']"
41,3411306,flash广告设计,厦门,2018-04-28 09:26:23,8.4,26742,趣游（厦门）科技有限公司,趣游（厦门）科技有限公司,150-500人,湖里区,不限,不需要融资,移动互联网,118.138084,24.516323,全职,1-3年,"['绩效奖金', '年底双薪', '五险一金', '带薪年假']"
42,4494203,flash动画师,广州,2018-04-27 15:18:37,3.8,220364,视介文化,广州视介文化传播有限公司,少于15人,白云区,大专,未融资,文化娱乐,113.32855,23.181925,全职,不限,[]
43,4355328,flash动画师,北京,2018-04-24 16:46:03,8.4,336623,儿歌多多,多多网络科技（天津）有限公司,15-50人,海淀区,本科,不需要融资,移动互联网,116.35265,40.014869,全职,不限,"['年底双薪', '定期体检', '午餐补助', '弹性工作']"
44,4002085,flash动画设计师,上海,2018-04-23 16:15:27,6.2,148470,威怡广告,上海威怡广告有限公司,50-150人,浦东新区,大专,不需要融资,移动互联网,0.0,0.0,全职,1-3年,"['股票期权', '专项奖金']"
45,4445273,flash广告设计师,上海,2018-04-27 10:28:29,7.0,191955,晋展,上海晋展网络科技有限公司,150-500人,嘉定区,大专,不需要融资,"移动互联网,游戏",121.321867,31.289674,全职,1-3年,"['年底双薪', '交通补助', '带薪年假', '绩效奖金']"
46,1797759,FLASH动画师,武汉,2018-04-23 17:13:31,4.8,128378,悸动画,武汉市悸动文化传播有限公司,15-50人,武昌区,不限,不需要融资,"文化娱乐,广告营销",114.334369,30.531191,全职,不限,"['年底双薪', '专项奖金', '交通补助', '绩效奖金']"
47,4288729,flash动画开发,北京,2018-04-24 08:09:12,7.0,45120,乐学乐教,北京乐学乐教科技有限公司,15-50人,昌平区,大专,未融资,"移动互联网,教育",,,全职,3-5年,"['节日礼物', '五险一金']"
48,3974626,AS3/FLASH/H5 游戏客户端开发工程师,上海,2018-04-16 09:49:58,14.0,43165,上海交叉点,上海交叉点信息科技有限公司,50-150人,浦东新区,本科,A轮,"移动互联网,游戏",121.59921,31.205248,全职,应届毕业生,"['节日礼物', '年度旅游', '领导好', '美女多']"
49,3952488,Flash广告设计师,广州,2018-04-27 10:19:14,6.2,271701,贪玩游戏,江西贪玩信息技术有限公司广州分公司,500-2000人,天河区,大专,D轮及以上,游戏,113.368584,23.113076,全职,1年以下,"['带薪年假', '定期体检', '年度旅游', '五险一金']"
50,4034413,flash动画师,武汉,2018-04-09 15:06:47,4.2,309480,纷梦映彩动画,武汉纷梦映彩文化传播有限公司,少于15人,洪山区,大专,不需要融资,"移动互联网,企业服务",114.341664,30.524324,全职,1-3年,"['""""']"
51,4465919,flash课件插画师,北京,2018-04-25 18:27:32,10.8,84911,互动作业,北京千阳远望信息技术有限公司,50-150人,海淀区,本科,A轮,"移动互联网,教育",116.339996,39.966647,全职,3-5年,"['节日礼物', '绩效奖金', '美女多', '五险一金']"
52,2292429,Flash 3D主程（AS3 主程）,上海,2018-04-28 17:38:52,34.0,658,三七互娱,三七互娱（上海）科技有限公司,2000人以上,徐汇区,不限,上市公司,游戏,121.39788,31.16134938,全职,5-10年,"['绩效奖金', '五险一金', '通讯津贴', '交通补助']"
53,4401909,Flash动画师,北京,2018-04-25 09:24:04,6.8,35361,跟谁学,北京百家互联科技有限公司,500-2000人,海淀区,本科,A轮,"移动互联网,教育",116.282935,40.048632,全职,1-3年,"['节日礼物', '技能培训', '股票期权', '精英团队']"
54,3976605,Flash动画设计师,上海,2018-04-29 10:36:18,7.6,68520,悠学科技,上海悠学信息科技有限公司,15-50人,普陀区,不限,天使轮,"企业服务,教育",121.442534,31.257086,全职,不限,"['股票期权', '带薪年假', '绩效奖金', '岗位晋升']"
55,3167554,二维动画师/Flash动画师,北京,2018-04-21 16:48:24,9.0,104124,铃声多多,北京多宝灵动科技有限公司,15-50人,海淀区,本科,不需要融资,移动互联网,116.298056,39.959912,全职,不限,"['节日礼物', '带薪年假', '年度旅游', '扁平管理']"
56,4296886,2D动画师/flash设计师,厦门,2018-04-23 10:10:38,5.6,335003,星座星语,厦门星座星语商贸有限公司,50-150人,集美区,大专,未融资,"移动互联网,社交网络",118.051039,24.60666,全职,不限,"['""""']"
57,4450905,Flash动画设计,大连,2018-04-28 14:56:59,4.8,364912,大连小海龟网络科技有限公司,大连小海龟网络科技有限公司,少于15人,高新园区,不限,不需要融资,"移动互联网,信息安全",121.51373,38.847258,全职,应届毕业生,"['交通补助', '带薪年假', '午餐补助', '绩效奖金']"
58,4480753,二维动画师/FLASH动画 师,深圳,2018-04-25 15:15:13,6.8,318924,圣堡动漫,圣堡动漫网络技术（深圳）有限公司,少于15人,宝安区,大专,未融资,"企业服务,广告营销",113.912972,22.583177,全职,1-3年,"['带薪年假', '年底双薪', '五险一金']"
59,4374845,flash动画设计,广州,2018-04-19 15:07:28,4.8,149102,深读视频,广州道朗教育咨询信息咨询有限公司,15-50人,番禺区,不限,天使轮,"移动互联网,医疗健康",,,全职,1-3年,"['带薪年假', '专项奖金', '年度旅游', '节日礼物']"
60,4414544,FLASH动画,杭州,2018-04-18 17:49:53,4.2,349895,千游龙,杭州千游龙文化创意有限公司,少于15人,余杭区,大专,未融资,文化娱乐,120.064974,30.36317,全职,1-3年,"['""""']"
61,3126279,Flash动画设计师,上海,2018-04-23 17:22:42,10.8,17291,PPTV聚力,上海聚力传媒技术有限公司,500-2000人,浦东新区,大专,D轮及以上,文化娱乐,121.531728,31.216657,全职,1-3年,"['技能培训', '绩效奖金', '岗位晋升', '扁平管理']"
62,4396527,二维动画设计（Flash）,上海,2018-04-10 14:57:39,4.2,362466,艺虎动画,上海艺虎文化传播有限公司,15-50人,青浦区,大专,B轮,其他,121.18102,31.176233,全职,1-3年,"['""""']"
63,4392114,Flash动画设计师,西安,2018-04-09 19:18:29,2.8,274464,强优科技,西安强优信息科技有限责任公司,少于15人,高新技术产业开发区,不限,未融资,文化娱乐,108.88625,34.215875,全职,1-3年,[]
64,2826668,flash动画制作,广州,2018-04-26 09:26:47,2.4,173201,同实网络,广州市同实网络科技有限公司,15-50人,黄埔区,不限,不需要融资,教育,113.449049,23.114145,实习,不限,[]
65,2812721,Flash 动画师,北京,2018-04-20 10:21:29,6.2,101019,风火锐意品牌管理有限公司,风火锐意,15-50人,朝阳区,本科,未融资,"广告营销,其他",116.60085042,39.92664961,全职,1-3年,"['节日礼物', '带薪年假', '绩效奖金', '年度旅游']"
66,4195039,游戏Flash设计师,成都,2018-04-26 10:34:12,14.0,6868,tap4fun,成都尼毕鲁科技股份有限公司,150-500人,高新区,大专,不需要融资,"移动互联网,游戏",104.069711,30.54825,全职,1-3年,"['技能培训', '节日礼物', '年底双薪', '带薪年假']"
67,4311701,flash动画设计师,广州,2018-04-24 12:50:51,4.8,280264,形动数码,广州形动数码科技有限公司,50-150人,越秀区,大专,不需要融资,文化娱乐 电子商务,113.308794,23.11944,全职,1-3年,"['""""']"
68,4368954,flash广告设计师,广州,2018-04-03 17:38:12,8.4,192153,创文,上海创文信息技术有限公司,50-150人,天河区,不限,未融资,"游戏,移动互联网",113.335824,23.150941,全职,不限,[]
69,1042259,Flash特效设计师（高级）,成都,2018-04-28 09:34:45,10.8,55562,西游网,成都趣乐多科技有限公司,50-150人,高新区,大专,不需要融资,游戏,104.07010065,30.55062161,全职,3-5年,"['节日礼物', '年底双薪', '带薪年假', '定期体检']"
70,4178529,Flash 动画特效师,武汉,2018-04-18 17:22:14,6.8,173171,武汉开天,武汉开天互动娱乐科技有限公司,15-50人,洪山区,大专,天使轮,"游戏,移动互联网",114.355034,30.52441,全职,3-5年,"['带薪年假', '弹性工作', '节日礼物', '扁平管理']"
71,3173920,FLASH动画师,北京,2018-04-28 16:15:38,5.2,172009,北京通安,北京通安信息技术有限公司,150-500人,西城区,不限,不需要融资,移动互联网,116.384371,39.963509,全职,1-3年,"['年底双薪', '午餐补助', '定期体检', '绩效奖金']"
72,2813745,Flash/AE特效动画设计师,深圳,2018-04-28 10:20:10,14.0,26399,云图TV,珠海云迈网络科技有限公司,50-150人,南山区,本科,A轮,移动互联网,113.908786,22.549046,全职,3-5年,"['带薪年假', '绩效奖金', '年度旅游', '扁平管理']"
73,4490670,flash分镜师/分镜导演,北京,2018-04-26 20:56:17,10.8,181823,声影动漫,北京声影动漫科技有限公司,50-150人,通州区,不限,A轮,文化娱乐,116.656924,39.889638,全职,不限,"['弹性工作', '年度旅游', '节日礼物', '扁平管理']"
74,4293914,flash动画师,杭州,2018-04-27 09:15:18,4.8,291685,西界王,杭州西界王文化传媒有限公司,50-150人,西湖区,不限,A轮,"游戏,文化娱乐",0.0,0.0,兼职,应届毕业生,[]
75,4332281,资深FLASH动画师,杭州,2018-04-18 17:49:51,4.2,349895,千游龙,杭州千游龙文化创意有限公司,少于15人,余杭区,大专,未融资,文化娱乐,120.064974,30.36317,全职,1-3年,"['""""']"
76,503716,Flash动画特效设计师,成都,2018-04-23 09:04:21,7.0,47568,成都大海怪科技有限公司,成都大海怪科技有限公司,15-50人,高新区,本科,天使轮,"移动互联网,游戏",104.03236311,30.58633623,全职,1-3年,"['技能培训', '专项奖金', '股票期权', '定期体检']"
77,3255150,高级Flash动画设计师（龙珠直播）,上海,2018-04-23 17:22:41,17.0,17291,PPTV聚力,上海聚力传媒技术有限公司,500-2000人,浦东新区,本科,D轮及以上,文化娱乐,121.531728,31.216657,全职,3-5年,"['技能培训', '绩效奖金', '岗位晋升', '扁平管理']"
78,4267297,Flash前端工程师,北京,2018-04-25 10:12:03,28.0,4188,INK 银客集团,银客未来科技（北京）有限公司,500-2000人,海淀区,本科,C轮,"移动互联网,金融",116.355745,40.047431,全职,3-5年,"['股票期权', '16薪', '扁平化管理', '免费两餐']"
79,3938692,flash动画设计师,深圳,2018-04-28 10:12:26,11.2,6954,有伴科技,深圳市有伴科技有限公司,150-500人,南山区,不限,C轮,"移动互联网,教育",113.92671,22.54078,全职,不限,"['股票期权', '年底双薪', '五险一金', '带薪年假']"
80,4030446,flash美术设计师,广州,2018-04-23 09:27:42,6.2,45177,九浚,广州市九浚信息技术有限公司,15-50人,天河区,大专,未融资,"移动互联网,广告营销",113.37054,23.12255,全职,1-3年,"['节日礼物', '专项奖金', '绩效奖金', '年度旅游']"
81,4108458,2D骨骼动画/2D动画师/flash动画师,上海,2018-04-11 10:11:40,11.4,41173,掌梦网络,上海掌梦网络科技有限公司,15-50人,浦东新区,大专,A轮,"游戏,招聘",121.99341,30.994275,全职,1-3年,"['股票期权', '岗位晋升', '扁平管理', '五险一金']"
82,4285664,播放器开发工程师(Flash/H5),北京,2018-04-29 00:05:03,21.0,107435,熊猫直播,上海熊猫互娱文化有限公司北京分公司,500-2000人,朝阳区,本科,未融资,"移动互联网,文化娱乐",116.481135,39.996727,全职,3-5年,"['年底双薪', '带薪年假', '午餐补助', '绩效奖金']"
83,4354224,FLASH动画设计师,北京,2018-04-09 14:54:31,6.8,285098,博睿思迪,北京博睿思迪营销顾问有限公司,50-150人,朝阳区,大专,C轮,广告营销,116.508446,39.903292,全职,不限,"['带薪年假', '美女多', '帅哥多', '节日礼物']"
84,4428104,flash动画设计师,北京,2018-04-16 16:20:39,19.0,288520,聪明核桃教育,北京聪明核桃教育科技有限公司,50-150人,海淀区,本科,A轮,教育,116.313701,39.978427,全职,3-5年,"['五险一金', '弹性工作', '年底双薪', '午餐补助']"
85,4487826,Flash动态设计师MG Dynamic Desi,杭州,2018-04-26 15:11:42,5.6,116239,思漫奇文化创意,杭州思漫奇文化创意有限公司,15-50人,西湖区,不限,未融资,"移动互联网,广告营销",120.09822,30.30217,全职,不限,"['年底双薪', '绩效奖金', '美女多', '领导好']"
86,4371554,flash/MG原画动画师,北京,2018-04-18 14:40:55,10.4,181823,声影动漫,北京声影动漫科技有限公司,50-150人,通州区,不限,A轮,文化娱乐,116.656924,39.889638,全职,1-3年,"['弹性工作', '年度旅游', '节日礼物', '扁平管理']"
87,4297410,flash前端实习生,成都,2018-04-27 14:38:36,2.8,283068,爆米花互娱,成都爆米花互娱科技有限公司,15-50人,武侯区,本科,天使轮,"游戏,移动互联网",104.066503,30.54616,全职,应届毕业生,"['年底双薪', '绩效奖金', '带薪年假', '五险一金']"
88,4299161,​综合设计师（偏平面/Flash动画方向）,北京,2018-04-02 10:39:23,10.8,16977,敦煌网,世纪禾光科技发展（北京）有限公司,500-2000人,海淀区,不限,D轮及以上,电子商务,116.33893,39.99234,全职,1-3年,"['年底双薪', '节日礼物', '技能培训', '绩效奖金']"
89,1987752,Flash动画转html5技术顾问,北京,2018-04-24 08:09:57,3.8,45120,乐学乐教,北京乐学乐教科技有限公司,15-50人,昌平区,不限,未融资,"移动互联网,教育",116.3626302,40.0754699,兼职,不限,"['节日礼物', '五险一金']"
90,4148044,高级/资深前端开发工程师(Flash/H5)（龙珠直播）,上海,2018-04-23 17:22:43,21.0,17291,PPTV聚力,上海聚力传媒技术有限公司,500-2000人,浦东新区,本科,D轮及以上,文化娱乐,121.531728,31.216657,全职,3-5年,"['技能培训', '绩效奖金', '岗位晋升', '扁平管理']"
91,4483087,前端（Flash/H5）开发实习生,深圳,2018-04-25 18:21:40,5.2,57552,游龙互动,深圳市游龙互动科技开发有限责任公司,50-150人,南山区,本科,天使轮,游戏,113.95776,22.53817,全职,不限,"['节日礼物', '年底双薪', '绩效奖金', '岗位晋升']"
92,3944849,Flash3D客户端程序,上海,2018-04-28 17:38:53,14.0,658,三七互娱,三七互娱（上海）科技有限公司,2000人以上,徐汇区,大专,上市公司,游戏,121.397892,31.16147,全职,1-3年,"['绩效奖金', '五险一金', '通讯津贴', '交通补助']"
93,3944734,资深Flash3D客户端程序,上海,2018-04-28 17:38:51,27.0,658,三七互娱,三七互娱（上海）科技有限公司,2000人以上,徐汇区,大专,上市公司,游戏,121.397892,31.16147,全职,3-5年,"['绩效奖金', '五险一金', '通讯津贴', '交通补助']"
