,职位编码,职位名称,所在城市,发布日期,薪资待遇(k),公司编码,公司名称,公司全称,公司规模,所在区域,最低学历,融资状态,公司类型,经度,纬度,全职/实习,工作经验
0,4323837,JavaScript开发工程师,深圳,2018-04-30 12:36:33,7.0,65521,泽林信息,深圳市泽林信息咨询有限公司,500-2000人,南山区,大专,不需要融资,教育,113.953534,22.542215,全职,1-3年
1,1372408,JavaScript开发工程师,无锡,2018-04-28 14:19:58,9.0,3246,帆软软件,南京帆软软件有限公司,500-2000人,崇安区,本科,不需要融资,数据服务,120.303926,31.57652,全职,不限
2,3688909,Javascript 工程师,广州,2018-04-29 11:27:00,14.0,34872,奇志信息科技,广州奇志信息科技有限公司,15-50人,海珠区,本科,A轮,移动互联网,0.0,0.0,全职,3-5年
3,4317140,Javascript开发工程师,深圳,2018-04-28 16:23:33,19.0,8332,任子行,任子行网络技术股份有限公司,500-2000人,南山区,本科,上市公司,移动互联网,113.907091,22.54964,全职,5-10年
4,4341193,Javascript开发,广州,2018-04-27 16:28:33,6.2,290905,广州楠天,广州楠天网络科技有限公司,15-50人,天河区,大专,不需要融资,移动互联网,113.398974,23.121974,全职,1-3年
5,2852345,JavaScript开发工程师,成都,2018-04-30 09:46:54,21.0,147086,二次元动漫,成都二次元动漫有限公司,150-500人,高新区,本科,不需要融资,"移动互联网,文化娱乐",104.061158,30.577731,全职,5-10年
6,2220407,JS工程师,深圳,2018-04-28 09:43:02,21.0,45668,XMind,XMind Ltd,50-150人,南山区,本科,不需要融资,移动互联网,113.952514,22.535885,全职,3-5年
7,1672682,javascript工程师,北京,2018-04-27 19:25:32,26.0,107423,瓜子二手车直卖网,车好多旧机动车经纪(北京)有限公司,2000人以上,海淀区,本科,C轮,O2O,116.29905,40.042709,全职,3-5年
8,4480387,JS开发工程师,西安,2018-04-25 14:48:40,10.8,123777,通力互联,北京通力互联技术服务有限公司,2000人以上,高新技术产业开发区,本科,不需要融资,"电子商务,企业服务",108.841437,34.209271,全职,1-3年
9,4093535,js开发工程师,厦门,2018-04-28 09:57:43,10.8,221200,玩美,厦门玩美网络科技有限公司,15-50人,思明区,大专,未融资,"游戏,移动互联网",118.193405,24.492305,全职,1-3年
10,4370806,JavaScript开发工程师,北京,2018-04-04 10:09:38,14.0,163147,115科技,广东一一五科技股份有限公司,150-500人,海淀区,本科,B轮,移动互联网,116.299636,40.050801,全职,1-3年
11,3527943,高级JS开发工程师,北京,2018-04-27 12:47:43,22.0,105775,全民彩,北京全民星彩科技有限公司,150-500人,丰台区,本科,不需要融资,移动互联网,116.30422,39.826358,全职,5-10年
12,2211812,JavaScript,重庆,2018-04-26 17:14:44,13.2,102530,允升科技,重庆允升科技有限公司,50-150人,大渡口区,本科,A轮,"电子商务,企业服务",106.488052,29.462773,全职,3-5年
13,2587188,Node.js/JavaScript,北京,2018-04-28 09:30:03,21.0,70634,彩视,迅捷联动（北京）科技有限公司,15-50人,朝阳区,本科,A轮,移动互联网,116.451267,39.96072,全职,3-5年
14,3284882,JS高级开发工程师,济南,2018-04-28 18:04:14,13.2,67576,车满满,车满满（北京）信息技术有限公司,150-500人,高新区,本科,B轮,移动互联网,117.141711,36.662479,全职,3-5年
15,4322695,JavaScript工程师(东莞),东莞,2018-04-30 12:36:34,6.2,65521,泽林信息,深圳市泽林信息咨询有限公司,500-2000人,东莞市市辖区,大专,不需要融资,教育,113.739182,23.025818,全职,1-3年
16,3689075,Javascript 工程师 （杭州）,杭州,2018-04-29 11:27:05,14.0,34872,奇志信息科技,广州奇志信息科技有限公司,15-50人,西湖区,本科,A轮,移动互联网,120.124737,30.27873,全职,1-3年
17,3847392,JavaScript资深工程师/技术经理,北京,2018-04-28 13:39:10,28.0,25439,Udesk－企业级智能客服平台,北京沃丰时代数据科技有限公司,150-500人,西城区,本科,B轮,其他,116.357353,39.939211,全职,5-10年
18,3346587,高级javascript工程师（3年以上）,杭州,2018-04-27 10:51:14,14.0,42367,大名软件,杭州大名软件有限公司,50-150人,西湖区,本科,不需要融资,"电子商务,企业服务",120.12478,30.2768,全职,3-5年
19,3616461,COCOS2D-JS开发工程师,北京,2018-04-02 13:41:31,10.8,58125,北京趣酷科技有限公司,北京趣酷科技有限公司,150-500人,石景山区,大专,不需要融资,游戏,116.24526049,39.90292964,全职,1-3年
20,4080295,Javascript工程师,北京,2018-04-28 16:09:57,12.0,29013,尚层装饰,尚层装饰（北京）有限公司,2000人以上,朝阳区,大专,D轮及以上,生活服务,115.99339,39.99426,全职,3-5年
21,2578769,Javascript工程师,长沙,2018-04-27 10:53:39,10.8,29579,辰运软件,长沙辰运软件有限公司,150-500人,岳麓区,大专,不需要融资,移动互联网,112.882957,28.230098,全职,3-5年
22,4106587,JavaScript,天津,2018-04-12 13:15:57,7.6,317368,通津科技,天津通津网络科技有限公司,500-2000人,宁河县,本科,不需要融资,其他,117.202074,39.129574,全职,1-3年
23,169015,javascript工程师,北京,2018-04-26 13:58:34,10.4,23727,知网,同方知网（北京）技术有限公司,2000人以上,海淀区,本科,上市公司,"移动互联网,电子商务",116.35717,40.04444006,全职,1-3年
24,4328873,JavaScript 开发工程师,德阳,2018-04-28 09:12:59,4.8,135279,竹芒科技,广汉竹芒科技有限公司,15-50人,广汉市,本科,不需要融资,移动互联网,104.265584,30.977798,全职,1-3年
25,3879692,JavaScript 工程师,北京,2018-04-27 16:57:12,21.0,196335,快乐迭代,快乐迭代（北京）网络科技有限公司,15-50人,东城区,本科,A轮,"移动互联网,社交网络",116.417314,39.947277,全职,3-5年
26,4270375,javascript工程师,北京,2018-04-27 09:37:08,14.0,3942,楚楚街,北京醋溜网络科技股份有限公司,150-500人,海淀区,大专,C轮,"移动互联网,电子商务",116.347279,39.976991,全职,1-3年
27,4498230,Javascript开发工程师,南昌,2018-04-28 11:29:43,7.6,211020,抚州国盛,抚州国盛网络科技服务有限公司,15-50人,青山湖区,本科,不需要融资,移动互联网,115.928307,28.669006,全职,3-5年
28,2509546,前端+js开发,北京,2018-04-24 09:35:30,19.0,28659,奥琦玮,奥琦玮信息科技（北京）有限公司,150-500人,,本科,B轮,"移动互联网,O2O",116.35127082,40.0613464,全职,3-5年
29,4453039,JS工程师,北京,2018-04-24 18:55:19,12.0,367856,北京有趣有爱信息技术有限公司,北京有趣有爱信息技术有限公司,15-50人,石景山区,本科,天使轮,移动互联网,116.201788,39.908218,全职,1-3年
30,4367066,Javascript 工程师 (深圳）,深圳,2018-04-29 11:26:41,14.0,34872,奇志信息科技,广州奇志信息科技有限公司,15-50人,南山区,本科,A轮,移动互联网,113.95356,22.541623,全职,1-3年
31,1208072,JavaScript,北京,2018-04-09 09:25:16,22.0,84656,皇包车,北京纯粹旅行有限公司,150-500人,朝阳区,本科,C轮,"移动互联网,旅游",116.48500999,39.90082006,全职,1-3年
32,3475770,Cocos2d-JS开发工程师,北京,2018-04-25 13:58:40,9.8,18487,锋绘·故事飞船,北京漫天下风采传媒文化有限公司,150-500人,朝阳区,大专,未融资,"移动互联网,文化娱乐",116.421833,39.980998,全职,不限
33,4132023,JavaScript高级工程师（EasyEDA）,深圳,2018-04-28 17:40:32,19.0,174527,立创商城,深圳市立创电子商务有限公司,150-500人,福田区,本科,未融资,"电子商务,硬件",114.04274,22.549401,全职,1-3年
34,4499902,JavaScript工程师,深圳,2018-04-28 15:36:46,6.2,330380,小青橙科技,深圳市小青橙科技有限公司,少于15人,南山区,本科,未融资,移动互联网 游戏,113.915682,22.540935,全职,1年以下
35,4466764,javascript开发工程师,北京,2018-04-23 16:27:56,8.4,267128,东润互动,北京东润互动科技有限公司,150-500人,海淀区,本科,A轮,"移动互联网,广告营销",116.305591,39.982239,全职,1-3年
36,4333431,JavaScript工程师，有开发经验优先,许昌,2018-04-03 12:10:39,4.8,344773,鲤鱼软件培训中心,河南朋来网络科技有限公司,少于15人,魏都区,大专,不需要融资,教育,113.86818,34.042988,全职,3-5年
37,1478936,JavaScript,上海,2018-04-28 15:52:36,11.4,19193,itomix,上海杰鸿信息科技有限公司,15-50人,杨浦区,大专,不需要融资,"移动互联网,金融",121.53054022,31.2710194,全职,3-5年
38,3892199,Javascript工程师,北京,2018-04-28 10:45:37,24.0,39934,每日优鲜,北京每日优鲜电子商务有限公司,500-2000人,朝阳区,本科,C轮,"移动互联网,电子商务",116.478665,39.985899,全职,3-5年
39,3796690,js开发,深圳,2018-04-27 10:24:20,22.8,265745,金鑫云端,深圳市金鑫云端科技有限公司,150-500人,龙华新区,大专,不需要融资,移动互联网,114.015684,22.653986,全职,3-5年
40,4342679,JavaScript开发工程师,北京,2018-04-17 13:45:05,32.0,353252,中世康恺,北京中世康恺科技有限公司,15-50人,昌平区,本科,天使轮,"医疗健康,移动互联网",116.347137,40.080199,全职,3-5年
41,3467653,JavaScript开发工程师,北京,2018-04-18 12:43:37,14.0,164574,央视国际视频通讯有限公司,央视国际视频通讯有限公司,150-500人,朝阳区,本科,不需要融资,文化娱乐,116.46374,39.915084,全职,1-3年
42,3998645,Javascript工程师,重庆,2018-04-09 11:09:11,7.6,115207,甲虫网络,重庆甲虫网络科技有限公司,15-50人,江北区,本科,A轮,"移动互联网,硬件",106.486486,29.600933,全职,3-5年
43,4003803,JS开发工程师,北京,2018-04-09 10:15:23,19.0,9933,新东方在线,北京新东方迅程网络科技有限公司,500-2000人,海淀区,本科,不需要融资,"移动互联网,教育",116.312532,39.980408,全职,1-3年
44,2792131,Javascript实习工程师,沈阳,2018-04-27 14:53:24,2.4,12557,百分点,北京百分点信息科技有限公司,500-2000人,沈河区,本科,D轮及以上,数据服务,123.433276,41.801434,实习,应届毕业生
45,3922088,EasyEDA JavaScript高级工程师,深圳,2018-04-28 17:40:32,19.0,174527,立创商城,深圳市立创电子商务有限公司,150-500人,福田区,本科,未融资,"电子商务,硬件",114.04274,22.549401,全职,1-3年
46,4314519,高级JS开发工程师-真格基金投资企业合作公司-互影,北京,2018-04-28 22:34:43,19.0,23702,真格基金,北京真格天成投资管理有限公司,50-150人,朝阳区,本科,不需要融资,金融,116.443108,39.92147,全职,3-5年
47,4482370,JavaScript开发（中级）,宁波,2018-04-25 17:18:33,5.6,97521,乐普科技,宁波乐普信息科技有限公司,15-50人,江东区,大专,不需要融资,"移动互联网,O2O",121.579403,29.858114,全职,1-3年
48,4374017,JavaScript,北京,2018-04-17 16:11:30,9.6,208197,村小爱,北京村小二网络科技有限公司,15-50人,朝阳区,大专,天使轮,"电子商务,旅游",116.459991,39.906456,全职,3-5年
49,4451057,Cocos-js开发工程师,武汉,2018-04-19 16:14:22,8.2,155206,有余乐科技,武汉市有余乐科技有限公司,15-50人,洪山区,不限,不需要融资,游戏,114.411034,30.482753,全职,1-3年
50,4498194,JavaScript工程师,上海,2018-04-28 11:26:45,10.8,113989,昀迈科技,昀迈（上海）生物科技有限公司,15-50人,闵行区,大专,未融资,"移动互联网,硬件",121.523057,31.089736,全职,1-3年
51,4423172,javascript工程师,北京,2018-04-25 16:46:08,9.4,180874,北工宏大,北京北工宏大微电子科技有限公司,少于15人,朝阳区,本科,未融资,移动互联网,116.414631,40.040364,全职,1-3年
52,4047611,JS开发工程师,成都,2018-04-24 10:08:13,8.4,70988,勇软博盛,成都勇软博盛科技有限公司,15-50人,武侯区,大专,不需要融资,移动互联网,0.0,0.0,全职,不限
53,4459729,智控系统javascript开发工程师,上海,2018-04-21 09:04:23,12.0,357092,艺瞻创意,上海艺瞻创意设计有限公司,少于15人,静安区,本科,天使轮,文化娱乐,121.449656,31.29421,全职,3-5年
54,3924234,js工程师,成都,2018-04-09 11:42:30,9.8,264370,承晟集团,四川承晟集团有限公司,150-500人,武侯区,不限,不需要融资,"移动互联网,医疗健康",103.972701,30.628876,全职,不限
55,4497926,高级JavaScript开发工程师,上海,2018-04-28 11:03:13,17.0,273989,京天利,北京无线天利移动信息技术股份有限公司上海分公司,150-500人,徐汇区,本科,上市公司,移动互联网,121.410178,31.171847,全职,3-5年
56,4225972,Js实习,北京,2018-04-29 11:18:40,5.6,5706,洋葱数学,光合新知（北京）科技有限公司,150-500人,朝阳区,本科,C轮,"移动互联网,教育",116.500139,39.991999,实习,应届毕业生
57,4183478,COCOS2D - js,杭州,2018-04-24 13:12:02,11.2,330644,自善互联,安徽自善互联网科技有限公司,50-150人,西湖区,不限,未融资,"移动互联网,O2O",120.130779,30.274766,全职,1-3年
58,4380099,javascript工程师,北京,2018-04-08 11:11:38,13.2,2994,搜达足球,北京求之易数据有限公司,15-50人,海淀区,不限,A轮,文化娱乐,116.300606,40.02411,全职,3-5年
59,2989344,js、javascript攻城狮（接受实习应界生）,东莞,2018-04-25 18:48:54,8.4,147551,登特信息科技,广东登特信息科技有限公司,少于15人,东莞市市辖区,不限,未融资,"移动互联网,电子商务",113.776184,23.045697,全职,不限
60,4306531,JS实习生,北京,2018-04-29 11:18:40,4.2,5706,洋葱数学,光合新知（北京）科技有限公司,150-500人,朝阳区,本科,C轮,"移动互联网,教育",116.500139,39.991999,实习,应届毕业生
61,4306687,高级Javascript开发工程师,北京,2018-04-02 10:45:21,19.0,337200,互影科技,互影科技（北京）有限公司,15-50人,朝阳区,本科,不需要融资,"移动互联网,文化娱乐",116.494614,39.985047,全职,5-10年
62,4398437,资深JavaScript开发工程师,北京,2018-04-10 17:16:28,19.0,236363,鹏宇致峰,鹏宇致峰科技（北京）有限公司,15-50人,朝阳区,本科,天使轮,移动互联网,116.487116,39.917532,全职,3-5年
63,2586201,JS 开发工程师,杭州,2018-04-19 18:28:17,9.8,147925,陪你跑,杭州爱跑体育文化策划有限公司,少于15人,西湖区,本科,天使轮,医疗健康,0.0,0.0,全职,1-3年
64,3320613,Javascript高级软件开发工程师,苏州,2018-04-18 12:09:28,14.0,63381,Zoom,软视软件（苏州）有限公司,50-150人,吴中区,本科,D轮及以上,"数据服务,移动互联网",120.669101,31.295591,全职,3-5年
65,4485098,JavaScript开发工程师,深圳,2018-04-26 10:39:12,9.6,174818,友咖啡,深圳市友咖科技有限公司,50-150人,南山区,大专,未融资,"移动互联网,电子商务",113.924724,22.545814,全职,3-5年
66,4488481,JS开发,上海,2018-04-26 16:02:36,12.0,373430,金锄头科技,上海金锄头信息科技有限公司,15-50人,杨浦区,本科,天使轮,"移动互联网,游戏",121.50812,31.309128,全职,1-3年
67,4471200,cocos2dx-js开发工程师,武汉,2018-04-24 11:30:14,8.4,237548,谷丁物游,武汉物游科技有限公司,15-50人,江岸区,大专,天使轮,"教育,游戏",114.28952,30.605417,全职,1-3年
68,4348427,js中间件开发工程师,北京,2018-04-28 14:13:32,14.0,106303,搜狐集团,北京搜狐新媒体信息技术有限公司,2000人以上,海淀区,本科,上市公司,"移动互联网,广告营销",0.0,0.0,全职,3-5年
69,4425373,js开发工程师,北京,2018-04-16 11:52:52,14.0,282681,众惠联互助,众惠联科技（北京）有限公司,15-50人,朝阳区,本科,不需要融资,移动互联网,0.0,0.0,全职,不限
70,4304689,Javascript / HTML5开发工程师,深圳,2018-04-27 10:01:30,7.6,304181,国豪共享货车,国豪（深圳）融资租赁有限公司,50-150人,光明新区,大专,未融资,金融,0.0,0.0,全职,1-3年
71,3340655,cocos-js/html5 游戏开发工程师,北京,2018-04-24 12:15:40,19.0,93376,火舞游戏,北京火舞科技有限公司,15-50人,朝阳区,大专,不需要融资,游戏,116.514226,39.905452,全职,1-3年
72,793682,高级Javascript工程师,深圳,2018-04-28 09:22:54,17.0,22103,Chinatime,时代际客（深圳）软件有限公司,150-500人,福田区,本科,B轮,"社交网络,数据服务",114.102725,22.541334,全职,1-3年
73,4251922,cocos2d-x/js开发工程师,深圳,2018-04-28 11:29:47,11.2,31168,众人在线,深圳市众人在线网络科技有限公司,少于15人,南山区,本科,天使轮,移动互联网,113.946947,22.53064,全职,1年以下
74,3465867,h5、js、脚本开发、广告发布平台,北京,2018-04-26 10:48:50,12.0,4430,Adsame,上海传漾广告有限公司,150-500人,朝阳区,本科,C轮,"移动互联网,数据服务",116.476461,39.913241,全职,3-5年
75,4394295,高级Javascript 工程师,北京,2018-04-26 19:37:21,19.0,335872,简亦智,北京简亦智科技有限公司,15-50人,海淀区,大专,不需要融资,"移动互联网,数据服务",116.324867,39.964579,全职,1-3年
76,4113915,Cocos2d-js / H5开发工程师,深圳,2018-04-24 14:29:45,19.0,938,一花科技,深圳市一花科技有限公司,50-150人,南山区,大专,不需要融资,游戏,113.993578,22.99368,全职,3-5年
77,4202617,JavaScript软件开发,上海,2018-04-13 10:29:50,8.4,333968,上海廉凌网络科技有限公司,上海廉凌网络科技有限公司,少于15人,静安区,大专,天使轮,"移动互联网,数据服务",121.429191,31.227366,全职,3-5年
78,4284742,JavaScript多媒体开发工程师,合肥,2018-04-27 15:37:42,16.8,106555,ZOOM,软视视频软件（杭州）有限公司,500-2000人,高新区,本科,D轮及以上,"移动互联网,社交网络",117.139029,31.838828,全职,3-5年
79,4090647,高级Javascript工程师,上海,2018-04-04 15:24:05,19.0,113723,上海拿米金服,上海拿米金融信息服务有限公司,150-500人,徐汇区,大专,不需要融资,"移动互联网,金融",121.410559,31.171432,全职,3-5年
80,3303294,Javascript 开发工程师,杭州,2018-04-23 09:20:59,9.6,117634,昊舜视讯,杭州昊舜视讯科技有限公司,15-50人,余杭区,本科,天使轮,"移动互联网,企业服务",120.093466,30.25841,全职,1-3年
81,3528010,node-js游戏开发工程师,上海,2018-04-28 09:51:03,22.0,14983,游族网络,上海游族信息技术有限公司,500-2000人,徐汇区,不限,上市公司,"移动互联网,游戏",39.897445,116.331398,全职,1-3年
82,4407039,Javascript高级开发工程师-杭州-00651,杭州,2018-04-28 09:47:34,19.0,6502,同盾科技,同盾科技有限公司,500-2000人,余杭区,本科,C轮,"信息安全,数据服务",120.01799185,30.28027588,全职,3-5年
83,4416028,cocos-js开发工程师（不接受应届生哦）,长沙,2018-04-27 09:16:30,14.0,154407,瑄晨,长沙瑄晨信息科技有限公司,15-50人,岳麓区,大专,未融资,游戏,112.88732,28.208559,全职,1-3年
84,4412946,JavaScript高级工程师,上海,2018-04-20 19:00:54,21.0,172776,司睿杰建科,上海司睿杰建筑科技有限公司,15-50人,静安区,不限,不需要融资,"移动互联网,企业服务",121.458879,31.244647,全职,3-5年
85,4415609,JavaScript工程师（实习生）,北京,2018-04-16 11:12:47,9.8,44310,菩提果,天津菩提果科技有限公司,50-150人,朝阳区,本科,A轮,"移动互联网,医疗健康",116.414093,40.031824,全职,应届毕业生
86,3953054,JavaScript开发工程师,成都,2018-04-02 10:08:45,8.4,215360,闪电（深圳）智能有限公司,闪电（深圳）智能有限公司,15-50人,高新区,大专,不需要融资,硬件,104.075339,30.539651,全职,1-3年
87,2727888,Javascript开发工程师（实习）,宁波,2018-04-28 13:06:45,1.4,97521,乐普科技,宁波乐普信息科技有限公司,15-50人,江东区,本科,不需要融资,"移动互联网,O2O",121.579403,29.858114,实习,应届毕业生
88,4273402,JS开发工程师,北京,2018-04-27 11:10:25,12.0,199733,华语数媒,华语数媒（北京）科技有限公司,15-50人,朝阳区,大专,未融资,移动互联网,116.458918,39.905805,全职,3-5年
89,694306,JavaScript,上海,2018-04-24 10:57:31,8.2,45724,异瀚数码,上海智强信息服务有限公司,150-500人,长宁区,大专,B轮,"数据服务,文化娱乐",,,全职,1-3年
90,4341139,JavaScript开发工程师（Mobile方向）,苏州,2018-04-25 13:13:17,16.8,106555,ZOOM,软视视频软件（杭州）有限公司,500-2000人,工业园区,本科,D轮及以上,"移动互联网,社交网络",120.669101,31.295591,全职,1-3年
91,3878348,JavaScript与H5流媒体研发工程师,深圳,2018-04-27 14:19:23,16.8,169344,Pear,Pear Limited,15-50人,南山区,不限,A轮,"企业服务,硬件",114.00475,22.5945,全职,不限
92,4263815,Node/JavaScript工程师,北京,2018-04-26 11:49:43,17.8,314059,云迹科技,北京云迹科技有限公司,50-150人,海淀区,本科,B轮,"移动互联网,硬件",116.303596,39.986031,全职,3-5年
93,4453031,JS高级工程师,北京,2018-04-19 19:35:51,24.0,367856,北京有趣有爱信息技术有限公司,北京有趣有爱信息技术有限公司,15-50人,石景山区,本科,天使轮,移动互联网,116.201788,39.908218,全职,5-10年
94,4372524,js开发,深圳,2018-04-04 13:19:56,13.2,358624,乔戈里网络,深圳乔戈里网络科技有限公司,少于15人,南山区,不限,未融资,游戏,113.937987,22.523392,全职,1-3年
95,2826660,Javascript开发工程师,上海,2018-04-28 13:10:54,17.0,61970,上海宝脉信息技术有限公司,上海宝脉信息技术有限公司,少于15人,徐汇区,本科,不需要融资,"移动互联网,教育",120.993464,30.994061,全职,1-3年
96,4134864,高级JavaScript开发工程师（南昌）,南昌,2018-04-25 15:41:11,12.0,140922,江西融思,江西融思科技有限公司,50-150人,青山湖区,本科,未融资,"数据服务,移动互联网",115.973653,28.692174,全职,3-5年
97,4493228,JavaScript 客户端工程师,广州,2018-04-27 14:03:32,7.0,97495,艾想科技,广州艾想电子科技有限公司,15-50人,海珠区,本科,天使轮,"移动互联网,硬件",113.270842,23.07719,全职,不限
98,3705343,高级JS工程师,北京,2018-04-28 10:45:37,24.0,39934,每日优鲜,北京每日优鲜电子商务有限公司,500-2000人,朝阳区,本科,C轮,"移动互联网,电子商务",116.478665,39.985899,全职,3-5年
99,4431265,CocosCreator客户端开发cocos-js,上海,2018-04-17 10:01:09,22.8,238414,狮翼网络,上海狮翼网络科技有限公司,15-50人,静安区,不限,未融资,"游戏,移动互联网",121.46662,31.267475,全职,1-3年
100,1279993,JavaScript开发工程师,广州,2018-04-27 18:49:46,12.0,8683,ZAKER,广州坚和网络科技有限公司,150-500人,天河区,不限,C轮,移动互联网,113.34638047,23.1473197,全职,3-5年
101,4322737,JS后端开发工程师(node.js),上海,2018-04-27 10:07:16,12.0,170974,上海悟途信息科技有限公司,上海悟途信息科技有限公司,15-50人,长宁区,本科,天使轮,移动互联网,121.353229,31.221083,全职,1-3年
102,4354775,JS开发,上海,2018-04-23 12:37:30,12.0,47238,Mera,上海莫若以明信息科技有限公司,15-50人,杨浦区,本科,天使轮,移动互联网,121.50812,31.309128,全职,1-3年
103,3935099,js工程师,成都,2018-03-31 15:54:58,8.2,296241,中卓科技,四川中卓科技有限公司,50-150人,武侯区,不限,不需要融资,移动互联网,103.972029,30.629806,全职,1-3年
104,3762658,高级/资深Cocos2d-js工程师,成都,2018-04-27 17:37:34,24.0,153380,凯尔文科技,成都市凯尔文科技有限公司,15-50人,高新区,本科,未融资,"移动互联网,电子商务",104.055833,30.537496,全职,5-10年
105,3873121,游戏开发cocos2d-js/cocos2dx,北京,2018-04-25 14:44:49,19.0,150109,我搜网络,北京振轩网络信息技术有限公司,15-50人,海淀区,不限,A轮,"移动互联网,广告营销",116.353279,40.043397,全职,不限
106,4136666,js讲师,北京,2018-04-28 10:06:44,12.0,114259,北京八维研修学院,北京八维研修学院,2000人以上,大兴区,大专,未融资,教育,116.311906,39.516594,全职,1-3年
107,4103650,高级JavaScript工程师（武汉研发）,武汉,2018-04-25 15:57:26,10.8,140922,江西融思,江西融思科技有限公司,50-150人,洪山区,本科,未融资,"数据服务,移动互联网",114.352786,30.523933,全职,1-3年
108,4128016,高级Javascript工程师&nbsp;,北京,2018-04-13 11:25:10,14.0,257022,四方人科技,北京四方人科技有限责任公司,少于15人,海淀区,大专,天使轮,"教育,游戏",116.306814,39.946071,全职,3-5年
109,4089913,高级JavaScript工程师,上海,2018-04-10 10:23:55,19.0,113723,上海拿米金服,上海拿米金融信息服务有限公司,150-500人,徐汇区,大专,不需要融资,"移动互联网,金融",121.41045,31.17033,全职,3-5年
110,3999293,开发主管 JavaScript/Node.js,厦门,2018-04-25 14:01:17,31.0,9237,RingCentral厦门研发中心,厦门铃盛软件有限公司,500-2000人,思明区,本科,上市公司,"移动互联网,数据服务",0.0,0.0,全职,5-10年
111,3937745,JS/Web前端开发工程师,成都,2018-04-28 10:05:23,11.2,110946,康乔电子,成都康乔电子有限责任公司,50-150人,武侯区,大专,不需要融资,"硬件,信息安全",104.047779,30.626818,全职,3-5年
112,2516293,JavaScript研发工程师,北京,2018-04-24 10:55:16,26.0,1686,爱奇艺,北京爱奇艺科技有限公司,2000人以上,海淀区,本科,D轮及以上,"广告营销,文化娱乐",116.313228,39.983752,全职,不限
113,3180288,Javascript开发工程师,深圳,2018-04-11 11:05:58,11.2,98936,晤桥亚洲资产管理咨询与软件,Bridge5Asia,15-50人,南山区,本科,未融资,"企业服务,金融",113.917012,22.483009,全职,1-3年
114,474206,JavaScript/H5开发工程师,上海,2018-04-08 10:31:25,21.0,6636,携程,携程计算机技术（上海）有限公司,2000人以上,长宁区,本科,上市公司,"移动互联网,旅游",121.35631021,31.22061947,全职,3-5年
115,4184393,JS开发工程师,杭州,2018-03-30 10:44:17,28.0,297503,朗熙和,杭州朗熙和科技有限公司,少于15人,西湖区,本科,上市公司,"移动互联网,金融",120.137204,30.273066,全职,3-5年
116,4229122,cocos2d-x-js/白鹭引擎客户端,广州,2018-04-23 18:32:44,14.0,42838,广州轩意,广州轩意网络科技有限公司,50-150人,天河区,大专,A轮,游戏,113.37245,23.126167,全职,不限
117,4422871,JS 软件工程师,上海,2018-04-15 11:31:15,12.4,358962,宏河信息,上海宏河信息技术有限公司,少于15人,闵行区,本科,未融资,移动互联网,121.508431,31.098251,全职,1-3年
118,3789691,Node js研发工程师,杭州,2018-04-28 09:15:05,25.2,1121,智课网,北京创新伙伴教育科技有限公司,500-2000人,滨江区,本科,B轮,"移动互联网,教育",120.216487,30.211519,全职,1-3年
119,4253841,JAVASCRIPT高级开发顾问,北京,2018-04-27 08:39:18,16.2,250467,龙创腾达,北京龙创腾达科技有限公司,15-50人,海淀区,本科,不需要融资,"企业服务,移动互联网",116.309929,40.02723,全职,5-10年
120,4353810,javascript,深圳,2018-04-08 17:50:24,7.0,348591,盛世华唐,深圳市盛世华唐网络科技有限公司,15-50人,南山区,本科,不需要融资,"移动互联网,电子商务",113.945711,22.545916,全职,3-5年
121,2538107,JavaScript,北京,2018-04-08 10:44:32,21.0,1686,爱奇艺,北京爱奇艺科技有限公司,2000人以上,海淀区,本科,D轮及以上,"广告营销,文化娱乐",116.315603,39.98127806,全职,不限
122,4428397,JavaScript研发工程师,武汉,2018-04-16 16:41:19,9.0,115066,合力亿捷,武汉合力亿捷科技有限公司,500-2000人,江汉区,大专,上市公司,"移动互联网,企业服务",114.26221,30.60435,全职,3-5年
123,4322737,JS后端开发工程师(node.js),上海,2018-04-27 10:07:16,12.0,170974,上海悟途信息科技有限公司,上海悟途信息科技有限公司,15-50人,长宁区,本科,天使轮,移动互联网,121.353229,31.221083,全职,1-3年
124,4350881,Cocos2d-js/H5游戏开发工程师,深圳,2018-04-24 09:57:23,12.0,125224,博艺游,深圳市博艺游科技有限公司,15-50人,南山区,大专,未融资,游戏,113.952696,22.530438,全职,3-5年
125,4492432,Javascript开发工程师,北京,2018-04-27 11:21:57,10.2,373359,景丰泰禾,北京景丰泰禾科技有限公司,15-50人,海淀区,本科,未融资,数据服务,116.344943,40.040487,全职,1-3年
126,4238228,JavaScript/Vue,北京,2018-04-29 07:55:54,19.0,67621,毫末科技,北京毫末科技有限公司,50-150人,朝阳区,本科,未融资,"移动互联网,企业服务",116.30932,39.96575,全职,1-3年
127,4318579,H5/Cocos2d-JS游戏开发工程师,西安,2018-04-11 09:40:12,9.0,142081,多比特,武汉市多比特信息科技有限公司,50-150人,雁塔区,本科,不需要融资,"移动互联网,文化娱乐",108.859831,34.196892,全职,1-3年
128,3943338,cocos2dx-js高级研发工程师,北京,2018-04-13 10:19:25,14.4,96019,巡山虎科技,北京巡山虎科技有限公司,15-50人,朝阳区,本科,A轮,"移动互联网,游戏",116.417537,39.977121,全职,1-3年
129,4376222,JavaScript开发工程师/实习生,深圳,2018-04-05 11:59:34,5.6,167319,汇研科技深圳,汇研（深圳）信息科技有限公司,少于15人,福田区,大专,不需要融资,"移动互联网,企业服务",114.081269,22.539044,全职,不限
130,4143040,Javascript高级软件开发工程师,苏州,2018-04-25 13:13:17,18.0,106555,ZOOM,软视视频软件（杭州）有限公司,500-2000人,工业园区,本科,D轮及以上,"移动互联网,社交网络",120.669101,31.295591,全职,3-5年
131,4094872,JavaScript开发工程师,深圳,2018-04-10 11:08:41,10.8,18881,英飞拓,深圳英飞拓科技股份有限公司,500-2000人,龙华新区,本科,上市公司,硬件,114.06826,22.68264,全职,3-5年
132,4267628,Cocos2d-JS游戏开发工程师,厦门,2018-04-28 17:03:38,11.2,260168,淘金互动,厦门淘金互动网络股份有限公司,15-50人,思明区,大专,A轮,"游戏,移动互联网",118.082658,24.445567,全职,1-3年
133,4367454,cocos2d-js游戏开发工程师,杭州,2018-04-26 10:57:01,11.2,88349,齐趣科技,杭州齐趣科技有限公司,50-150人,滨江区,不限,不需要融资,"移动互联网,游戏",119.993591,29.993662,全职,1-3年
134,3503236,React JS 工程师,深圳,2018-04-25 12:22:34,19.0,61825,Bindo Labs,边度网络科技（深圳）有限公司,50-150人,南山区,本科,A轮,电子商务,0.0,0.0,全职,3-5年
135,4309621,"前端开发工程师JS,javascript,CSS",上海,2018-04-27 10:07:22,12.0,170974,上海悟途信息科技有限公司,上海悟途信息科技有限公司,15-50人,长宁区,本科,天使轮,移动互联网,,,全职,1-3年
136,4036316,H5/Cocos2d-JS游戏开发工程师,武汉,2018-04-27 08:50:44,9.8,142081,多比特,武汉市多比特信息科技有限公司,50-150人,洪山区,大专,不需要融资,"移动互联网,文化娱乐",114.406728,30.477141,全职,1-3年
137,4398324,js软件开发工程师,深圳,2018-04-10 17:08:31,9.8,132997,深圳鼎游,深圳市鼎游信息技术有限公司,150-500人,南山区,本科,天使轮,"O2O,旅游",113.928614,22.568374,全职,1-3年
138,4370973,js讲师,北京,2018-04-27 08:37:04,12.0,114259,北京八维研修学院,北京八维研修学院,2000人以上,海淀区,大专,未融资,教育,0.0,0.0,全职,1-3年
139,3576643,JavaScript工程师,北京,2018-04-09 15:16:05,7.0,251098,多媒体处理技术,北京知法平台科技有限公司,15-50人,大兴区,本科,不需要融资,"移动互联网,企业服务",116.33482,39.76472,全职,不限
140,4373541,区块链JS开发工程师,上海,2018-04-04 15:11:11,19.0,246595,BitBill,上海大谈信息科技有限公司,15-50人,长宁区,本科,A轮,"移动互联网,其他",121.351981,31.222033,全职,3-5年
141,4449737,JS游戏开发工程师,北京,2018-04-27 15:34:00,6.6,64615,百酷门,北京百酷门科技有限公司,15-50人,石景山区,不限,不需要融资,"移动互联网,游戏",116.22758,39.904916,全职,不限
142,4409037,js工程师,北京,2018-04-12 10:51:00,14.0,170899,CGTN,央视国际视频通讯有限公司,150-500人,朝阳区,本科,不需要融资,移动互联网,116.463846,39.915029,全职,3-5年
143,4106962,Web Javascript高级软件开发工程师,苏州,2018-04-18 12:09:27,14.0,63381,Zoom,软视软件（苏州）有限公司,50-150人,吴中区,本科,D轮及以上,"数据服务,移动互联网",120.669101,31.295591,全职,3-5年
144,4399781,Javascript/web前端开发工程师,杭州,2018-04-10 20:40:43,20.8,353931,美国彼爱医疗,"Pier 88 Health, Inc.",15-50人,滨江区,不限,A轮,"移动互联网,医疗健康",120.180565,30.188353,全职,3-5年
145,4081412,高级原生JS开发工程师,成都,2018-04-27 09:09:41,16.0,47102,四方伟业,成都四方伟业软件股份有限公司,500-2000人,武侯区,本科,不需要融资,移动互联网,104.03813,30.61959,全职,3-5年
146,3607977,"JS,Javascript,node.js工程师",深圳,2018-04-20 15:10:16,7.0,65843,赛尔姆信息科技,深圳赛尔姆信息科技有限公司,少于15人,福田区,大专,未融资,"移动互联网,企业服务",114.067239,22.547158,全职,1-3年
147,4493880,职位名称：Cocos2d-js游戏开发工程师,上海,2018-04-27 14:48:41,15.2,112483,悠扬网络,上海悠扬网络科技有限公司,50-150人,普陀区,大专,未融资,"移动互联网,电子商务",121.39484,31.229559,全职,1-3年
148,4173065,js讲师,北京,2018-04-24 11:00:52,12.0,168687,北京八维研修学院,北京市海淀区八维计算机培训学校,2000人以上,大兴区,本科,未融资,教育,116.31649,39.51511,全职,1-3年
149,3183901,JAVA/HTML/CSS/JavaScript,北京,2018-04-23 08:56:57,7.0,25372,易商迅达,北京易商迅达科技有限公司,15-50人,海淀区,本科,未融资,"企业服务,数据服务",116.342844,39.975856,实习,不限
150,4146152,js讲师,北京,2018-04-27 13:54:39,19.0,114259,北京八维研修学院,北京八维研修学院,2000人以上,海淀区,不限,未融资,教育,116.299095,40.039535,全职,5-10年
151,4409073,Cocos2d-JS游戏开发工程师,深圳,2018-04-18 15:12:23,14.0,227884,希茂科技,深圳希茂科技有限公司,15-50人,南山区,本科,不需要融资,"移动互联网,游戏",113.949756,22.550734,全职,1-3年
152,4145450,高级js工程师,北京,2018-04-23 14:11:29,14.0,57420,小能科技,小能科技（北京）有限公司,150-500人,海淀区,本科,B轮,移动互联网,0.0,0.0,全职,3-5年
153,4380981,Javascript高级研发工程师,北京,2018-04-18 15:45:45,12.0,41649,易云华控,北京易云华控技术有限公司,50-150人,海淀区,大专,不需要融资,文化娱乐,116.31201,40.03627,全职,3-5年
154,3204464,js工程师/前端/web,杭州,2018-04-08 15:46:56,5.6,102594,跃迁科技,杭州跃迁科技有限公司,少于15人,西湖区,本科,未融资,"移动互联网,电子商务",120.095366,30.30994,全职,1-3年
155,4072871,JS SDK 研发工程师,北京,2018-04-27 14:59:08,10.8,102685,神策网络科技,神策网络科技（北京）有限公司,150-500人,海淀区,本科,C轮,数据服务,116.33884,39.99833,全职,应届毕业生
156,4468416,高级前端工程师-负责人/JS高级开发工程师/,北京,2018-04-27 10:50:39,24.0,155709,乐学营,北京乐学游文化发展有限公司,15-50人,朝阳区,本科,天使轮,"移动互联网,教育",116.469892,39.934345,全职,3-5年
157,3248292,App测试工程师 - js方向,北京,2018-04-26 10:46:26,21.0,175557,便利蜂,便利蜂商贸有限公司,2000人以上,海淀区,不限,不需要融资,"移动互联网,生活服务",116.310136,39.983619,全职,1-3年
158,4329721,cocos2d-js客户端工程师,深圳,2018-04-03 09:46:43,16.8,2646,途游,在线途游（北京）科技有限公司,150-500人,南山区,本科,B轮,"移动互联网,游戏",113.944081,22.54882,全职,不限
159,2057115,前端开发工程师（偏JavaScript 方向）,西安,2018-04-28 09:15:28,5.8,118198,西安卓派信息科技有限公司,西安卓派信息科技有限公司,50-150人,高新技术产业开发区,不限,B轮,"O2O,其他",108.88432979,34.21327988,全职,1-3年
160,3433981,JS高级研发工程师,深圳,2018-04-24 19:00:18,19.0,109474,首汇焦点,首汇焦点（北京）科技有限公司,150-500人,南山区,大专,B轮,文化娱乐,0.0,0.0,全职,5-10年
161,4398561,前端开发html/css/js,上海,2018-04-10 17:26:11,5.6,111312,星轨游戏,上海星轨网络科技有限公司,少于15人,静安区,大专,未融资,"游戏,移动互联网",121.457189,31.292678,全职,1年以下
162,4134931,"web前端,H5/CSS3,Javascript,",深圳,2018-04-09 11:48:08,10.8,53465,有标,深圳市易化科技有限公司,少于15人,宝安区,大专,未融资,移动互联网,113.86679,22.558277,全职,3-5年
163,2862239,JS全栈开发工程师,北京,2018-04-28 16:21:39,19.0,83710,iHealth,北京爱和健康科技有限公司,150-500人,海淀区,本科,不需要融资,"移动互联网,医疗健康",116.336046,40.027804,全职,1-3年
164,4282417,C#/Java/JavaScript软件开发工程师,西安,2018-04-27 10:55:09,5.6,252096,晟思智能,陕西晟思智能测控有限公司,15-50人,西安国家民用航天产业基地,不限,未融资,硬件,108.977487,34.156629,全职,不限
165,4059744,JS SDK开发,北京,2018-04-27 14:59:09,24.0,102685,神策网络科技,神策网络科技（北京）有限公司,150-500人,海淀区,本科,C轮,数据服务,116.33884,39.99833,全职,3-5年
166,3635683,Node JS工程师,杭州,2018-04-09 15:06:33,21.0,171980,Rokid,芋头科技（杭州）有限公司,150-500人,余杭区,不限,B轮,"电子商务,移动互联网",120.044596,30.254907,全职,3-5年
167,4472025,Javascript 3D图形引擎开发工程师,北京,2018-04-26 13:41:49,14.0,144646,毕加索,北京毕加索智能科技有限公司,50-150人,海淀区,本科,B轮,移动互联网,116.323042,39.975512,全职,1-3年
168,4350125,初级游戏服务器工程师/JS游戏服务器,成都,2018-04-28 14:53:57,11.2,267147,游技网络,成都游技网络科技有限公司,50-150人,双流区,大专,不需要融资,"移动互联网,企业服务",104.069204,30.546203,全职,1-3年
169,4314503,JavaScript前端研发工程师,上海,2018-04-27 13:37:07,14.0,221657,花动传媒,上海动搜网络科技有限公司,50-150人,闵行区,本科,B轮,电子商务,121.383882,31.175921,全职,1-3年
170,4303269,JavaScript 实习生,上海,2018-04-25 19:08:02,4.2,54962,岚智网络,上海岚智网络科技有限公司,15-50人,徐汇区,本科,不需要融资,"移动互联网,电子商务",121.432722,31.181683,实习,不限
171,4350810,前端JavaScript开发工程师,广州,2018-04-25 09:43:07,8.6,122071,川谷科技,广州川谷网络科技有限公司,50-150人,番禺区,大专,未融资,移动互联网,0.0,0.0,全职,1-3年
172,2616431,移动平台-前端开发工程师(JavaScript方向),上海,2018-04-26 14:07:10,14.0,41258,国泰君安证券股份有限公司,国泰君安证券股份有限公司,2000人以上,浦东新区,本科,上市公司,金融,121.674038,31.24771,全职,1-3年
173,2650175,JS前端开发工程师,北京,2018-04-27 19:25:31,26.0,107423,瓜子二手车直卖网,车好多旧机动车经纪(北京)有限公司,2000人以上,海淀区,本科,C轮,O2O,116.3135,40.068375,全职,3-5年
174,4375287,Javascript工程师（服务端/App/）,深圳,2018-04-20 09:36:57,10.8,198954,云蜘蛛科技股份有限公司,广东云蜘蛛科技股份有限公司,15-50人,龙岗区,大专,未融资,"移动互联网,电子商务",114.07017,22.655612,全职,1-3年
175,4386480,Web js开发,长沙,2018-04-26 15:45:08,9.6,45040,湖南创发,湖南省创发科技有限责任公司,150-500人,芙蓉区,本科,上市公司,"移动互联网,电子商务",112.993417,27.994254,全职,1-3年
176,4205916,javascript前端工程师,上海,2018-04-27 10:12:47,21.0,83249,帜讯信息,上海帜讯信息技术股份有限公司,500-2000人,浦东新区,大专,上市公司,"移动互联网,其他",0.0,0.0,全职,3-5年
177,4391390,前端开发工程师（Javascript）,上海,2018-04-24 16:34:45,14.0,169626,UtoVR,上海优土视真文化传媒有限公司,15-50人,浦东新区,大专,天使轮,"移动互联网,文化娱乐",121.59734,31.208663,全职,3-5年
178,4402234,前端js开发工程师,北京,2018-04-11 11:39:56,27.0,43016,美菜网,北京云杉世界信息技术有限公司,2000人以上,朝阳区,本科,D轮及以上,"电子商务,O2O",116.401057,39.972219,全职,3-5年
179,4359045,前端开发工程师（js方向）,广州,2018-04-25 15:34:08,7.0,23157,印功夫．赢天下！,广州印功夫网络科技有限公司,50-150人,萝岗区,本科,B轮,"移动互联网,硬件",113.451355,23.164306,全职,1-3年
180,4114646,JS SDK开发（合肥）,合肥,2018-04-27 14:59:08,14.0,102685,神策网络科技,神策网络科技（北京）有限公司,150-500人,蜀山区,本科,C轮,数据服务,117.139191,31.831408,全职,不限
181,4311090,前端开发JavaScript工程师,广州,2018-04-25 14:43:28,10.4,122071,川谷科技,广州川谷网络科技有限公司,50-150人,海珠区,大专,未融资,移动互联网,0.0,0.0,全职,1-3年
182,475426,JavaScript Reactjs 开发,上海,2018-04-25 19:08:02,9.8,54962,岚智网络,上海岚智网络科技有限公司,15-50人,徐汇区,本科,不需要融资,"移动互联网,电子商务",121.432833,31.181651,全职,1-3年
183,4035527,Javascript全栈工程师,北京,2018-04-26 09:35:06,31.0,55399,北京频果,北京频果市场营销策划有限公司,15-50人,朝阳区,本科,天使轮,"移动互联网,电子商务",116.483199,39.887848,全职,3-5年
184,3726458,高级软件工程师（前端/javascript）,北京,2018-04-27 14:02:49,19.0,142941,网录科技,北京网录科技有限公司,50-150人,海淀区,本科,不需要融资,"金融,数据服务",116.323585,39.964647,全职,5-10年
185,4214714,高级Javascript工程师（爬虫相关）,广州,2018-04-04 16:45:43,16.8,277813,通游宝,广州通游宝信息科技有限公司,15-50人,天河区,大专,不需要融资,电子商务,113.332769,23.158894,全职,3-5年
186,4222905,JS全栈开发,上海,2018-04-28 14:14:00,24.0,50995,Mediasia,Mediasia Interactive,少于15人,静安区,本科,不需要融资,招聘,121.44402,31.236477,全职,3-5年
187,4151040,高级js前端工程师,北京,2018-04-29 23:14:48,24.0,36353,寻宝天行,北京寻宝天行网络技术有限公司,50-150人,朝阳区,不限,不需要融资,电子商务,116.424816,40.004194,全职,5-10年
188,4494985,C++/C、Go、Python、Javascript其中的一种,成都,2018-04-27 16:29:52,6.2,130800,舞牛科技,成都舞牛科技有限公司,少于15人,双流县,不限,不需要融资,"移动互联网,企业服务",104.042464,30.4989,全职,不限
189,4353134,高级前端开发工程师【JavaScript基础扎实】,厦门,2018-04-23 11:20:11,14.4,46629,金诚集团,浙江诚泽金开投资管理有限公司,2000人以上,集美区,本科,上市公司,金融,118.063429,24.59279,全职,3-5年
190,4348418,JS游戏服务器开发,成都,2018-04-28 10:39:09,11.2,267146,绘意,成都绘意动画制作有限公司,50-150人,高新区,不限,不需要融资,"游戏,移动互联网",104.061686,30.576766,全职,1-3年
191,4160141,高级前端工程师(Javascript),上海,2018-04-28 09:55:23,19.0,258451,汉州金服,上海汉州互联网金融信息服务有限公司,15-50人,黄浦区,本科,未融资,"移动互联网,电子商务",121.470656,31.204183,全职,3-5年
192,4200931,cocos2D js 研发,长沙,2018-04-21 19:08:50,10.8,332867,延信科技,成都延信科技有限公司,50-150人,岳麓区,不限,不需要融资,移动互联网,112.94012,28.20256,全职,不限
193,1651598,前端JS工程师,北京,2018-04-28 10:44:29,26.0,43055,轻松筹,北京轻松筹网络科技有限公司,150-500人,东城区,大专,C轮,"移动互联网,金融",116.42454227,39.94877813,全职,3-5年
194,4365387,js爬虫工程师,杭州,2018-04-27 10:14:38,10.8,87100,信用管家,杭州信牛网络科技有限公司,150-500人,西湖区,不限,A轮,"移动互联网,金融",120.069706,30.2916,全职,不限
195,4059733,JS SDK开发,合肥,2018-04-27 14:59:09,14.0,102685,神策网络科技,神策网络科技（北京）有限公司,150-500人,蜀山区,本科,C轮,数据服务,117.139191,31.831408,全职,1-3年
196,3720880,高级js前端工程师,北京,2018-04-29 23:14:48,19.0,36353,寻宝天行,北京寻宝天行网络技术有限公司,50-150人,朝阳区,本科,不需要融资,电子商务,116.424816,40.004194,全职,3-5年
197,3908167,Javascript全栈开发工程师,北京,2018-04-03 23:40:58,19.0,252163,核淘数据,北京小砖科技有限公司,少于15人,朝阳区,本科,A轮,"数据服务,移动互联网",116.46993,39.89974,全职,不限
198,3479521,js前端开发工程师,北京,2018-04-25 10:09:54,12.0,14563,有信网络,深圳市有信网络技术有限公司,150-500人,朝阳区,本科,B轮,移动互联网,116.480284,39.996202,全职,1-3年
199,4087626,JavaScript全栈工程师,郑州,2018-04-23 13:20:49,9.0,35654,脉冲软件科技,郑州脉冲软件科技有限公司,15-50人,金水区,不限,不需要融资,"移动互联网,企业服务",113.69311,34.80706,全职,3-5年
200,3707773,JS前端开发工程师,西安,2018-03-30 09:25:27,10.4,16831,武汉佰钧成技术有限公司,武汉佰钧成技术有限责任公司,2000人以上,高新技术产业开发区,本科,不需要融资,移动互联网,0.0,0.0,全职,3-5年
201,4488543,JavaScript游戏后端（新人）,深圳,2018-04-26 16:07:17,4.2,183399,Apogames,深圳市爱谱海网络有限公司,少于15人,南山区,不限,天使轮,游戏,113.944613,22.540971,全职,应届毕业生
202,3451179,js前端开发,长沙,2018-04-27 09:23:42,11.2,237875,伯格网络科技,长沙伯格网络科技有限公司,50-150人,开福区,本科,天使轮,"移动互联网,生活服务",112.970951,28.202139,全职,3-5年
203,3577009,JavaScript前端开发工程师,深圳,2018-04-28 14:22:07,11.2,68524,编程猫,深圳点猫科技有限公司,150-500人,南山区,本科,B轮,"移动互联网,教育",113.947429,22.553813,全职,不限
204,4195971,前端研发工程师(JS),北京,2018-04-11 21:07:46,17.0,63026,DailyCast,北京简道致远科技有限公司,15-50人,海淀区,本科,A轮,移动互联网,,,全职,3-5年
205,4370488,javascript全栈工程师,郑州,2018-04-04 09:36:15,6.8,111621,迹客科技,上海迹客科技,15-50人,高新区,本科,未融资,"移动互联网,企业服务",113.54322,34.8069,全职,1-3年
206,4379211,Node JS Restful开发工程师,北京,2018-04-27 10:34:03,28.0,1650,联想集团,联想（北京）有限公司,2000人以上,海淀区,硕士,上市公司,"移动互联网,数据服务",116.298785,40.053195,全职,3-5年
207,3282575,Cocos2d-js游戏客户端研发工程师,天津,2018-04-25 17:17:41,8.4,209516,雅狐,天津雅狐科技有限公司,少于15人,南开区,不限,不需要融资,"游戏,移动互联网",117.122403,39.097231,全职,不限
208,4274739,Javascript 工程师 Node.js方向,上海,2018-04-28 09:52:31,13.2,159038,蜂雀网络,上海蜂雀网络科技有限公司,15-50人,闵行区,本科,未融资,"游戏,企业服务",121.381709,31.112813,全职,1-3年
209,4280961,IT编程培训JavaScript讲师，有开发经验优,许昌,2018-04-03 12:10:41,7.0,344773,鲤鱼软件培训中心,河南朋来网络科技有限公司,少于15人,魏都区,大专,不需要融资,教育,113.86818,34.042988,全职,3-5年
210,4120147,Cocos2d-js前端开发工程师,深圳,2018-04-28 11:39:26,28.0,178246,金泰长丰,深圳市金泰长丰科技有限公司,50-150人,南山区,本科,不需要融资,游戏,113.939614,22.554378,全职,3-5年
211,1525112,WEB前端工程师/网站开发工程师（JS）,上海,2018-04-24 16:50:34,14.0,43707,趣致股份,上海致趣网络科技股份有限公司,50-150人,徐汇区,本科,D轮及以上,"移动互联网,O2O",121.464182,31.190316,全职,3-5年
212,3620354,前端JS工程师,深圳,2018-04-23 16:33:51,14.0,255993,吾爱尚信息,深圳市吾爱尚信息科技有限公司,15-50人,龙岗区,大专,天使轮,移动互联网,114.068185,22.65962,全职,3-5年
213,3043030,游戏客户端开发(js),福州,2018-04-27 10:02:09,7.0,196205,福州将神网络科技有限公司,福州将神网络科技有限公司,50-150人,鼓楼区,大专,不需要融资,"游戏,移动互联网",119.259083,26.086564,全职,不限
214,3587207,JS前端工程师,上海,2018-04-21 23:37:48,12.0,175681,析鲸信息,上海析鲸信息科技有限公司,15-50人,杨浦区,本科,未融资,"数据服务,金融",121.50781,31.287994,全职,3-5年
215,1630757,Javascript全栈工程师,苏州,2018-04-20 16:49:11,8.8,121280,簇格软件,苏州簇格软件有限公司,少于15人,工业园区,本科,未融资,"移动互联网,O2O",120.73633999,31.26547988,全职,3-5年
216,4075410,JavaScript 全栈工程师,北京,2018-04-03 15:38:10,5.2,172799,思睿峰,北京思睿峰知识产权代理有限公司,15-50人,东城区,本科,不需要融资,其他,116.434061,39.919719,兼职,不限
217,4385733,Javascript前端开发工程师,上海,2018-04-09 09:31:30,10.8,72337,绎维软件,上海绎维软件系统有限公司,50-150人,浦东新区,本科,A轮,"数据服务,其他",121.598798,31.209576,全职,1-3年
218,4254229,JS前端开发工程师,北京,2018-04-27 10:47:33,28.0,79086,网心科技,深圳市网心科技有限公司,150-500人,海淀区,本科,未融资,"移动互联网,企业服务",116.331999,39.977084,全职,不限
219,4396059,Javascript工程师（服务端/App/Nod,深圳,2018-04-20 09:36:57,10.8,198954,云蜘蛛科技股份有限公司,广东云蜘蛛科技股份有限公司,15-50人,龙岗区,大专,未融资,"移动互联网,电子商务",114.07017,22.655612,全职,1-3年
220,4500406,JS前端开发工程师,广州,2018-04-28 16:32:43,9.0,208933,木木健康,广州九木数码科技有限公司,15-50人,天河区,大专,未融资,移动互联网,113.345439,23.143974,全职,1-3年
221,4497403,前端开发JS,深圳,2018-04-28 10:17:32,14.0,23020,就医120,深圳市万泉河医疗科技有限公司,15-50人,龙岗区,本科,A轮,"移动互联网,医疗健康",114.065809,22.657977,全职,3-5年
222,2905611,高级前端工程师（JS）,西安,2018-04-26 10:43:32,8.8,146089,一寸虫,西安一寸虫网络科技有限公司,15-50人,未央区,大专,未融资,"电子商务,移动互联网",108.94687,34.32898,全职,3-5年
223,4212817,WEB前端 JavaScript高级开发工程师,北京,2018-04-24 12:15:40,12.0,93376,火舞游戏,北京火舞科技有限公司,15-50人,朝阳区,大专,不需要融资,游戏,116.514226,39.905452,全职,3-5年
224,2763510,JS前端开发工程师,广州,2018-04-26 09:14:08,8.4,105391,北京新桥信通,北京新桥信通科技股份有限公司,15-50人,越秀区,本科,未融资,"企业服务,数据服务",0.0,0.0,全职,1-3年
225,4243850,前端开发工程师JS方向,广州,2018-04-25 15:41:33,10.0,94093,麦可视觉设计,麦可视觉设计,少于15人,天河区,不限,不需要融资,其他,113.433459,23.125779,全职,3-5年
226,4432293,JS高级开发（播放器）,北京,2018-04-17 11:03:16,23.2,183096,北京国鼎源创智能科技有限公司,北京国鼎源创智能科技有限公司,少于15人,海淀区,大专,不需要融资,"移动互联网,数据服务",116.301427,40.053087,全职,3-5年
227,2998887,前端开发（精通JavaScript）,上海,2018-04-01 15:16:05,17.0,116461,上海炎武金服,上海炎武金融信息服务有限公司,50-150人,浦东新区,本科,上市公司,"移动互联网,金融",121.513415,31.217592,全职,3-5年
228,4462502,JS前端高级软件工程师,北京,2018-04-27 13:22:39,19.0,69419,煜邦电力,北京煜邦电力技术股份有限公司,500-2000人,海淀区,大专,B轮,硬件,0.0,0.0,全职,3-5年
229,4337779,AS+JS 前端开发工程师,深圳,2018-04-20 09:25:01,18.4,205724,少年创客,深圳少年创客科技有限公司,50-150人,宝安区,本科,A轮,"移动互联网,教育",113.911477,22.558395,全职,3-5年
230,3363171,JS前端,济南,2018-04-26 09:53:22,6.8,69217,济南团谱,济南团谱信息技术有限公司,15-50人,历下区,不限,未融资,"移动互联网,游戏",117.13681,36.67636,全职,3-5年
231,2788306,PHP/Node js后端开发工程师,深圳,2018-04-28 14:52:30,17.8,32687,前海汇流,深圳市前海汇流信息科技有限公司,50-150人,南山区,本科,A轮,移动互联网,113.9422,22.54878,全职,1-3年
232,4356623,JavaScript全栈工程师,杭州,2018-04-08 19:06:47,28.0,332032,5th,杭州第伍区科技有限公司,50-150人,西湖区,不限,不需要融资,数据服务,120.074744,30.270667,全职,不限
233,3850128,cocos creator客户端开发工程师(js),杭州,2018-04-08 14:07:59,15.0,228916,Hango,浙江彩狗文化传播有限公司,50-150人,西湖区,大专,不需要融资,"移动互联网,游戏",120.067429,30.285487,全职,不限
234,3748830,高级WEB前端开发工程师(JS),北京,2018-04-23 17:22:40,24.0,17291,PPTV聚力,上海聚力传媒技术有限公司,500-2000人,朝阳区,本科,D轮及以上,文化娱乐,116.494503,39.915824,全职,5-10年
235,2916309,Node JS高级开发工程师,广州,2018-04-03 14:39:24,12.6,31169,博胜科技,广州博胜信息科技有限公司,50-150人,海珠区,本科,不需要融资,"移动互联网,企业服务",113.321787,23.08993,全职,3-5年
236,3188149,KunLun-web前端js研发工程师,成都,2018-04-25 13:40:20,14.0,42711,BBD,成都数联铭品科技有限公司,150-500人,高新区,不限,C轮,"电子商务,数据服务",104.069694,30.555282,全职,不限
237,3401829,MIG09-浏览器内核开发高级工程师-JS引擎方向,深圳,2018-04-11 15:23:20,25.2,451,腾讯,腾讯科技(深圳)有限公司,2000人以上,南山区,本科,上市公司,"移动互联网 ,游戏",113.93362,22.540719,全职,5-10年
238,1802007,JS前端工程师,东莞,2018-04-17 16:17:39,9.6,128306,鼎点科技,东莞市鼎点网络科技有限公司,15-50人,东莞市市辖区,大专,不需要融资,"移动互联网,电子商务",113.73027027,23.00297987,全职,3-5年
239,4049583,高级前端开发工程师（JS/H5）,北京,2018-04-28 16:30:04,21.0,27298,蓝信移动（北京）科技有限公司,蓝信移动（北京）科技有限公司,150-500人,朝阳区,本科,B轮,移动互联网,116.4901,39.982669,全职,3-5年
240,4279603,前端工程师（JS）,重庆,2018-04-25 09:55:18,5.2,232677,白狮创新,重庆白狮网络科技有限公司,少于15人,渝中区,本科,天使轮,"数据服务,信息安全",106.553077,29.553887,全职,不限
241,4348599,web 开发高工（node js),深圳,2018-04-27 10:21:51,26.0,142943,博众信息,深圳市博众信息技术有限公司,500-2000人,福田区,本科,不需要融资,"移动互联网,企业服务",114.046356,22.540023,全职,5-10年
242,4353791,Node JS开发工程师,北京,2018-03-30 17:23:31,19.0,290132,合宝娱乐,北京合宝文化传媒有限公司,150-500人,朝阳区,本科,不需要融资,"广告营销,文化娱乐",0.0,0.0,全职,3-5年
243,3993455,高级前端开发工程师（JS方向）,长沙,2018-04-08 10:23:51,13.2,257029,湖南钢信钢之家,湖南钢信钢之家大数据技术有限公司,15-50人,芙蓉区,本科,不需要融资,"移动互联网,数据服务",112.989356,28.194271,全职,3-5年
244,3506303,JS全栈工程师,长沙,2018-04-28 12:24:56,12.0,106142,我来在线教育,湖南省我来信息科技有限公司,15-50人,岳麓区,本科,A轮,"移动互联网,教育",112.886728,28.208125,全职,3-5年
245,3975314,JS前端开发工程师,深圳,2018-04-25 10:03:50,11.2,302353,晓能电力,晓能（深圳）科技有限公司,50-150人,宝安区,大专,未融资,"移动互联网,数据服务",113.886667,22.566496,全职,1-3年
246,3696626,Web前端开发工程师（react js）,上海,2018-04-27 14:53:24,12.0,24995,泛微,上海泛微网络科技股份有限公司,2000人以上,闵行区,本科,上市公司,"移动互联网,企业服务",121.52396,31.07979,全职,1-3年
247,3096325,JS全栈工程师,北京,2018-04-27 20:55:56,8.4,3954,杏树林,杏树林信息技术（北京）有限公司,150-500人,东城区,本科,C轮,"移动互联网,医疗健康",116.447045,39.893135,全职,应届毕业生
248,3089383,Angular JS 中高级前端开发工程师,北京,2018-04-28 10:12:56,31.0,91666,普奥云信息,普奥云信息科技（北京）有限公司,50-150人,朝阳区,本科,A轮,数据服务,116.47254,39.995837,全职,5-10年
249,3580327,Javascript前端工程师,北京,2018-04-12 17:09:38,37.8,140601,cloump,北京科浪扑科技发展有限公司,少于15人,海淀区,本科,天使轮,数据服务,116.315344,39.983104,全职,10年以上
250,4202857,JS前端 （长沙）,长沙,2018-04-03 14:21:30,17.0,183134,高新网络科技,深圳高新网络科技有限公司,50-150人,岳麓区,本科,未融资,游戏,112.880502,28.210016,全职,1-3年
251,4234941,Javascript 前端开发工程师,北京,2018-04-24 18:40:55,19.0,41483,凤凰金融,北京凤凰理理它信息技术有限公司,500-2000人,朝阳区,本科,A轮,金融,116.471597,40.018298,全职,3-5年
252,4212795,Cocos工程师（Lua/js/Creator）,北京,2018-04-28 16:03:03,17.8,107701,展游,北京展游科技有限公司,150-500人,海淀区,不限,不需要融资,游戏,116.351631,39.977163,全职,1-3年
253,3958647,前端开发工程师（javascript）,北京,2018-04-25 14:55:33,17.8,146407,火花思维,北京心更远科技发展有限公司,150-500人,朝阳区,本科,B轮,"移动互联网,教育",116.474778,40.012649,全职,1-3年
254,3862039,JS前端软件开发工程师,深圳,2018-04-20 09:25:01,21.0,205724,少年创客,深圳少年创客科技有限公司,50-150人,宝安区,本科,A轮,"移动互联网,教育",113.911477,22.558395,全职,5-10年
255,3631768,Web前端开发工程师（react js）,上海,2018-04-27 14:53:25,12.0,24995,泛微,上海泛微网络科技股份有限公司,2000人以上,闵行区,本科,上市公司,"移动互联网,企业服务",121.52396,31.07979,全职,1-3年
256,4321206,javascript前端开发人员,北京,2018-04-23 10:51:44,17.0,47125,一起嗨,北京一起嗨网络科技有限公司,15-50人,丰台区,本科,A轮,"生活服务,招聘",116.367774,39.854686,全职,3-5年
257,4434452,WEB研发工程师 / JS全栈工程师,北京,2018-04-23 11:59:08,14.0,155432,uuloop,优优路普（北京）科技有限公司,15-50人,西城区,本科,天使轮,"移动互联网,广告营销",116.370155,39.92672,全职,3-5年
258,4469453,Android开发工程师（会JS优先）,杭州,2018-04-28 10:55:04,11.2,52068,控客信息,杭州控客信息技术有限公司,50-150人,江干区,大专,B轮,"移动互联网,硬件",120.214689,30.246987,全职,1-3年
259,3017888,JavaScript前端工程师,北京,2018-04-25 18:18:14,8.8,189993,漫动互通,漫动互通网络科技（北京）有限公司,50-150人,朝阳区,本科,不需要融资,移动互联网,116.4706,39.910716,全职,1-3年
260,4413908,JS前端开发,广州,2018-04-26 12:09:33,8.4,348907,广州乐趣,广州乐趣科技有限公司,少于15人,番禺区,大专,不需要融资,社交网络,113.333402,22.99243,全职,1-3年
261,4424167,JS前端交互工程师,深圳,2018-04-25 10:13:24,8.8,11347,云端信联,深圳市云端信联科技有限公司,50-150人,龙岗区,本科,A轮,"移动互联网,电子商务",114.05815,22.63153,全职,1-3年
262,4086119,前端JS工程师,北京,2018-04-16 09:13:21,9.8,21925,ULearning,北京文华在线科技发展有限公司,150-500人,朝阳区,本科,B轮,"移动互联网,教育",116.47322,39.91276,全职,1-3年
263,3962196,JS前端程序员,苏州,2018-04-30 08:05:30,5.6,163164,苏州酷码信息科技有限公司,苏州酷码信息科技有限公司,少于15人,吴中区,大专,未融资,移动互联网,120.606796,31.252796,全职,不限
264,3873836,前端javascript工程师,北京,2018-04-02 13:03:37,14.0,245811,明树数据,北京明树数据科技有限公司,50-150人,朝阳区,本科,不需要融资,数据服务,116.4741,40.011925,全职,1-3年
265,205658,Web前端开发(Javascript),成都,2018-04-27 18:58:20,10.8,32424,图丰信息-成都,图丰信息（成都）有限责任公司,50-150人,金牛区,本科,不需要融资,"移动互联网,数据服务",104.048551,30.683178,全职,3-5年
266,4180576,JS前端工程师,上海,2018-04-03 16:59:30,10.8,47234,爱合伙,上海合起跃信息技术有限公司,少于15人,虹口区,不限,天使轮,"移动互联网,社交网络",121.486306,31.253187,全职,不限
267,4216662,[Go/Php/Js小程序]项目培训实习生,广州,2018-04-26 11:38:56,1.4,11723,广东远景,广东远景信息科技有限公司,50-150人,越秀区,大专,未融资,移动互联网,113.30096,23.14091,全职,不限
268,4435825,H5/JS前端工程师,北京,2018-04-17 16:09:00,14.0,81812,易越,北京易越信息技术有限公司,15-50人,朝阳区,本科,A轮,移动互联网,116.487254,39.913556,全职,3-5年
269,3523263,web前端开发（JS）,成都,2018-04-23 10:11:28,7.8,86244,成都优译信息技术,成都优译信息技术有限公司,50-150人,武侯区,本科,A轮,"移动互联网,数据服务",104.037191,30.62539,全职,1-3年
270,3865469,web前端（react js/angular2）,上海,2018-04-27 14:53:22,17.0,24995,泛微,上海泛微网络科技股份有限公司,2000人以上,闵行区,本科,上市公司,"移动互联网,企业服务",121.52396,31.07979,全职,3-5年
271,4424782,高级web前端开发工程师（原生js）,成都,2018-04-27 09:09:47,16.0,47102,四方伟业,成都四方伟业软件股份有限公司,500-2000人,武侯区,本科,不需要融资,移动互联网,104.03813,30.61959,全职,3-5年
272,4184799,资深Angular Js UI开发工程师,上海,2018-04-27 09:42:05,21.0,128830,CloudChef,上海骞云信息科技有限公司,50-150人,杨浦区,本科,B轮,"企业服务,数据服务",121.545889,31.276121,全职,5-10年
273,3759380,前端JS/Html5/CSS3工程师,郑州,2018-03-31 00:23:59,10.8,98144,房事网-河南手机报千万大报,河南华胜文化科技有限公司,15-50人,郑东新区,大专,天使轮,"电子商务,广告营销",113.735024,34.782142,全职,3-5年
274,1709899,"高级前端工程师(Web/JS, PHP|Java)",北京,2018-04-26 14:53:15,18.6,111175,ZingFront智线,智线云科技（北京）有限公司,50-150人,朝阳区,本科,A轮,"移动互联网,数据服务",116.472483,39.93868,全职,3-5年
275,1030657,JavaScript网页前端工程师,杭州,2018-04-10 10:52:49,11.4,92252,喝彩网,杭州喝彩网络科技有限公司,50-150人,西湖区,本科,A轮,"企业服务,广告营销",120.130203,30.259324,全职,1-3年
276,3740963,手机游戏程序员(java，c++、.net、js）,福州,2018-04-27 17:41:34,7.6,114824,MENA MOBILE,北京米纳科技有限公司,50-150人,鼓楼区,本科,A轮,"移动互联网,电子商务",119.307449,26.095455,全职,1年以下
277,1515007,HTML5（javascript/H5）,上海,2018-04-12 15:45:36,19.0,6636,携程,携程计算机技术（上海）有限公司,2000人以上,长宁区,本科,上市公司,"移动互联网,旅游",121.35359001,31.22129985,全职,3-5年
278,4309015,Web全栈开发（JS/Python),上海,2018-04-24 10:56:58,10.8,286559,瞬联软件,瞬联软件科技（北京）有限公司上海分公司,500-2000人,浦东新区,本科,不需要融资,"移动互联网,其他",121.598177,31.204668,全职,应届毕业生
279,1536343,前端开发工程师［HTML/JS/WEB］,北京,2018-04-19 09:03:50,7.0,25372,易商迅达,北京易商迅达科技有限公司,15-50人,海淀区,本科,未融资,"企业服务,数据服务",,,全职,1-3年
280,346811,JavaScript-度假事业部,北京,2018-04-27 09:15:57,26.6,1970,去哪儿网,北京趣拿软件科技有限公司,2000人以上,海淀区,本科,不需要融资,移动互联网,116.31545258,39.97860388,全职,3-5年
281,4243030,全栈软件（Java/Javascript）工程师,杭州,2018-04-27 02:44:58,14.0,335109,天纯软件,天纯软件（杭州）有限公司,少于15人,西湖区,本科,不需要融资,"移动互联网,医疗健康",120.133737,30.276755,全职,3-5年
282,1709886,"中级前端工程师(Web/JS, PHP|Java)",北京,2018-04-26 14:53:16,18.6,111175,ZingFront智线,智线云科技（北京）有限公司,50-150人,朝阳区,本科,A轮,"移动互联网,数据服务",116.472483,39.93868,全职,3-5年
283,1709872,"高级前端工程师(Web/JS, PHP|Java)",武汉,2018-04-26 14:53:15,12.0,111175,ZingFront智线,智线云科技（北京）有限公司,50-150人,洪山区,本科,A轮,"移动互联网,数据服务",114.417855,30.500538,全职,3-5年
284,1709859,"中级前端工程师(Web/JS, PHP|Java)",武汉,2018-04-26 14:53:16,7.0,111175,ZingFront智线,智线云科技（北京）有限公司,50-150人,洪山区,本科,A轮,"移动互联网,数据服务",114.417855,30.500538,全职,1-3年
