,职位编码,职位名称,所在城市,发布日期,薪资待遇(k),公司编码,公司名称,公司全称,公司规模,所在区域,最低学历,融资状态,公司类型,经度,纬度,全职/实习,工作经验,吸引条件
0,4230891,实施工程师,太原,2018-05-01 12:38:21,4.2,274166,拓普网络,北京拓普丰联信息工程有限公司,150-500人,小店区,大专,未融资,移动互联网,,,全职,1-3年,"['年底双薪', '通讯津贴', '周末双休', '五险一金']"
1,591193,实施工程师,广州,2018-05-01 20:42:33,6.2,53634,广东智源,广东智源信息技术有限公司,50-150人,越秀区,本科,不需要融资,"移动互联网,企业服务",113.27388043,23.14404044,全职,应届毕业生,"['技能培训', '带薪年假', '绩效奖金', '岗位晋升']"
2,2158034,实施工程师,深圳,2018-05-01 11:45:22,7.0,22563,天方达健信科技,深圳市天方达健信科技有限公司,150-500人,,大专,A轮,移动互联网,114.10823999,22.5591,全职,1-3年,"['年底双薪', '绩效奖金', '五险一金', '通讯津贴']"
3,3909520,实施工程师,南京,2018-04-28 09:54:53,14.0,97399,Trusfort芯盾时代,北京芯盾时代科技有限公司,50-150人,玄武区,本科,B轮,"移动互联网,信息安全",0.0,0.0,全职,3-5年,"['高薪', '股票期权', '内荐重奖', '餐补话补']"
4,4242875,实施工程师,广州,2018-04-27 14:04:02,14.0,54359,时速云,北京云思畅想科技有限公司,50-150人,天河区,本科,B轮,"企业服务,数据服务",113.316368,23.124662,全职,1-3年,"['节日礼物', '技能培训', '年度旅游', '岗位晋升']"
5,4046512,实施工程师,大连,2018-04-28 10:35:08,8.4,128888,推想科技,北京推想科技有限公司,50-150人,中山区,大专,B轮,"医疗健康,数据服务",0.0,0.0,全职,1年以下,"['午餐补助', '股票期权', '定期体检', '弹性工作']"
6,4365765,实施工程师--上海,上海,2018-04-27 14:59:10,10.8,102685,神策网络科技,神策网络科技（北京）有限公司,150-500人,静安区,本科,C轮,数据服务,121.471512,31.240416,全职,1-3年,"['节日礼物', '年底双薪', '股票期权', '带薪年假']"
7,3428926,实施工程师,南京,2018-04-27 16:27:56,7.6,48223,岱嘉医学,上海岱嘉医学信息系统有限公司,150-500人,玄武区,大专,未融资,医疗健康,0.0,0.0,全职,1-3年,"['节日礼物', '年底双薪', '带薪年假', '岗位晋升']"
8,3194360,实施工程师（2018届）,广州,2018-04-28 11:00:54,1.4,35283,广州惠侨,广州惠侨计算机科技有限公司,150-500人,越秀区,本科,上市公司,移动互联网,113.314638,23.126929,实习,不限,"['技能培训', '节日礼物', '绩效奖金', '岗位晋升']"
9,3741216,实施工程师,广州,2018-04-26 14:21:19,8.4,16073,航天精一,航天精一（广东）信息科技有限公司,150-500人,天河区,本科,上市公司,"移动互联网,数据服务",113.37263,23.123252,全职,1-3年,"['绩效奖金', '专项奖金', '五险一金', '通讯津贴']"
10,1352138,实施工程师,武汉,2018-04-28 13:04:55,7.6,7988,海鼎,上海海鼎信息工程股份有限公司,500-2000人,江汉区,本科,不需要融资,企业服务,114.255641,30.611761,全职,不限,"['节日礼物', '带薪年假', '绩效奖金', '岗位晋升']"
11,4449473,实施工程师,南京,2018-04-27 15:51:12,4.8,37203,九恒星,北京九恒星科技股份有限公司,150-500人,浦口区,本科,上市公司,金融,118.653306,32.071924,全职,1-3年,"['带薪年假', '绩效奖金', '岗位晋升', '年度旅游']"
12,4359440,实施工程师,三明,2018-04-26 14:06:48,5.4,16831,武汉佰钧成技术有限公司,武汉佰钧成技术有限责任公司,2000人以上,梅列区,大专,不需要融资,移动互联网,0.0,0.0,全职,1-3年,"['带薪年假', '计算机软件', '管理规范', '定期体检']"
13,4488941,实施工程师,上海,2018-04-28 09:02:29,6.8,53717,信息发展,上海中信信息发展股份有限公司,500-2000人,普陀区,本科,上市公司,"电子商务,企业服务",121.391316,31.234831,全职,1-3年,"['技能培训', '节日礼物', '带薪年假', '岗位晋升']"
14,4503085,实施工程师,广州,2018-05-01 11:14:15,7.0,274829,皓云原智,广州皓云原智信息科技有限公司,15-50人,天河区,本科,未融资,企业服务,113.333781,23.137908,全职,1-3年,"['""""']"
15,4231051,实施工程师,海口,2018-05-01 20:34:23,7.0,274166,拓普网络,北京拓普丰联信息工程有限公司,150-500人,美兰区,大专,未融资,移动互联网,110.34091,20.026091,全职,1-3年,"['年底双薪', '通讯津贴', '周末双休', '五险一金']"
16,3385187,实施工程师,北京,2018-04-27 14:59:09,14.0,102685,神策网络科技,神策网络科技（北京）有限公司,150-500人,海淀区,本科,C轮,数据服务,116.33884,39.99833,全职,3-5年,"['节日礼物', '年底双薪', '股票期权', '带薪年假']"
17,3404569,实施工程师,上海,2018-04-27 16:27:56,8.4,48223,岱嘉医学,上海岱嘉医学信息系统有限公司,150-500人,长宁区,本科,未融资,医疗健康,121.35433,31.22026,全职,不限,"['节日礼物', '年底双薪', '带薪年假', '岗位晋升']"
18,4112290,实施工程师,北京,2018-04-27 14:04:03,10.4,54359,时速云,北京云思畅想科技有限公司,50-150人,海淀区,本科,B轮,"企业服务,数据服务",116.347763,40.001464,全职,1-3年,"['节日礼物', '技能培训', '年度旅游', '岗位晋升']"
19,3717250,实施工程师,武汉,2018-04-28 09:54:53,14.0,97399,Trusfort芯盾时代,北京芯盾时代科技有限公司,50-150人,洪山区,本科,B轮,"移动互联网,信息安全",0.0,0.0,全职,3-5年,"['高薪', '股票期权', '内荐重奖', '餐补话补']"
20,2828266,实施工程师,广州,2018-04-28 11:00:54,5.8,35283,广州惠侨,广州惠侨计算机科技有限公司,150-500人,越秀区,本科,上市公司,移动互联网,113.314638,23.126929,全职,不限,"['技能培训', '节日礼物', '绩效奖金', '岗位晋升']"
21,4058176,实施工程师,重庆,2018-04-28 10:35:08,8.4,128888,推想科技,北京推想科技有限公司,50-150人,渝中区,大专,B轮,"医疗健康,数据服务",106.568892,29.55275,全职,1年以下,"['午餐补助', '股票期权', '定期体检', '弹性工作']"
22,4145257,实施工程师,西安,2018-04-28 14:36:17,8.4,309113,西点信息,西安西点信息技术有限公司,50-150人,雁塔区,本科,不需要融资,企业服务,108.910357,34.213808,全职,1-3年,"['周末双休', '社保公积金', '带薪年假', '生日福利']"
23,1545408,实施工程师,广州,2018-04-28 17:31:55,6.2,24348,中大凯旋,广州中大凯旋电子科技有限公司,150-500人,番禺区,大专,不需要融资,电子商务,113.386275,23.057,全职,1-3年,"['年终分红', '绩效奖金', '专项奖金', '五险一金']"
24,4255677,实施工程师,福州,2018-04-28 16:29:51,7.8,46961,厦门巨龙,厦门市巨龙信息科技有限公司,150-500人,鼓楼区,大专,不需要融资,"信息安全,数据服务",119.301803,26.101311,全职,3-5年,"['过节费', '技能培训', '节日礼物', '专项奖金']"
25,3731127,实施工程师,上海,2018-04-26 15:47:12,10.8,117189,追一科技,深圳追一科技有限公司,150-500人,长宁区,本科,B轮,"移动互联网,企业服务",121.445863,31.203242,全职,1-3年,"['期权激励', '年底双薪', '带薪年假', '节日礼物']"
26,4235779,实施工程师,杭州,2018-04-28 11:43:30,1.4,68457,依图科技,上海依图信息技术有限公司,150-500人,西湖区,本科,C轮,数据服务,120.100605,30.269533,全职,不限,"['技能培训', '带薪年假', '绩效奖金', '扁平管理']"
27,3230803,实施工程师,石家庄,2018-04-25 18:02:26,5.6,55764,雨诺股份,青岛雨诺网络信息股份有限公司,50-150人,桥西区,大专,A轮,"移动互联网,企业服务",114.477709,38.029274,全职,不限,"['年底双薪', '股票期权', '绩效奖金', '岗位晋升']"
28,4233859,实施工程师,深圳,2018-04-28 17:34:16,9.6,124751,石竹软件,广州石竹计算机软件有限公司,50-150人,龙岗区,本科,不需要融资,"企业服务,数据服务",0.0,0.0,全职,3-5年,"['五天7小时', '定期体检', '通讯津贴', '带薪年假']"
29,3126684,实施工程师,杭州,2018-04-28 11:30:18,4.8,45150,杭州施强教育科技有限公司,杭州施强网络科技有限公司,2000人以上,滨江区,大专,不需要融资,"移动互联网,教育",120.182541,30.18872,全职,不限,"['技能培训', '专项奖金', '免费班车', '岗位晋升']"
30,4389083,实施工程师 (MJ000049),广州,2018-04-28 10:35:07,7.0,128888,推想科技,北京推想科技有限公司,50-150人,白云区,大专,B轮,"医疗健康,数据服务",0.0,0.0,全职,不限,"['午餐补助', '股票期权', '定期体检', '弹性工作']"
31,4139778,实施工程师--北京,北京,2018-04-27 14:59:09,10.8,102685,神策网络科技,神策网络科技（北京）有限公司,150-500人,海淀区,本科,C轮,数据服务,116.339673,39.998467,全职,1-3年,"['节日礼物', '年底双薪', '股票期权', '带薪年假']"
32,2386558,实施工程师,广州,2018-04-27 13:37:33,10.8,148910,广州宸瑞,广州宸瑞软件科技有限公司,50-150人,海珠区,本科,天使轮,移动互联网,113.27431,23.09551,全职,1-3年,"['年底双薪', '绩效奖金', '带薪年假', '通讯津贴']"
33,4436253,实施工程师,南京,2018-04-25 09:08:28,4.8,128998,江苏亿科达,上海海万信息科技股份有限公司,500-2000人,玄武区,本科,不需要融资,"移动互联网,金融",118.784524,32.076644,全职,不限,[]
34,3152814,实施工程师,厦门,2018-04-28 09:01:38,3.8,72299,畅享信息,厦门畅享信息技术有限公司,150-500人,湖里区,大专,不需要融资,"移动互联网,数据服务",118.131384,24.517949,全职,不限,"['五险一金', '高温补贴', '节日礼物', '年度旅游']"
35,2946609,实施工程师,杭州,2018-04-27 09:14:56,7.0,35514,纳里健康,纳里健康科技有限公司,150-500人,滨江区,不限,B轮,医疗健康,119.993591,29.993662,全职,1-3年,"['股票期权', '带薪年假', '弹性工作', '帅哥多']"
36,4126077,实施工程师,上海,2018-04-17 13:29:36,7.0,53717,信息发展,上海中信信息发展股份有限公司,500-2000人,普陀区,大专,上市公司,"电子商务,企业服务",121.391316,31.234831,全职,3-5年,"['技能培训', '节日礼物', '带薪年假', '岗位晋升']"
37,3727840,实施工程师,贵阳,2018-04-27 15:59:54,4.2,88751,广州中软,广州中软信息技术有限公司,500-2000人,南明区,大专,不需要融资,"数据服务,硬件",0.0,0.0,全职,1-3年,"['五险一金', '管理规范', '领导好', '通讯津贴']"
38,2960611,实施工程师,杭州,2018-04-27 11:52:12,17.0,57653,惠每科技,北京惠每科技有限公司,50-150人,余杭区,大专,B轮,医疗健康,120.018165,30.280071,全职,3-5年,"['技能培训', '股票期权', '岗位晋升', '五险一金']"
39,3731108,实施工程师,北京,2018-04-26 15:47:12,10.8,117189,追一科技,深圳追一科技有限公司,150-500人,朝阳区,本科,B轮,"移动互联网,企业服务",116.476555,39.989643,全职,1-3年,"['期权激励', '年底双薪', '带薪年假', '节日礼物']"
40,3420487,实施工程师,广州,2018-04-25 10:40:35,7.0,171364,以大供应链,广东以大供应链管理有限公司,50-150人,天河区,大专,A轮,"移动互联网,医疗健康",113.341186,23.175308,全职,1-3年,"['弹性工作', '领导好', '美女多', '帅哥多']"
41,4074696,实施工程师,佛山,2018-04-17 10:51:41,4.8,61875,设计院,广东省电信规划设计院有限公司,2000人以上,禅城区,大专,上市公司,"移动互联网,金融",113.107882,22.996949,全职,不限,"['绩效奖金', '带薪年假', '通讯津贴', '年底双薪']"
42,2772087,实施工程师,重庆,2018-05-01 19:29:35,4.2,24523,哗啦啦,北京多来点信息技术有限公司,500-2000人,渝中区,大专,不需要融资,"移动互联网,O2O",106.580833,29.559059,全职,不限,"['技能培训', '岗位晋升', '领导好', '带薪年假']"
43,2895079,实施工程师,重庆,2018-04-30 11:29:09,4.8,21455,天子星,北京普照天星科技有限公司,150-500人,渝中区,大专,A轮,O2O,106.568892,29.55275,全职,1-3年,"['年度旅游', '扁平管理', '领导好', '五险一金']"
44,4456999,实施工程师,北京,2018-04-27 14:37:06,7.6,25317,金证股份,深圳市金证科技股份有限公司,2000人以上,大兴区,大专,上市公司,金融,116.564547,39.785217,全职,1-3年,"['激情的团队', '股票期权', '努力变大牛', '有舞台给您跳']"
45,3874751,实施工程师,北京,2018-04-28 10:35:07,10.8,128888,推想科技,北京推想科技有限公司,50-150人,朝阳区,大专,B轮,"医疗健康,数据服务",116.491275,39.913592,全职,1年以下,"['午餐补助', '股票期权', '定期体检', '弹性工作']"
46,4001654,实施工程师,长沙,2018-04-24 16:45:19,5.6,122035,中融汇智信息科技公司,湖南中融汇智信息科技股份有限公司,50-150人,天心区,不限,天使轮,"数据服务,企业服务",0.0,0.0,全职,1-3年,[]
47,4356280,实施工程师--深圳,深圳,2018-04-27 14:59:08,14.0,102685,神策网络科技,神策网络科技（北京）有限公司,150-500人,南山区,本科,C轮,数据服务,113.945036,22.528953,全职,1-3年,"['节日礼物', '年底双薪', '股票期权', '带薪年假']"
48,794506,实施工程师,杭州,2018-04-28 11:22:57,4.8,76610,连帆科技,杭州连帆科技有限公司,50-150人,西湖区,大专,A轮,"移动互联网,医疗健康",120.06927507,30.32152698,全职,1-3年,"['节日礼物', '带薪年假', '绩效奖金', '扁平管理']"
49,4167548,实施工程师,北京,2018-04-27 15:51:12,9.4,37203,九恒星,北京九恒星科技股份有限公司,150-500人,海淀区,本科,上市公司,金融,116.329717,39.971756,全职,1-3年,"['带薪年假', '绩效奖金', '岗位晋升', '年度旅游']"
50,2774735,实施工程师,深圳,2018-04-26 17:26:24,10.8,128065,深圳白骑士大数据有限公司,深圳白骑士大数据有限公司,50-150人,南山区,本科,A轮,"企业服务,金融",113.993578,22.99368,全职,1年以下,"['专项奖金', '大数据', '反欺诈', '带薪年假']"
51,4226502,实施工程师,拉萨,2018-05-01 20:34:24,6.8,274166,拓普网络,北京拓普丰联信息工程有限公司,150-500人,城关区,大专,未融资,移动互联网,91.12835,29.649565,全职,3-5年,"['年底双薪', '通讯津贴', '周末双休', '五险一金']"
52,2571499,实施工程师,武汉,2018-04-28 13:52:51,4.2,89397,武汉物易云通网络科技,武汉物易云通网络科技有限公司,50-150人,东湖新技术开发区,不限,A轮,"移动互联网,电子商务",114.421815,30.454765,全职,不限,"['带薪年假', '岗位晋升', '管理规范', '美女多']"
53,4295985,实施工程师,上海,2018-04-28 11:43:31,1.4,68457,依图科技,上海依图信息技术有限公司,150-500人,长宁区,本科,C轮,数据服务,121.402636,31.208967,全职,1年以下,"['技能培训', '带薪年假', '绩效奖金', '扁平管理']"
54,2681007,实施工程师,海口,2018-04-28 10:22:36,12.0,78369,欧电云,上海欧电云信息科技有限公司,150-500人,琼山区,本科,B轮,"电子商务,企业服务",110.47319,19.871771,全职,3-5年,"['试用期全薪', '定期体检', '五险一金', '弹性工作']"
55,4297438,实施工程师,广州,2018-04-27 15:59:54,6.8,88751,广州中软,广州中软信息技术有限公司,500-2000人,天河区,本科,不需要融资,"数据服务,硬件",113.374137,23.125693,全职,1-3年,"['五险一金', '管理规范', '领导好', '通讯津贴']"
56,4168753,实施工程师,西安,2018-04-20 11:06:39,6.8,43378,趣医网,上海趣医网络科技有限公司,500-2000人,高新技术产业开发区,本科,B轮,"移动互联网,医疗健康",108.876048,34.222748,全职,1-3年,"['年底双薪', '股票期权', '带薪年假', '岗位晋升']"
57,4214467,实施工程师,昆明,2018-04-20 09:38:34,9.8,25317,金证股份,深圳市金证科技股份有限公司,2000人以上,官渡区,本科,上市公司,金融,102.721752,25.021719,全职,不限,"['激情的团队', '股票期权', '努力变大牛', '有舞台给您跳']"
58,4229434,实施工程师,重庆,2018-04-28 09:01:38,4.8,72299,畅享信息,厦门畅享信息技术有限公司,150-500人,大渡口区,大专,不需要融资,"移动互联网,数据服务",106.458855,29.41796,全职,1-3年,"['五险一金', '高温补贴', '节日礼物', '年度旅游']"
59,4145071,实施工程师,苏州,2018-04-26 16:16:01,4.8,68556,伏泰科技,苏州市伏泰信息科技股份有限公司,150-500人,高新区,大专,上市公司,"数据服务,其他",120.419632,31.334459,全职,1-3年,"['节日礼物', '年底双薪', '带薪年假', '年度旅游']"
60,2603844,实施工程师,合肥,2018-04-28 10:22:37,14.0,78369,欧电云,上海欧电云信息科技有限公司,150-500人,蜀山区,本科,B轮,"电子商务,企业服务",117.260536,31.851158,全职,3-5年,"['试用期全薪', '定期体检', '五险一金', '弹性工作']"
61,4357567,实施工程师,广州,2018-04-13 10:40:42,7.6,35283,广州惠侨,广州惠侨计算机科技有限公司,150-500人,越秀区,本科,上市公司,移动互联网,113.314068,23.126462,全职,1-3年,"['技能培训', '节日礼物', '绩效奖金', '岗位晋升']"
62,4295980,实施工程师,北京,2018-04-28 11:43:31,1.4,68457,依图科技,上海依图信息技术有限公司,150-500人,海淀区,本科,C轮,数据服务,116.326837,39.983312,全职,1年以下,"['技能培训', '带薪年假', '绩效奖金', '扁平管理']"
63,3878554,实施工程师,广州,2018-04-27 09:27:24,8.8,149034,骏嘉财通,北京骏嘉财通科技有限公司,500-2000人,越秀区,本科,未融资,金融,113.267994,23.123442,全职,不限,"['专项奖金', '绩效奖金', '年终分红', '带薪年假']"
64,4419746,实施工程师,淮北,2018-04-13 17:20:00,6.2,164634,百得思维,安徽百得思维信息科技有限公司,500-2000人,相山区,本科,未融资,其他,116.798265,33.955844,全职,1-3年,[]
65,4300787,实施工程师,广州,2018-04-27 15:59:54,7.6,88751,广州中软,广州中软信息技术有限公司,500-2000人,天河区,本科,不需要融资,"数据服务,硬件",113.374137,23.125693,全职,3-5年,"['五险一金', '管理规范', '领导好', '通讯津贴']"
66,3314249,实施工程师,南京,2018-04-10 13:43:29,18.6,106483,智互联,智互联（深圳）科技有限公司,50-150人,雨花台区,本科,不需要融资,电子商务,118.817274,31.964,全职,5-10年,"['带薪年假', '通讯津贴', '弹性工作', '节日礼物']"
67,4191063,实施工程师,广州,2018-04-28 08:38:15,8.4,62627,广东亿迅,广东亿迅科技有限公司,2000人以上,天河区,不限,不需要融资,移动互联网,39.897445,116.331398,全职,1-3年,"['技能培训', '节日礼物', '年底双薪', '带薪年假']"
68,3942550,实施工程师,武汉,2018-04-27 11:37:17,14.0,96107,昊沧,上海昊沧系统控制技术有限责任公司,150-500人,洪山区,大专,B轮,"移动互联网,教育",0.0,0.0,全职,3-5年,"['技能培训', '年底双薪', '带薪年假', '绩效奖金']"
69,4045085,实施工程师,上海,2018-04-27 10:34:04,21.0,137405,Rancher,源澈科技开发（深圳）有限公司,50-150人,长宁区,本科,B轮,其他,121.351981,31.222033,全职,3-5年,"['弹性工作', '扁平管理', '五险一金', '带薪年假']"
70,4095362,实施工程师,东莞,2018-04-26 10:33:54,6.2,295441,东莞市鹏邦软件科技有限公司,东莞市鹏邦软件科技有限公司,15-50人,东莞市市辖区,大专,不需要融资,移动互联网,113.657618,22.902993,全职,1-3年,"['""""']"
71,4424254,实施工程师,广州,2018-04-16 10:21:45,9.8,320,玄武科技,广州市玄武无线科技股份有限公司,500-2000人,天河区,本科,上市公司,"移动互联网,招聘",113.320888,23.140158,全职,1-3年,"['绩效奖金', '年底双薪', '五险一金', '带薪年假']"
72,3980758,实施工程师,哈尔滨,2018-04-28 14:21:45,8.4,21236,微医集团,浙江康健绿线网络技术有限公司,500-2000人,香坊区,本科,C轮,"移动互联网,医疗健康",126.672127,45.731628,全职,3-5年,"['技能培训', '年底双薪', '节日礼物', '绩效奖金']"
73,3081949,实施工程师,深圳,2018-04-28 10:00:22,7.6,65313,浙江保融,浙江保融科技有限公司,150-500人,南山区,本科,不需要融资,金融,114.070201,22.537428,全职,1-3年,"['年底双薪', '节日礼物', '岗位晋升', '通讯津贴']"
74,3197750,实施工程师,杭州,2018-04-28 11:22:57,6.6,76610,连帆科技,杭州连帆科技有限公司,50-150人,西湖区,大专,A轮,"移动互联网,医疗健康",120.069275,30.321527,全职,不限,"['节日礼物', '带薪年假', '绩效奖金', '扁平管理']"
75,4237750,实施工程师,杭州,2018-04-28 11:43:30,3.8,68457,依图科技,上海依图信息技术有限公司,150-500人,西湖区,不限,C轮,数据服务,120.100605,30.269533,实习,应届毕业生,"['技能培训', '带薪年假', '绩效奖金', '扁平管理']"
76,4419710,实施工程师,蚌埠,2018-04-13 17:15:33,6.2,164634,百得思维,安徽百得思维信息科技有限公司,500-2000人,龙子湖区,本科,未融资,其他,117.386003,32.940367,全职,1-3年,[]
77,3477958,实施工程师,上海,2018-04-27 14:04:02,14.0,54359,时速云,北京云思畅想科技有限公司,50-150人,浦东新区,本科,B轮,"企业服务,数据服务",121.585055,31.20063,全职,1-3年,"['节日礼物', '技能培训', '年度旅游', '岗位晋升']"
78,4236089,实施工程师,南宁,2018-04-26 16:42:54,3.8,274166,拓普网络,北京拓普丰联信息工程有限公司,150-500人,青秀区,大专,未融资,移动互联网,108.37397,22.817401,全职,不限,"['年底双薪', '通讯津贴', '周末双休', '五险一金']"
79,3108543,实施工程师,广州,2018-04-26 09:32:28,9.6,28482,欧派,欧派家居集团有限公司,2000人以上,白云区,本科,上市公司,"生活服务,硬件",113.243657,23.297951,全职,3-5年,"['绩效奖金', '五险一金', '通讯津贴', '带薪年假']"
80,4134452,实施工程师J10038,北京,2018-04-28 15:45:35,14.0,143428,云知声,北京云知声信息技术有限公司,150-500人,朝阳区,本科,C轮,移动互联网,116.445782,39.970339,全职,3-5年,"['弹性工作', '领导好', '节日礼物', '六险一金']"
81,4166869,实施工程师,北京,2018-04-26 09:43:27,8.8,26426,BJCA,北京数字认证股份有限公司,500-2000人,海淀区,本科,上市公司,信息安全,116.304382,39.984408,全职,1-3年,"['五险一金', '午餐补助', '绩效奖金', '交通补助']"
82,3076295,实施工程师,上海,2018-04-24 17:15:16,4.8,24523,哗啦啦,北京多来点信息技术有限公司,500-2000人,徐汇区,大专,不需要融资,"移动互联网,O2O",121.44453,31.17152,全职,1-3年,"['技能培训', '岗位晋升', '领导好', '带薪年假']"
83,4365278,实施工程师,北京,2018-04-28 11:14:21,7.6,255,多贝网,北京多贝兄弟信息技术有限公司,50-150人,海淀区,大专,上市公司,教育,116.308114,39.978669,全职,不限,"['都是年轻人', '不打卡', '自助餐管饱', '娱乐活动管够']"
84,4158874,实施工程师-2018届毕业生,深圳,2018-04-20 09:38:34,5.2,25317,金证股份,深圳市金证科技股份有限公司,2000人以上,南山区,本科,上市公司,金融,113.94759,22.535119,全职,1年以下,"['激情的团队', '股票期权', '努力变大牛', '有舞台给您跳']"
85,2870573,实施工程师,迪庆,2018-04-19 17:17:36,5.2,176152,筑龙信息,昆明筑龙信息技术有限责任公司,150-500人,香格里拉市,本科,D轮及以上,移动互联网,99.701675,27.818468,全职,不限,[]
86,4011686,实施工程师/项目经理,西安,2018-04-28 14:36:17,8.4,309113,西点信息,西安西点信息技术有限公司,50-150人,雁塔区,本科,不需要融资,企业服务,108.910357,34.213808,全职,3-5年,"['周末双休', '社保公积金', '带薪年假', '生日福利']"
87,1074053,实施工程师,北京,2018-04-28 11:51:33,7.0,65100,北京新中新,北京新中新华捷系统集成有限公司,500-2000人,丰台区,不限,上市公司,"移动互联网,数据服务",116.296331,39.823439,全职,不限,"['节日礼物', '绩效奖金', '年度旅游', '管理规范']"
88,3098791,实施工程师,贵阳,2018-04-28 10:27:11,3.8,25157,奥诚科技,四川奥诚科技有限责任公司,50-150人,观山湖区（金阳新区）,大专,未融资,信息安全,106.612815,26.633511,全职,1-3年,"['绩效奖金', '专项奖金', '年底双薪', '五险一金']"
89,3899422,运营/实施工程师,沈阳,2018-04-28 17:46:59,4.2,149034,骏嘉财通,北京骏嘉财通科技有限公司,500-2000人,和平区,大专,未融资,金融,123.405204,41.788928,全职,不限,"['专项奖金', '绩效奖金', '年终分红', '带薪年假']"
90,3109523,实施工程师,长沙,2018-04-13 18:18:03,4.2,24523,哗啦啦,北京多来点信息技术有限公司,500-2000人,芙蓉区,大专,不需要融资,"移动互联网,O2O",112.986609,28.188981,全职,1-3年,"['技能培训', '岗位晋升', '领导好', '带薪年假']"
91,4388343,中级实施工程师,北京,2018-04-28 15:00:04,8.2,19283,天阳科技,天阳宏业科技股份有限公司,500-2000人,海淀区,本科,上市公司,"企业服务,金融",116.314526,39.982338,全职,3-5年,"['五险一金', '带薪年假', '定期体检', '午餐补助']"
92,3936046,实施工程师,广州,2018-04-02 09:05:16,10.8,90627,品骏,品骏控股有限公司,2000人以上,海珠区,本科,上市公司,"移动互联网,电子商务",113.383221,23.097039,全职,1-3年,"['年底双薪', '带薪年假', '年度旅游', '定期体检']"
93,4256387,实施工程师,宁波,2018-04-27 08:48:31,6.8,75522,美康生物,宁波美康生物科技股份有限公司,500-2000人,鄞州区,大专,上市公司,"移动互联网,医疗健康",121.557394,29.807397,全职,不限,"['项目奖金', '免费班车', '带薪年假', '年度旅游']"
94,2895086,实施工程师,成都,2018-04-30 11:29:10,4.8,21455,天子星,北京普照天星科技有限公司,150-500人,金牛区,大专,A轮,O2O,104.052236,30.691359,全职,1-3年,"['年度旅游', '扁平管理', '领导好', '五险一金']"
95,3338524,高级实施工程师,广州,2018-04-28 17:34:17,9.4,124751,石竹软件,广州石竹计算机软件有限公司,50-150人,天河区,本科,不需要融资,"企业服务,数据服务",113.34077,23.14226001,全职,3-5年,"['五天7小时', '定期体检', '通讯津贴', '带薪年假']"
96,2582647,实施工程师,深圳,2018-04-28 18:38:14,7.6,102366,星医科技,深圳星医科技有限公司,50-150人,福田区,本科,A轮,"数据服务,移动互联网",114.064275,22.569088,全职,1-3年,"['专项奖金', '带薪年假', '扁平管理', '领导好']"
97,4456443,实施工程师,广州,2018-04-27 15:59:54,5.6,88751,广州中软,广州中软信息技术有限公司,500-2000人,天河区,本科,不需要融资,"数据服务,硬件",112.993461,22.994261,全职,1-3年,"['五险一金', '管理规范', '领导好', '通讯津贴']"
98,3984790,实施工程师,上海,2018-04-28 10:17:35,14.0,356,捷通华声,北京捷通华声科技股份有限公司,150-500人,徐汇区,本科,不需要融资,"移动互联网,数据服务",121.396654,31.162903,全职,3-5年,"['股票期权', '半年调薪', '绩效奖金多', '晋升空间大']"
99,2991665,实施工程师,西宁,2018-04-26 09:41:02,4.2,125577,公众仕达,陕西公众仕达软件科技有限公司,50-150人,城西区,大专,不需要融资,"企业服务,其他",101.754411,36.634633,全职,1-3年,"['交通补助', '绩效奖金', '通讯津贴', '带薪年假']"
100,4471432,实施工程师,南京,2018-04-24 11:46:12,6.8,128998,江苏亿科达,上海海万信息科技股份有限公司,500-2000人,玄武区,本科,不需要融资,"移动互联网,金融",118.784524,32.076644,全职,不限,[]
101,4388695,实施工程师,成都,2018-04-17 09:33:41,7.0,37203,九恒星,北京九恒星科技股份有限公司,150-500人,高新区,本科,上市公司,金融,104.052942,30.581472,全职,1-3年,"['带薪年假', '绩效奖金', '岗位晋升', '年度旅游']"
102,4267054,实施工程师,杭州,2018-04-30 17:57:32,7.0,301134,认识医生,杭州认识科技有限公司,15-50人,余杭区,大专,不需要融资,医疗健康,120.002035,30.27563,全职,1-3年,"['股票期权', '年终分红', '办公环境优美', '弹性工作']"
103,4232543,实施工程师,哈尔滨,2018-04-28 14:47:32,4.2,274166,拓普网络,北京拓普丰联信息工程有限公司,150-500人,道里区,大专,未融资,移动互联网,126.611424,45.774662,全职,1-3年,"['年底双薪', '通讯津贴', '周末双休', '五险一金']"
104,2762112,实施工程师,深圳,2018-04-28 13:21:01,6.2,917,极光,深圳市和讯华谷信息技术有限公司,150-500人,南山区,本科,D轮及以上,"移动互联网,数据服务",113.907458,22.550007,全职,不限,"['五险一金', '文体活动', '团建旅游', '美味晚餐']"
105,2760258,实施工程师,济南,2018-04-13 18:17:45,4.8,24523,哗啦啦,北京多来点信息技术有限公司,500-2000人,历下区,大专,不需要融资,"移动互联网,O2O",117.054137,36.678337,全职,1-3年,"['技能培训', '岗位晋升', '领导好', '带薪年假']"
106,4450109,实施工程师,北京,2018-04-27 10:15:16,10.8,28014,永洪科技,北京永洪商智科技有限公司,150-500人,朝阳区,本科,C轮,企业服务、数据服务,116.452067,39.914005,全职,不限,"['期权股激励', '领导好', '五险一金', '巨大成长空间']"
107,3731117,实施工程师,深圳,2018-04-26 15:47:12,10.8,117189,追一科技,深圳追一科技有限公司,150-500人,南山区,本科,B轮,"移动互联网,企业服务",113.946882,22.546157,全职,1-3年,"['期权激励', '年底双薪', '带薪年假', '节日礼物']"
108,4434190,实施工程师-SHIAN-0003,上海,2018-04-17 14:16:26,8.4,53717,信息发展,上海中信信息发展股份有限公司,500-2000人,普陀区,大专,上市公司,"电子商务,企业服务",121.391316,31.234831,全职,3-5年,"['技能培训', '节日礼物', '带薪年假', '岗位晋升']"
109,3337375,实施工程师,广州,2018-04-23 23:51:29,3.8,70967,移步到微,广州三尺信息科技有限公司,15-50人,天河区,大专,A轮,"移动互联网,企业服务",113.32081,23.16259,全职,应届毕业生,"['股票期权', '绩效奖金', '扁平管理', '弹性工作']"
110,4308284,初级实施工程师,广州,2018-04-28 17:34:17,5.8,124751,石竹软件,广州石竹计算机软件有限公司,50-150人,天河区,本科,不需要融资,"企业服务,数据服务",113.34077,23.14226001,全职,1年以下,"['五天7小时', '定期体检', '通讯津贴', '带薪年假']"
111,4250928,实施工程师,广州,2018-04-28 10:46:27,4.8,61875,设计院,广东省电信规划设计院有限公司,2000人以上,天河区,大专,上市公司,"移动互联网,金融",113.357459,23.135155,全职,1-3年,"['绩效奖金', '带薪年假', '通讯津贴', '年底双薪']"
112,2893667,实施工程师,乌鲁木齐,2018-04-27 17:00:49,7.6,73576,上海蓝灯,上海蓝灯数据科技股份有限公司,150-500人,沙依巴克区,大专,未融资,数据服务,0.0,0.0,全职,不限,"['技能培训', '节日礼物', '带薪年假', '绩效奖金']"
113,2373519,实施工程师,丽水,2018-04-27 09:50:09,5.2,68785,明天医网科技,宁波市科技园区明天医网科技有限公司,150-500人,,大专,A轮,医疗健康,119.915635,28.450283,全职,1-3年,"['专项奖金', '定期体检', '绩效奖金', '年度旅游']"
114,1961949,实施工程师,武汉,2018-04-26 13:59:54,5.6,37203,九恒星,北京九恒星科技股份有限公司,150-500人,武汉经济技术开发区,本科,上市公司,金融,114.16836164,30.48964935,全职,不限,"['带薪年假', '绩效奖金', '岗位晋升', '年度旅游']"
115,2340474,实施工程师,济南,2018-04-24 08:59:27,4.8,128079,如康集团,山东如康清真食品有限公司,500-2000人,天桥区,大专,未融资,其他,116.987492,36.678016,全职,1-3年,"['带薪年假', '绩效奖金', '专项奖金']"
116,3133743,实施工程师,南京,2018-04-18 16:52:53,5.8,204247,索酷科技,南京索酷信息科技股份有限公司,50-150人,秦淮区,本科,A轮,"移动互联网,数据服务",118.87099,32.018973,全职,1-3年,"['绩效奖金', '带薪年假', '定期体检', '五险一金']"
117,4273245,实施工程师,厦门,2018-04-17 09:08:06,8.2,340169,信雅达,信雅达系统工程股份有限公司,2000人以上,思明区,大专,上市公司,"移动互联网,企业服务",118.101573,24.470886,全职,1-3年,"['股票期权', '带薪年假', '定期体检', '午餐补助']"
118,4249467,实施工程师,西宁,2018-04-25 08:59:02,3.8,274166,拓普网络,北京拓普丰联信息工程有限公司,150-500人,城中区,本科,未融资,移动互联网,101.787121,36.60851,全职,3-5年,"['年底双薪', '通讯津贴', '周末双休', '五险一金']"
119,1355060,实施工程师,兰州,2018-04-26 13:41:57,3.8,90348,聚微科技,上海聚微计算机技术有限公司,50-150人,,大专,A轮,"移动互联网,企业服务",,,全职,1-3年,"['节日礼物', '带薪年假', '领导好', '五险一金']"
120,4308251,初级实施工程师,北京,2018-04-28 16:38:11,3.8,124751,石竹软件,广州石竹计算机软件有限公司,50-150人,海淀区,本科,不需要融资,"企业服务,数据服务",116.357476,39.945704,全职,应届毕业生,"['五天7小时', '定期体检', '通讯津贴', '带薪年假']"
121,2099060,实施工程师,绍兴,2018-04-27 09:50:10,5.2,68785,明天医网科技,宁波市科技园区明天医网科技有限公司,150-500人,柯桥区,大专,A轮,医疗健康,120.49506629,30.0819417,全职,1-3年,"['专项奖金', '定期体检', '绩效奖金', '年度旅游']"
122,3682538,实施工程师,苏州,2018-04-25 16:35:37,7.6,196957,宝供一站网,广东一站网络科技有限公司,2000人以上,高新区,大专,不需要融资,"电子商务,生活服务",120.523724,31.345924,全职,1-3年,"['交通补助', '扁平管理', '弹性工作', '免费班车']"
123,4221714,实施工程师,无锡,2018-04-24 10:06:43,3.8,84316,磐哲科技,上海磐哲投资有限公司,50-150人,崇安区,大专,未融资,移动互联网,120.316979,31.586005,全职,1-3年,"['技能培训', '带薪年假', '绩效奖金', '岗位晋升']"
124,4433799,8279-实施工程师（上海）,上海,2018-04-20 09:38:34,11.8,25317,金证股份,深圳市金证科技股份有限公司,2000人以上,浦东新区,本科,上市公司,金融,121.58325,31.199447,全职,3-5年,"['激情的团队', '股票期权', '努力变大牛', '有舞台给您跳']"
125,3174800,实施工程师/技术支持,武汉,2018-04-28 09:23:30,6.2,101746,财人汇,杭州财人汇网络股份有限公司,150-500人,江汉区,本科,上市公司,"移动互联网,金融",114.26381,30.593388,全职,1-3年,"['节日礼物', '股票期权', '带薪年假', '绩效奖金']"
126,3778336,实施工程师,广州,2018-04-08 15:12:40,6.8,279690,KM男装,广州快慢品牌管理有限公司,2000人以上,荔湾区,大专,未融资,生活服务,113.243804,23.097683,全职,1-3年,[]
127,2832264,实施工程师,北京,2018-04-27 11:39:46,21.0,7835,金山办公软件,北京金山软件有限公司,2000人以上,海淀区,本科,上市公司,移动互联网,116.32274,40.036741,全职,不限,"['年底双薪', '节日礼物', '技能培训', '绩效奖金']"
128,4245110,实施工程师,西宁,2018-04-25 08:59:02,3.8,274166,拓普网络,北京拓普丰联信息工程有限公司,150-500人,城中区,本科,未融资,移动互联网,101.787121,36.60851,全职,3-5年,"['年底双薪', '通讯津贴', '周末双休', '五险一金']"
129,4352138,实施工程师,广州,2018-04-20 17:13:44,6.8,129735,广州德慷,广州市德慷电子有限公司,15-50人,天河区,大专,A轮,教育,113.377467,23.188676,全职,1-3年,"['年底双薪', '绩效奖金', '带薪年假', '美女多']"
130,2126817,实施工程师,上海,2018-04-19 10:11:54,6.2,24995,泛微,上海泛微网络科技股份有限公司,2000人以上,闵行区,本科,上市公司,"移动互联网,企业服务",121.525236,31.080356,全职,1-3年,"['技能培训', '带薪年假', '绩效奖金', '岗位晋升']"
131,3010288,实施工程师,镇江,2018-04-18 09:43:03,2.8,132806,DoRay,上海都睿网络科技有限公司,15-50人,丹阳市,不限,天使轮,"电子商务,生活服务",119.63788,31.953901,全职,1-3年,"['专项奖金', '带薪年假', '弹性工作', '节日礼物']"
132,4084233,实施工程师（中高级）-上海,上海,2018-04-28 08:57:12,14.0,26551,衡泰软件,杭州衡泰软件有限公司,500-2000人,浦东新区,本科,不需要融资,金融,121.5025,31.237015,全职,3-5年,"['全额公积金', '福利齐全', '年终奖', '大牛多多']"
133,3855207,实施工程师,杭州,2018-04-27 14:20:40,5.6,4840,光云科技,杭州光云科技股份有限公司,500-2000人,滨江区,大专,C轮,"电子商务,数据服务",120.20163,30.20211,全职,1-3年,"['绩效奖金', '五险一金', '交通补助', '节日礼物']"
134,1697707,实施工程师,宁波,2018-04-26 09:10:29,7.0,124150,宁波一网信息技术有限公司,宁波一网信息技术有限公司,50-150人,江东区,大专,不需要融资,"数据服务,医疗健康",121.62850105,29.87509054,全职,不限,"['年底双薪', '绩效奖金', '带薪年假', '定期体检']"
135,1010239,实施工程师,宁波,2018-04-27 09:50:09,5.2,68785,明天医网科技,宁波市科技园区明天医网科技有限公司,150-500人,,大专,A轮,医疗健康,,,全职,不限,"['专项奖金', '定期体检', '绩效奖金', '年度旅游']"
136,1160687,实施工程师,海口,2018-04-24 21:27:26,6.6,89910,明源云－中山.海南,中山市明源企业管理有限公司,50-150人,龙华区,大专,未融资,"移动互联网,企业服务",110.32619994,20.02980009,全职,1-3年,"['专项奖金', '带薪年假', '绩效奖金', '年度旅游']"
137,4312940,实施工程师,北京,2018-04-27 09:40:35,12.0,320,玄武科技,广州市玄武无线科技股份有限公司,500-2000人,朝阳区,本科,上市公司,"移动互联网,招聘",0.0,0.0,全职,1-3年,"['绩效奖金', '年底双薪', '五险一金', '带薪年假']"
138,2927020,实施工程师,厦门,2018-04-24 11:08:46,5.6,182895,亿星软件,厦门亿星软件有限公司,50-150人,思明区,大专,不需要融资,"企业服务,数据服务",118.186567,24.484718,全职,1-3年,"['年底双薪', '绩效奖金', '节日礼物', '美女多']"
139,4069361,2018毕业生-实施工程师,深圳,2018-04-17 15:52:31,7.6,25317,金证股份,深圳市金证科技股份有限公司,2000人以上,南山区,本科,上市公司,金融,113.947453,22.534948,全职,1年以下,"['激情的团队', '股票期权', '努力变大牛', '有舞台给您跳']"
140,4346577,实施工程师,广州,2018-04-28 11:17:21,8.4,216758,柏视医疗,广州柏视医疗科技有限公司,15-50人,海珠区,本科,A轮,"医疗健康,数据服务",113.317388,23.083801,全职,1-3年,"['五险一金', '股票期权', '领导好', '扁平管理']"
141,3471374,实施工程师,上海,2018-04-27 10:15:17,11.2,28014,永洪科技,北京永洪商智科技有限公司,150-500人,静安区,本科,C轮,企业服务、数据服务,121.444331,31.225513,全职,1-3年,"['期权股激励', '领导好', '五险一金', '巨大成长空间']"
142,4446484,实施工程师,合肥,2018-04-19 09:36:49,5.6,126112,和安科技,安徽和安科技股份有限公司,50-150人,高新区,不限,不需要融资,医疗健康,117.197821,31.825339,全职,1-3年,[]
143,4289013,2019届实施工程师实习生,杭州,2018-04-27 09:14:57,2.8,35514,纳里健康,纳里健康科技有限公司,150-500人,滨江区,不限,B轮,医疗健康,120.163129,30.184365,实习,应届毕业生,"['股票期权', '带薪年假', '弹性工作', '帅哥多']"
144,4465844,实施工程师,天津,2018-04-28 14:20:41,3.8,359173,创金联合,创金联合（天津）科技有限公司,15-50人,河西区,大专,不需要融资,生活服务,117.202649,39.094548,全职,1-3年,"['""""']"
145,4242563,实施工程师（上海）,上海,2018-04-28 08:53:38,10.8,19477,用友政务,北京用友政务软件有限公司,500-2000人,徐汇区,本科,上市公司,数据服务,121.441218,31.194385,全职,1-3年,"['五险一金', '年终奖', '补充医疗保险', '商业保险']"
146,4028841,实施工程师（上海）,上海,2018-04-27 09:53:05,9.0,267423,君合创胜,南京君合创胜数据科技有限责任公司,500-2000人,长宁区,本科,不需要融资,"企业服务,移动互联网",121.417125,31.217716,全职,1-3年,[]
147,3894936,实施工程师实习生,厦门,2018-04-28 09:01:38,4.4,72299,畅享信息,厦门畅享信息技术有限公司,150-500人,湖里区,本科,不需要融资,"移动互联网,数据服务",118.131384,24.517949,实习,应届毕业生,"['五险一金', '高温补贴', '节日礼物', '年度旅游']"
148,4313362,实施工程师,合肥,2018-04-26 15:15:55,6.2,243777,安徽芯联,安徽芯联智能科技有限公司,50-150人,高新区,大专,不需要融资,"企业服务,硬件",117.13908,31.836413,全职,不限,[]
149,3255029,实施工程师,深圳,2018-04-25 11:29:39,12.0,32679,易订货,深圳市铱云云计算有限公司,150-500人,南山区,大专,B轮,"企业服务,数据服务",113.94675756,22.55300905,全职,3-5年,"['技能培训', '年底双薪', '股票期权', '带薪年假']"
150,2099075,实施工程师,湖州,2018-04-27 09:50:10,5.2,68785,明天医网科技,宁波市科技园区明天医网科技有限公司,150-500人,吴兴区,大专,A轮,医疗健康,120.08240117,30.80268918,全职,1-3年,"['专项奖金', '定期体检', '绩效奖金', '年度旅游']"
151,4446521,实施工程师,合肥,2018-04-19 09:40:15,5.6,126112,和安科技,安徽和安科技股份有限公司,50-150人,高新区,不限,不需要融资,医疗健康,117.197821,31.825339,全职,1-3年,[]
152,4455992,2019届实习生职位-实施工程师方向,深圳,2018-04-26 13:26:41,2.4,25317,金证股份,深圳市金证科技股份有限公司,2000人以上,南山区,本科,上市公司,金融,113.993578,22.99368,实习,1年以下,"['激情的团队', '股票期权', '努力变大牛', '有舞台给您跳']"
153,4464510,实施工程师,徐州,2018-04-23 13:32:07,4.2,370409,中矿安华,江苏中矿安华科技发展有限公司,15-50人,铜山区,大专,未融资,"移动互联网,企业服务",117.141965,34.204034,全职,1年以下,"['五险一金', '全勤奖', '年终奖', '生日福利']"
154,1712272,实施工程师,杭州,2018-05-01 08:20:06,7.0,82406,高达软件,杭州高达软件系统股份有限公司,150-500人,余杭区,大专,上市公司,"移动互联网,电子商务",120.04454614,30.29279272,全职,1-3年,"['年底双薪', '免费班车', '带薪年假', '领导好']"
155,3020670,软件实施工程师,天津,2018-04-30 17:31:30,5.6,149034,骏嘉财通,北京骏嘉财通科技有限公司,500-2000人,南开区,大专,未融资,金融,117.15688,39.113562,全职,不限,"['专项奖金', '绩效奖金', '年终分红', '带薪年假']"
156,2111409,实施工程师,杭州,2018-04-28 17:20:12,7.6,139212,博晟科技,杭州博晟科技有限公司,15-50人,西湖区,本科,不需要融资,数据服务,120.076083,30.317106,全职,1-3年,"['大数据公司', '十四月薪', '带薪年假', '定期旅游']"
157,4467150,实施工程师,深圳,2018-04-26 13:56:43,10.8,21406,Coding,深圳市扣钉网络科技有限公司,50-150人,南山区,本科,B轮,数据服务,113.956462,22.537911,全职,1-3年,"['股票期权', '专项奖金', '五险一金', '带薪年假']"
158,2526123,实施工程师,佛山,2018-04-24 09:19:08,8.0,107940,深圳达普信科技有限公司,深圳达普信科技有限公司,50-150人,南海区,本科,未融资,"O2O,移动互联网",0.0,0.0,全职,1-3年,[]
159,4263945,实施工程师,西安,2018-04-20 11:06:39,6.2,43378,趣医网,上海趣医网络科技有限公司,500-2000人,高新技术产业开发区,本科,B轮,"移动互联网,医疗健康",108.876048,34.222748,全职,不限,"['年底双薪', '股票期权', '带薪年假', '岗位晋升']"
160,2595842,实施工程师,珠海,2018-04-18 15:13:26,5.6,155418,国通科技,珠海国通科技有限公司,15-50人,,大专,不需要融资,其他,113.569952,22.247429,全职,不限,[]
161,2761949,实施工程师（上海）,上海,2018-04-28 08:52:57,14.0,356,捷通华声,北京捷通华声科技股份有限公司,150-500人,徐汇区,本科,不需要融资,"移动互联网,数据服务",121.396654,31.162903,全职,3-5年,"['股票期权', '半年调薪', '绩效奖金多', '晋升空间大']"
162,4009314,高级实施工程师,杭州,2018-04-26 11:33:07,8.2,41444,米雅,杭州米雅信息科技有限公司,150-500人,滨江区,本科,不需要融资,移动互联网,120.201473,30.191055,全职,3-5年,"['年底双薪', '绩效奖金', '带薪年假', '弹性工作']"
163,4466550,实施工程师,贵阳,2018-04-23 16:11:16,5.2,134780,卫宁健康,卫宁健康科技集团股份有限公司,500-2000人,云岩区,本科,上市公司,"医疗健康,数据服务",106.692649,26.573898,全职,1-3年,[]
164,2993006,实施工程师,广州,2018-04-28 17:09:24,5.2,130943,奕报告,广州奕报告信息科技有限公司,50-150人,天河区,本科,不需要融资,移动互联网,113.373881,23.125458,全职,1-3年,"['专项奖金', '定期体检', '扁平管理', '节日礼物']"
165,4439054,证券-实施工程师（上海）,上海,2018-04-26 13:26:41,12.0,25317,金证股份,深圳市金证科技股份有限公司,2000人以上,浦东新区,本科,上市公司,金融,121.58325,31.199447,全职,3-5年,"['激情的团队', '股票期权', '努力变大牛', '有舞台给您跳']"
166,4070216,高级实施工程师,北京,2018-04-28 16:38:10,14.2,124751,石竹软件,广州石竹计算机软件有限公司,50-150人,海淀区,本科,不需要融资,"企业服务,数据服务",116.357476,39.945704,全职,5-10年,"['五天7小时', '定期体检', '通讯津贴', '带薪年假']"
167,4089801,实施工程师,南京,2018-04-28 09:37:57,10.8,127200,瀚思南京研发中心,北京瀚思安信科技有限公司南京分公司,15-50人,雨花台区,本科,B轮,"企业服务,数据服务",118.758394,31.974204,全职,3-5年,"['五险一金', '弹性工作', '领导好', '帅哥多']"
168,2506221,实施工程师实习生,杭州,2018-04-27 09:14:56,2.8,35514,纳里健康,纳里健康科技有限公司,150-500人,滨江区,大专,B轮,医疗健康,120.1631,30.1844101,实习,应届毕业生,"['股票期权', '带薪年假', '弹性工作', '帅哥多']"
169,4003960,高级实施工程师,广州,2018-04-25 15:14:58,9.6,143413,国药控股广州有限公司,国药控股广州有限公司,2000人以上,荔湾区,本科,上市公司,医疗健康,113.24643,23.13928,全职,3-5年,"['年底双薪', '交通补助', '定期体检', '绩效奖金']"
170,4447724,实施工程师,哈尔滨,2018-04-19 10:58:23,4.8,324496,工大微识,哈尔滨工大微识智能科技有限公司,15-50人,南岗区,大专,未融资,其他,126.697442,45.741484,全职,1-3年,"['""""']"
171,4194518,实施工程师（中高级）-上海,上海,2018-04-16 18:08:16,14.0,26551,衡泰软件,杭州衡泰软件有限公司,500-2000人,浦东新区,本科,不需要融资,金融,121.532369,31.215817,全职,3-5年,"['全额公积金', '福利齐全', '年终奖', '大牛多多']"
172,4184660,华北区-实施工程师,杭州,2018-04-28 11:22:57,7.6,76610,连帆科技,杭州连帆科技有限公司,50-150人,西湖区,大专,A轮,"移动互联网,医疗健康",120.069275,30.321527,全职,不限,"['节日礼物', '带薪年假', '绩效奖金', '扁平管理']"
173,3804920,实施工程师,贵阳,2018-04-23 21:05:05,4.8,159893,贵州航天云网,贵州航天云网科技有限公司,15-50人,观山湖区,本科,不需要融资,"数据服务,移动互联网",106.647575,26.612386,全职,不限,[]
174,3234618,实施工程师,福州,2018-04-03 17:15:51,6.8,68842,北京盛丰物流有限公司,福建盛丰物流集团有限公司,2000人以上,晋安区,大专,不需要融资,其他,119.36133,26.08274,全职,1-3年,"['技能培训', '绩效奖金', '岗位晋升', '领导好']"
175,3806339,软件实施工程师,广州,2018-04-27 19:06:20,9.0,143692,稻禾科技,广州稻禾信息科技有限公司,15-50人,番禺区,本科,不需要融资,"企业服务,移动互联网",113.321076,23.016253,全职,3-5年,"['弹性工作', '领导好', '技能培训', '五险一金']"
176,4453502,实施工程师,海口,2018-04-19 23:43:20,4.2,277825,联信科技,海南联信网络工程有限公司,15-50人,龙华区,大专,不需要融资,移动互联网,110.319944,20.02363,全职,不限,[]
177,4501145,实施工程师,重庆,2018-04-28 17:32:58,4.2,308821,江小白,重庆江小白酒业有限公司,2000人以上,渝北区,大专,未融资,其他,0.0,0.0,全职,1-3年,"['带薪年假', '午餐补助', '节日礼物']"
178,4499663,软件实施工程师,西安,2018-04-28 15:13:41,6.2,101746,财人汇,杭州财人汇网络股份有限公司,150-500人,雁塔区,本科,上市公司,"移动互联网,金融",108.886245,34.191226,全职,1-3年,"['节日礼物', '股票期权', '带薪年假', '绩效奖金']"
179,4495404,软件实施工程师,南宁,2018-04-27 17:11:13,5.8,16831,武汉佰钧成技术有限公司,武汉佰钧成技术有限责任公司,2000人以上,兴宁区,大专,不需要融资,移动互联网,0.0,0.0,全职,1-3年,"['带薪年假', '计算机软件', '管理规范', '定期体检']"
180,4455264,证券-2018届毕业生-实施工程师,深圳,2018-04-26 13:26:41,7.2,25317,金证股份,深圳市金证科技股份有限公司,2000人以上,南山区,本科,上市公司,金融,113.993578,22.99368,全职,1年以下,"['激情的团队', '股票期权', '努力变大牛', '有舞台给您跳']"
181,4004036,初级实施工程师,广州,2018-04-25 15:14:58,6.2,143413,国药控股广州有限公司,国药控股广州有限公司,2000人以上,荔湾区,本科,上市公司,医疗健康,113.24643,23.13928,全职,1-3年,"['年底双薪', '交通补助', '定期体检', '绩效奖金']"
182,4042564,资深实施工程师,北京,2018-04-28 16:38:11,14.2,124751,石竹软件,广州石竹计算机软件有限公司,50-150人,海淀区,本科,不需要融资,"企业服务,数据服务",116.357476,39.945704,全职,3-5年,"['五天7小时', '定期体检', '通讯津贴', '带薪年假']"
183,4495363,软件实施工程师,昆明,2018-04-27 17:07:43,5.8,16831,武汉佰钧成技术有限公司,武汉佰钧成技术有限责任公司,2000人以上,官渡区,大专,不需要融资,移动互联网,0.0,0.0,全职,1-3年,"['带薪年假', '计算机软件', '管理规范', '定期体检']"
184,4013499,实施工程师（华东区）,杭州,2018-04-28 11:22:57,6.6,76610,连帆科技,杭州连帆科技有限公司,50-150人,西湖区,大专,A轮,"移动互联网,医疗健康",120.069275,30.321527,全职,不限,"['节日礼物', '带薪年假', '绩效奖金', '扁平管理']"
185,4300526,高级实施工程师,上海,2018-04-28 10:17:07,21.0,126031,Datatist,上海画龙信息科技有限公司,15-50人,徐汇区,本科,A轮,"数据服务,广告营销",121.430795,31.187368,全职,5-10年,"['年底四薪', '股票期权', '带薪年假', '五险一金']"
186,3192302,高级实施工程师,西安,2018-04-25 18:25:33,7.6,7502,数云,杭州数云信息技术有限公司上海分公司,150-500人,雁塔区,本科,C轮,"企业服务,数据服务",108.898093,34.244143,全职,5-10年,"['绩效奖金', '股票期权', '五险一金', '通讯津贴']"
187,4466965,软件实施工程师,济南,2018-04-23 16:42:31,4.8,104298,北明软件,北明软件有限公司,2000人以上,高新区,本科,上市公司,"移动互联网,数据服务",117.141711,36.662479,全职,1-3年,"['年底双薪', '股票期权', '专项奖金', '定期体检']"
188,3427909,实施工程师,广州,2018-04-27 10:57:55,8.2,6558,明动软件,广州明动软件股份有限公司,150-500人,天河区,本科,上市公司,"企业服务,数据服务",113.350591,23.177721,全职,3-5年,"['技能培训', '节日礼物', '年底双薪', '绩效奖金']"
189,4084210,实施工程师（中高级）-北京,北京,2018-04-28 08:57:12,14.0,26551,衡泰软件,杭州衡泰软件有限公司,500-2000人,西城区,本科,不需要融资,金融,116.357325,39.910142,全职,3-5年,"['全额公积金', '福利齐全', '年终奖', '大牛多多']"
190,2030033,实施工程师,北京,2018-04-28 18:08:10,6.2,24523,哗啦啦,北京多来点信息技术有限公司,500-2000人,西城区,大专,不需要融资,"移动互联网,O2O",116.35281182,39.94134779,全职,1-3年,"['技能培训', '岗位晋升', '领导好', '带薪年假']"
191,4345571,实施工程师,广州,2018-04-28 14:06:37,4.2,129735,广州德慷,广州市德慷电子有限公司,15-50人,天河区,大专,A轮,教育,113.377467,23.188676,全职,1-3年,"['年底双薪', '绩效奖金', '带薪年假', '美女多']"
192,4335063,实施工程师,青岛,2018-04-25 10:21:28,5.6,209214,孔雀网络,青岛孔雀网络科技有限公司,50-150人,市北区,大专,未融资,"移动互联网,企业服务",117.083595,36.672417,全职,1-3年,[]
193,4389819,高级实施工程师,成都,2018-04-17 09:33:42,8.4,37203,九恒星,北京九恒星科技股份有限公司,150-500人,高新区,本科,上市公司,金融,104.052905,30.581523,全职,3-5年,"['带薪年假', '绩效奖金', '岗位晋升', '年度旅游']"
194,2295102,实施工程师,厦门,2018-04-08 10:18:06,12.0,109613,厦门迈睿,厦门迈睿软件科技有限责任公司,50-150人,思明区,本科,未融资,企业服务,118.19478901,24.49209499,全职,5-10年,"['午餐补助', '通讯津贴', '扁平管理', '五险一金']"
195,3947468,主管实施工程师,深圳,2018-04-24 19:17:33,10.0,25317,金证股份,深圳市金证科技股份有限公司,2000人以上,南山区,本科,上市公司,金融,113.94759,22.535119,全职,3-5年,"['激情的团队', '股票期权', '努力变大牛', '有舞台给您跳']"
196,4004019,中级实施工程师,广州,2018-04-25 15:14:58,7.6,143413,国药控股广州有限公司,国药控股广州有限公司,2000人以上,荔湾区,本科,上市公司,医疗健康,113.24643,23.13928,全职,1-3年,"['年底双薪', '交通补助', '定期体检', '绩效奖金']"
197,2767802,高级实施工程师/技术支持工程师,上海,2018-04-28 10:17:07,14.0,126031,Datatist,上海画龙信息科技有限公司,15-50人,徐汇区,本科,A轮,"数据服务,广告营销",121.43069459,31.18735216,全职,3-5年,"['年底四薪', '股票期权', '带薪年假', '五险一金']"
198,3356941,软件实施工程师,济南,2018-04-20 18:01:09,4.2,28659,奥琦玮,奥琦玮信息科技（北京）有限公司,150-500人,历下区,大专,B轮,"移动互联网,O2O",117.095887,36.684348,全职,不限,"['年底双薪', '带薪年假', '交通补助', '定期体检']"
199,3335693,等保实施工程师,合肥,2018-04-09 13:47:40,7.6,130628,天勤盛创,安徽天勤盛创信息科技有限公司,50-150人,高新区,大专,不需要融资,"移动互联网,数据服务",117.200731,31.848136,全职,1-3年,"['年底双薪', '绩效奖金', '股票期权', '带薪年假']"
200,4269170,实施工程师,广州,2018-04-08 10:26:38,7.0,305192,翔顺科技,广东翔顺科技有限公司,15-50人,海珠区,本科,不需要融资,"移动互联网,其他",0.0,0.0,全职,3-5年,"['""""']"
201,4276515,实施工程师,广州,2018-04-28 17:21:53,7.0,342714,宏脉软件,宏脉信息技术(广州)股份有限公司,50-150人,番禺区,本科,天使轮,移动互联网,113.3345,22.994097,全职,1-3年,"['""""']"
202,4179541,云迁移实施工程师,广州,2018-04-28 08:38:14,9.6,62627,广东亿迅,广东亿迅科技有限公司,2000人以上,海珠区,不限,不需要融资,移动互联网,39.897445,116.331398,全职,3-5年,"['技能培训', '节日礼物', '年底双薪', '带薪年假']"
203,3930558,实施工程师,杭州,2018-04-23 11:35:36,12.0,13163,个推,浙江每日互动网络科技股份有限公司,150-500人,西湖区,不限,D轮及以上,移动互联网,120.11455979,30.2903098,全职,不限,"['绩效奖金', '股票期权', '年底双薪', '专项奖金']"
204,4084257,实施工程师（中高级）-杭州,杭州,2018-04-28 08:57:13,14.0,26551,衡泰软件,杭州衡泰软件有限公司,500-2000人,西湖区,本科,不需要融资,金融,120.135936,30.274226,全职,3-5年,"['全额公积金', '福利齐全', '年终奖', '大牛多多']"
205,4483281,实施工程师,上海,2018-04-25 18:49:57,7.6,249314,大器科技,大器物联科技（广州）有限公司,15-50人,虹口区,不限,A轮,移动互联网,121.477947,31.270919,全职,1-3年,"['年底双薪', '带薪年假', '定期体检', '旅游团建']"
206,2208526,实施工程师,北京,2018-04-28 08:53:39,8.8,19477,用友政务,北京用友政务软件有限公司,500-2000人,海淀区,本科,上市公司,数据服务,0.0,0.0,全职,1-3年,"['五险一金', '年终奖', '补充医疗保险', '商业保险']"
207,3367497,实施工程师,成都,2018-04-25 21:07:03,4.4,181814,杭州麟云科技成都分公司,杭州麟云科技有限公司成都分公司,50-150人,武侯区,本科,不需要融资,"电子商务,移动互联网",104.028091,30.633495,全职,1-3年,"['年终分红', '午餐补助', '交通补助', '带薪年假']"
208,4489605,实施工程师,成都,2018-04-26 17:27:12,6.2,287778,智蜀道,四川智蜀道信息技术有限公司,少于15人,高新区,本科,未融资,"企业服务,其他",104.068202,30.534278,全职,1-3年,"['""""']"
209,4163256,软件实施工程师,苏州,2018-04-23 11:58:47,5.6,39467,Yosemei,苏州优圣美智能系统有限公司,15-50人,高新区,不限,天使轮,数据服务,120.424867,31.334181,全职,不限,[]
210,4300485,高级实施工程师,上海,2018-04-28 10:17:08,14.0,126031,Datatist,上海画龙信息科技有限公司,15-50人,徐汇区,本科,A轮,"数据服务,广告营销",121.430795,31.187368,全职,3-5年,"['年底四薪', '股票期权', '带薪年假', '五险一金']"
211,3795698,运维/系统维护/实施工程师,深圳,2018-04-27 10:22:33,13.2,25317,金证股份,深圳市金证科技股份有限公司,2000人以上,福田区,大专,上市公司,金融,114.055521,22.542865,全职,3-5年,"['激情的团队', '股票期权', '努力变大牛', '有舞台给您跳']"
212,3925492,实施工程师,郑州,2018-04-26 09:40:02,6.2,241976,晨华科技,郑州晨华科技有限公司,15-50人,高新区,大专,未融资,移动互联网,113.565431,34.820791,全职,1-3年,[]
213,3092370,实施工程师,杭州,2018-04-26 08:59:05,9.8,169771,八维通科技,八维通科技有限公司,150-500人,滨江区,本科,A轮,移动互联网,120.20068,30.201629,全职,3-5年,"['绩效奖金', '带薪年假', '交通补助', '午餐补助']"
214,4272991,实施工程师,武汉,2018-04-20 08:41:29,5.2,2238,九州通医药集团股份有限公司,九州通医药集团股份有限公司,2000人以上,汉阳区,大专,上市公司,电子商务,114.201851,30.545591,全职,1-3年,"['技能培训', '项目奖金', '带薪年假', '话费补贴']"
215,4263748,实施工程师,广州,2018-04-28 15:51:10,7.0,78796,益达教育,益达（广州）教育科技有限公司,50-150人,天河区,大专,未融资,教育,113.34201,23.14185,全职,1-3年,"['年底双薪', '带薪年假', '绩效奖金', '岗位晋升']"
216,4379526,技术实施工程师,厦门,2018-04-27 09:30:48,5.2,147118,德医互联,厦门市德医互联科技有限公司,15-50人,集美区,大专,A轮,医疗健康,118.052073,24.607547,全职,1年以下,"['扁平管理', '五险一金', '带薪年假']"
217,4026550,实施工程师,北京,2018-04-28 13:47:35,5.4,293937,康博嘉信息科技,康博嘉信息科技（北京）股份有限公司,150-500人,朝阳区,本科,B轮,"移动互联网,医疗健康",121.379662,31.18056,全职,应届毕业生,"['""""']"
218,2737660,实施工程师,杭州,2018-04-27 13:56:22,6.6,24523,哗啦啦,北京多来点信息技术有限公司,500-2000人,下城区,本科,不需要融资,"移动互联网,O2O",120.179509,30.283137,全职,1-3年,"['技能培训', '岗位晋升', '领导好', '带薪年假']"
219,4416153,实施工程师,广州,2018-04-25 14:25:03,3.8,110081,广州乐庚,广州乐庚信息科技有限公司,50-150人,萝岗区,大专,未融资,移动互联网,113.43658,23.162835,全职,1-3年,"['年底双薪', '绩效奖金', '带薪年假', '午餐补助']"
220,4394193,软件实施工程师,成都,2018-04-24 17:15:28,4.2,33184,顶呱呱,成都顶呱呱投资集团有限公司,2000人以上,武侯区,大专,上市公司,金融,0.0,0.0,全职,1-3年,"['技能培训', '带薪年假', '绩效奖金', '岗位晋升']"
221,4412511,实施部署工程师,杭州,2018-04-20 11:40:00,6.2,149258,中科视拓,中科视拓（北京）科技有限公司,50-150人,滨江区,大专,A轮,企业服务,0.0,0.0,全职,1-3年,"['交通补助', '午餐补助', '扁平管理', '弹性工作']"
222,3381122,实施工程师,上海,2018-04-28 09:08:26,8.4,135284,森亿智能,上海森亿医疗科技有限公司,50-150人,浦东新区,本科,A轮,"数据服务,医疗健康",121.602851,31.200685,全职,不限,"['年底双薪', '带薪年假', '交通补助', '扁平管理']"
223,3001405,实施工程师-郑州,郑州,2018-04-27 10:57:16,7.0,76795,爱朗格瑞,北京爱朗格瑞科技有限公司,150-500人,郑东新区,大专,不需要融资,"企业服务,其他",113.739689,34.760364,全职,1-3年,"['年底双薪', '带薪年假', '绩效奖金', '扁平管理']"
224,4500385,实施工程师,重庆,2018-04-28 17:02:36,4.2,308821,江小白,重庆江小白酒业有限公司,2000人以上,渝北区,大专,未融资,其他,0.0,0.0,全职,1-3年,"['带薪年假', '午餐补助', '节日礼物']"
225,2855003,高级实施工程师,广州,2018-04-28 10:17:08,10.8,126031,Datatist,上海画龙信息科技有限公司,15-50人,海珠区,不限,A轮,"数据服务,广告营销",113.28685,23.099903,全职,3-5年,"['年底四薪', '股票期权', '带薪年假', '五险一金']"
226,3829350,实施工程师（无锡）,无锡,2018-04-28 14:19:57,8.8,3246,帆软软件,南京帆软软件有限公司,500-2000人,梁溪区,本科,不需要融资,数据服务,120.296591,31.575719,全职,不限,"['技能培训', '股票期权', '带薪年假', '年度旅游']"
227,4070337,实施工程师实习岗（17、18届）,北京,2018-04-28 13:03:09,5.6,5748,天润融通,北京天润融通科技有限公司,150-500人,大兴区,本科,不需要融资,"企业服务,数据服务",116.496718,39.783708,全职,不限,"['五险一金', '带薪年假', '免费班车', '领导好']"
228,3900899,实施工程师,广州,2018-04-27 10:57:55,8.4,6558,明动软件,广州明动软件股份有限公司,150-500人,天河区,本科,上市公司,"企业服务,数据服务",113.350591,23.177721,全职,1-3年,"['技能培训', '节日礼物', '年底双薪', '绩效奖金']"
229,4084246,实施工程师（中高级）-深圳,深圳,2018-04-28 08:57:13,14.0,26551,衡泰软件,杭州衡泰软件有限公司,500-2000人,福田区,本科,不需要融资,金融,114.05822,22.543695,全职,3-5年,"['全额公积金', '福利齐全', '年终奖', '大牛多多']"
230,4160509,实施工程师,上海,2018-04-27 09:12:10,9.4,164080,掌数科技,上海掌数科技有限公司,50-150人,浦东新区,大专,不需要融资,"数据服务,企业服务",121.588713,31.190634,全职,3-5年,"['股票期权', '扁平管理', '美女多']"
231,2598631,实施工程师,西安,2018-04-28 10:22:37,14.0,78369,欧电云,上海欧电云信息科技有限公司,150-500人,新城区,本科,B轮,"电子商务,企业服务",108.940174,34.341568,全职,3-5年,"['试用期全薪', '定期体检', '五险一金', '弹性工作']"
232,3429921,软件实施工程师,深圳,2018-04-26 10:10:39,9.2,25317,金证股份,深圳市金证科技股份有限公司,2000人以上,南山区,本科,上市公司,金融,113.947453,22.534948,全职,1-3年,"['激情的团队', '股票期权', '努力变大牛', '有舞台给您跳']"
233,3262898,实施工程师,广州,2018-04-26 09:42:27,5.6,120050,广州泰迪科技,广州泰迪智能科技有限公司,50-150人,黄埔区,大专,未融资,数据服务,113.474924,23.161604,全职,1-3年,"['年底双薪', '股票期权', '年终分红', '带薪年假']"
234,3777302,实施工程师（武汉）,黄石,2018-04-26 14:21:19,7.0,16073,航天精一,航天精一（广东）信息科技有限公司,150-500人,下陆区,本科,上市公司,"移动互联网,数据服务",114.956401,30.172113,全职,1-3年,"['绩效奖金', '专项奖金', '五险一金', '通讯津贴']"
235,2001220,实施工程师,广州,2018-04-10 15:20:04,5.6,135654,长远软件,广州市长远软件开发有限公司,15-50人,越秀区,不限,未融资,其他,113.30208118,23.15478565,全职,不限,"['绩效奖金', '午餐补助', '带薪年假', '定期体检']"
236,3215328,实施工程师,成都,2018-04-26 21:51:16,5.6,95357,五言信息,成都五言信息技术有限公司,15-50人,高新区,本科,不需要融资,"企业服务,数据服务",104.108173,30.672508,全职,1-3年,"['节日礼物', '带薪年假', '绩效奖金', '岗位晋升']"
237,4483405,实施工程师,天津,2018-04-25 19:15:36,5.6,96921,远传技术,浙江远传信息技术股份有限公司,150-500人,东丽区,大专,上市公司,移动互联网,0.0,0.0,全职,1-3年,"['技能培训', '节日礼物', '股票期权', '带薪年假']"
238,4381287,实施工程师,重庆,2018-04-08 13:45:51,6.6,152532,中科智加,北京中科智加科技有限公司,50-150人,渝北区,本科,不需要融资,"移动互联网,数据服务",106.584874,29.638231,全职,不限,[]
239,2622240,实施工程师（肇庆）,肇庆,2018-04-28 17:31:55,3.8,24348,中大凯旋,广州中大凯旋电子科技有限公司,150-500人,端州区,大专,不需要融资,电子商务,112.484848,23.052101,全职,1-3年,"['年终分红', '绩效奖金', '专项奖金', '五险一金']"
240,3829731,实施工程师（长沙）,长沙,2018-04-28 14:19:57,8.8,3246,帆软软件,南京帆软软件有限公司,500-2000人,芙蓉区,本科,不需要融资,数据服务,112.987096,28.227129,全职,不限,"['技能培训', '股票期权', '带薪年假', '年度旅游']"
241,4113442,实施工程师（接收实习生）,北京,2018-04-28 13:02:56,5.6,5748,天润融通,北京天润融通科技有限公司,150-500人,大兴区,本科,不需要融资,"企业服务,数据服务",116.496718,39.783708,全职,不限,"['五险一金', '带薪年假', '免费班车', '领导好']"
242,4329825,实施工程师,北京,2018-04-08 13:57:54,6.2,141803,高思教育集团,北京高思博乐教育科技股份有限公司,2000人以上,海淀区,大专,上市公司,"教育,移动互联网",115.994034,39.993442,全职,不限,"['绩效奖金', '带薪年假', '专项奖金', '六险一金']"
243,4217514,软件实施工程师,郑州,2018-05-01 20:34:24,5.2,274166,拓普网络,北京拓普丰联信息工程有限公司,150-500人,金水区,大专,未融资,移动互联网,113.692175,34.785045,全职,1-3年,"['年底双薪', '通讯津贴', '周末双休', '五险一金']"
244,3098915,实施工程师,成都,2018-04-28 10:27:11,3.8,25157,奥诚科技,四川奥诚科技有限责任公司,50-150人,武侯区,大专,未融资,信息安全,104.073233,30.624786,全职,1-3年,"['绩效奖金', '专项奖金', '年底双薪', '五险一金']"
245,4015953,实施开发工程师,深圳,2018-04-28 10:23:44,12.0,32679,易订货,深圳市铱云云计算有限公司,150-500人,南山区,本科,B轮,"企业服务,数据服务",113.94675756,22.55300905,全职,1-3年,"['技能培训', '年底双薪', '股票期权', '带薪年假']"
246,4445049,实施工程师,广州,2018-04-18 18:04:53,7.8,95554,运筹网络,广州运筹网络科技有限公司,15-50人,天河区,大专,未融资,"移动互联网,生活服务",,,全职,1-3年,"['节日礼物', '专项奖金', '带薪年假', '绩效奖金']"
247,4293477,实施工程师,杭州,2018-04-23 11:06:53,7.6,251937,浙江康邻科技有限公司,浙江康邻科技有限公司,50-150人,余杭区,大专,未融资,医疗健康,120.008764,30.282594,全职,3-5年,[]
248,4245740,实施工程师（中高级）-深圳,深圳,2018-04-16 18:08:13,14.0,26551,衡泰软件,杭州衡泰软件有限公司,500-2000人,福田区,本科,不需要融资,金融,114.055009,22.525171,全职,1-3年,"['全额公积金', '福利齐全', '年终奖', '大牛多多']"
249,3426307,实施工程师,北京,2018-04-27 15:31:01,6.2,61285,世纪高通,北京世纪高通科技有限公司,150-500人,海淀区,本科,上市公司,"移动互联网,其他",116.245368,40.072979,实习,应届毕业生,"['节日礼物', '技能培训', '绩效奖金', '年度旅游']"
250,3971289,实施工程师,厦门,2018-04-27 09:50:09,5.2,68785,明天医网科技,宁波市科技园区明天医网科技有限公司,150-500人,思明区,大专,A轮,医疗健康,118.110221,24.490474,全职,1-3年,"['专项奖金', '定期体检', '绩效奖金', '年度旅游']"
251,3237225,软件实施工程师,南京,2018-04-24 15:18:30,6.8,61623,司法云平台,江苏新视云科技股份有限公司,150-500人,雨花台区,大专,上市公司,移动互联网,118.768154,31.975173,全职,1-3年,"['技能培训', '年底双薪', '带薪年假', '扁平管理']"
252,4496019,软件实施工程师（上海）,上海,2018-04-27 18:13:26,5.2,123829,易达科技,广州易达建信科技开发有限公司,150-500人,黄浦区,大专,不需要融资,企业服务,121.484443,31.231763,全职,不限,"['绩效奖金', '带薪年假', '岗位晋升', '节日礼物']"
253,2900558,实施工程师,广州,2018-04-25 14:42:19,4.2,145287,百望九赋,广东百望九赋电子有限公司,150-500人,番禺区,大专,不需要融资,"移动互联网,信息安全",112.993461,22.994261,全职,1-3年,[]
254,4444929,实施工程师,广州,2018-04-24 14:29:44,8.8,152132,悦到科技,广州市悦到信息科技有限公司,15-50人,天河区,大专,未融资,"移动互联网,电子商务",113.42371,23.115752,全职,1-3年,"['绩效奖金', '节日礼物', '领导好', '五险一金']"
255,3829794,实施工程师（济南）,济南,2018-04-28 14:19:57,8.8,3246,帆软软件,南京帆软软件有限公司,500-2000人,高新区,本科,不需要融资,数据服务,116.46125,36.279503,全职,不限,"['技能培训', '股票期权', '带薪年假', '年度旅游']"
256,1182184,实施工程师,长沙,2018-04-23 15:20:52,6.2,54531,东华瑞企,北京东华瑞企软件有限公司,15-50人,芙蓉区,大专,不需要融资,"电子商务,数据服务",112.998677,28.193574,全职,3-5年,[]
257,1826310,实施工程师,长沙,2018-04-10 10:54:27,3.8,93185,国微软件,广州国微软件科技有限公司,15-50人,岳麓区,大专,不需要融资,"移动互联网,企业服务",112.88672804,28.20812481,全职,不限,"['年底双薪', '专项奖金', '带薪年假', '绩效奖金']"
258,4194542,实施工程师（中高级）-北京,北京,2018-04-16 18:08:19,14.0,26551,衡泰软件,杭州衡泰软件有限公司,500-2000人,西城区,本科,不需要融资,金融,116.360594,39.899969,全职,3-5年,"['全额公积金', '福利齐全', '年终奖', '大牛多多']"
259,2825860,实施工程师（男）,厦门,2018-04-28 09:28:28,3.8,49489,厦门智裕科技,厦门智裕科技有限公司,50-150人,湖里区,大专,未融资,企业服务,118.156262,24.530689,实习,应届毕业生,[]
260,4140831,技术实施工程师,济南,2018-04-26 09:17:58,3.8,205704,好食好客餐饮酒店软件,山东好食好客信息科技股份有限公司,50-150人,高新区,大专,不需要融资,"移动互联网,O2O",117.134493,36.678096,全职,不限,[]
261,3941336,实施工程师（佛山）,佛山,2018-04-27 10:15:16,8.8,28014,永洪科技,北京永洪商智科技有限公司,150-500人,顺德区,不限,C轮,企业服务、数据服务,113.261937,22.92611,全职,1-3年,"['期权股激励', '领导好', '五险一金', '巨大成长空间']"
262,3886056,软件实施工程师（中山）,中山,2018-04-26 15:12:40,5.8,55549,易能云科技,重庆市易能云科技有限公司,50-150人,中山市市辖区,本科,不需要融资,"移动互联网,数据服务",113.39903,22.500716,全职,1-3年,"['技能培训', '年底双薪', '绩效奖金', '岗位晋升']"
263,3682779,HIS实施工程师,北京,2018-04-28 15:56:51,21.0,84814,医渡云（北京）技术有限公司,医渡云（北京）技术有限公司,150-500人,海淀区,本科,B轮,"O2O,医疗健康",116.366019,39.982583,全职,3-5年,"['节日礼物', '年底双薪', '股票期权', '带薪年假']"
264,3877246,实施工程师（驻点工程师）,广州,2018-04-28 11:09:49,3.8,129071,天意电子,广州市天意电子科技有限公司,50-150人,萝岗区,大专,不需要融资,其他,0.0,0.0,全职,应届毕业生,[]
265,4471214,实施工程师,杭州,2018-04-27 13:17:03,2.8,82406,高达软件,杭州高达软件系统股份有限公司,150-500人,西湖区,不限,上市公司,"移动互联网,电子商务",120.117979,30.281806,全职,应届毕业生,"['年底双薪', '免费班车', '带薪年假', '领导好']"
266,4074126,实施工程师,北京,2018-04-27 10:31:48,17.0,9735,瀚思科技,瀚思安信（北京）软件技术有限公司,150-500人,海淀区,本科,B轮,"企业服务,数据服务",116.291482,40.043926,全职,3-5年,"['五险一金', '年底双薪', '年度体检', '节日福利']"
267,4352205,工程实施工程师,深圳,2018-04-27 09:35:07,11.2,322508,光启集团,深圳光启超材料技术有限公司,500-2000人,南山区,本科,上市公司,"数据服务,硬件",113.937833,22.522872,全职,1-3年,"['股票期权', '定期体检', '专项奖金', '年度旅游']"
268,4342371,实施工程师（厦门）,厦门,2018-04-28 16:29:52,6.2,46961,厦门巨龙,厦门市巨龙信息科技有限公司,150-500人,湖里区,大专,不需要融资,"信息安全,数据服务",118.12255,24.52012,全职,1-3年,"['过节费', '技能培训', '节日礼物', '专项奖金']"
269,4058242,技术实施工程师,上海,2018-04-26 13:10:43,10.8,159465,ZStack,上海云轴信息科技有限公司,150-500人,闵行区,本科,A轮,"数据服务,信息安全",121.452905,31.022678,全职,1-3年,"['弹性工作', '领导好', '扁平管理', '技能培训']"
270,1019051,实施工程师,武汉,2018-04-23 13:32:34,5.8,29870,联友科技,深圳联友科技有限公司,500-2000人,武汉经济技术开发区,本科,不需要融资,"移动互联网,数据服务",114.1620798,30.49170949,全职,3-5年,"['技能培训', '专项奖金', '带薪年假', '绩效奖金']"
271,1618931,实施工程师,西安,2018-04-23 11:40:04,5.6,38921,知行软件,西安知行软件有限公司,15-50人,高新技术产业开发区,本科,不需要融资,数据服务,108.886704,34.224549,全职,不限,"['技能培训', '年底双薪', '岗位晋升', '年度旅游']"
272,2936643,实施工程师,北京,2018-04-18 18:31:07,7.0,37203,九恒星,北京九恒星科技股份有限公司,150-500人,海淀区,本科,上市公司,金融,116.328547,39.971938,全职,1年以下,"['带薪年假', '绩效奖金', '岗位晋升', '年度旅游']"
273,4364329,硬件实施工程师,长沙,2018-04-18 11:37:23,5.6,139069,创互科技,深圳市创互科技有限公司,50-150人,芙蓉区,大专,未融资,"移动互联网,企业服务",112.976929,28.191892,全职,不限,"['带薪年假', '节日礼物', '五险一金', '绩效奖金']"
274,3527549,大数据实施工程师,深圳,2018-04-28 18:48:01,11.2,252097,华云中盛,深圳市华云中盛科技有限公司,150-500人,南山区,大专,不需要融资,"数据服务,移动互联网",113.946468,22.534199,全职,不限,"['绩效奖金', '带薪年假', '通讯津贴', '定期体检']"
275,3916230,软件实施工程师,上海,2018-04-27 14:53:22,6.4,24995,泛微,上海泛微网络科技股份有限公司,2000人以上,闵行区,大专,上市公司,"移动互联网,企业服务",121.52396,31.07979,全职,1-3年,"['技能培训', '带薪年假', '绩效奖金', '岗位晋升']"
276,2751070,实施工程师,广州,2018-04-27 10:45:08,5.6,149542,康雷软件,广州市康雷信息技术有限公司,15-50人,海珠区,大专,天使轮,"其他,企业服务",113.31819,23.085552,全职,1-3年,[]
277,4051151,实施工程师,广州,2018-04-18 15:20:30,6.8,100935,广州华途,广州华途信息科技有限公司,15-50人,天河区,大专,A轮,"移动互联网,生活服务",113.417625,23.173537,全职,1-3年,"['年底双薪', '带薪年假', '绩效奖金', '扁平管理']"
278,4094716,实施工程师（拉萨）,拉萨,2018-04-28 16:29:51,5.6,46961,厦门巨龙,厦门市巨龙信息科技有限公司,150-500人,城关区,大专,不需要融资,"信息安全,数据服务",91.141965,29.649609,全职,1-3年,"['过节费', '技能培训', '节日礼物', '专项奖金']"
279,3599820,实施工程师,南京,2018-04-28 14:46:56,10.8,31395,灵雀云,北京凌云雀科技有限公司,150-500人,建邺区,本科,B轮,"数据服务,企业服务",118.725679,32.002524,全职,1-3年,"['股票期权', '顶级技术团队', '带薪年假', '国际化管理']"
280,4413094,实施工程师,武汉,2018-04-25 17:14:57,4.8,2238,九州通医药集团股份有限公司,九州通医药集团股份有限公司,2000人以上,汉阳区,大专,上市公司,电子商务,114.198131,30.546509,全职,1-3年,"['技能培训', '项目奖金', '带薪年假', '话费补贴']"
281,4431272,实施工程师,北京,2018-04-17 10:01:23,10.8,262109,融胜科技,北京融胜科技有限公司,50-150人,西城区,本科,不需要融资,移动互联网,116.363346,39.894614,全职,1-3年,[]
282,4470319,实施工程师（上海）,上海,2018-04-28 15:19:37,7.0,101895,星网信通,深圳市星网信通科技有限公司,150-500人,徐汇区,大专,未融资,移动互联网,0.0,0.0,全职,1-3年,"['技能培训', '通讯津贴', '五险一金', '带薪年假']"
283,3414269,中级实施工程师（上海）,上海,2018-04-25 18:25:34,9.6,7502,数云,杭州数云信息技术有限公司上海分公司,150-500人,徐汇区,大专,C轮,"企业服务,数据服务",121.445422,31.177388,全职,3-5年,"['绩效奖金', '股票期权', '五险一金', '通讯津贴']"
284,4284402,软件实施工程师,南宁,2018-04-24 09:10:46,4.4,342566,云锋信息科技,广西云锋信息科技有限公司,15-50人,青秀区,本科,未融资,数据服务,108.337993,22.812416,全职,1-3年,"['年底双薪', '带薪年假', '年度旅游', '岗位晋升']"
285,2206696,实施工程师,上海,2018-04-27 17:14:23,5.6,24995,泛微,上海泛微网络科技股份有限公司,2000人以上,,本科,上市公司,"移动互联网,企业服务",,,全职,1-3年,"['技能培训', '带薪年假', '绩效奖金', '岗位晋升']"
286,3191550,中级实施工程师,西安,2018-04-25 18:25:34,7.0,7502,数云,杭州数云信息技术有限公司上海分公司,150-500人,雁塔区,本科,C轮,"企业服务,数据服务",108.898093,34.244143,全职,3-5年,"['绩效奖金', '股票期权', '五险一金', '通讯津贴']"
287,4304950,实施工程师,深圳,2018-04-23 10:36:17,5.4,262293,深圳欧驰,深圳市欧驰信息技术有限公司,50-150人,宝安区,本科,不需要融资,"企业服务,信息安全",113.922353,22.577642,全职,1年以下,"['股票期权', '带薪年假', '六险一金', '扁平管理']"
288,4213635,硬件实施工程师,深圳,2018-04-18 11:37:23,6.2,139069,创互科技,深圳市创互科技有限公司,50-150人,罗湖区,大专,未融资,"移动互联网,企业服务",114.171586,22.566686,全职,1-3年,"['带薪年假', '节日礼物', '五险一金', '绩效奖金']"
289,4491047,运维实施工程师,南京,2018-04-27 09:22:13,8.2,114307,TechSure,深圳市赞悦科技有限公司,50-150人,秦淮区,本科,A轮,企业服务,118.794744,32.039133,全职,1-3年,"['股票期权', '年底双薪', '弹性工作', '节日礼物']"
290,1381290,实施工程师,北京,2018-04-28 11:38:38,8.4,21540,金蝶云创,北京金蝶云创软件技术有限公司,50-150人,朝阳区,本科,未融资,移动互联网,116.448982,39.958297,全职,1-3年,"['年底双薪', '五险一金', '通讯津贴', '交通补助']"
291,4492652,实施工程师,深圳,2018-04-27 11:41:33,4.8,11347,云端信联,深圳市云端信联科技有限公司,50-150人,龙岗区,本科,A轮,"移动互联网,电子商务",114.05815,22.63153,全职,不限,"['技能培训', '绩效奖金', '周末双休', '年度旅游']"
292,4441537,证券-软件实施工程师-2018届毕业生,深圳,2018-04-26 13:26:41,8.4,25317,金证股份,深圳市金证科技股份有限公司,2000人以上,南山区,本科,上市公司,金融,113.993578,22.99368,全职,1年以下,"['激情的团队', '股票期权', '努力变大牛', '有舞台给您跳']"
293,3488671,软件实施工程师,厦门,2018-04-16 09:12:40,3.8,29668,龙图软件有限公司,深圳市龙图软件有限公司,500-2000人,思明区,本科,未融资,企业服务,118.079304,24.458762,全职,1年以下,"['年底双薪', '技能培训', '绩效奖金', '年度旅游']"
294,857029,技术实施工程师,无锡,2018-04-28 18:00:22,6.2,23398,极课大数据,江苏曲速教育科技有限公司,150-500人,无锡新区,大专,B轮,教育、移动互联网,120.37418588,31.4888082,全职,不限,"['技能培训', '节日礼物', '带薪年假', '绩效奖金']"
295,1900655,实施工程师,广州,2018-04-27 11:10:51,2.4,76268,行心科技,广州市行心信息科技有限公司,50-150人,萝岗区,大专,C轮,移动互联网,113.42580606,23.16602663,实习,应届毕业生,"['节日礼物', '股票期权', '带薪年假', '绩效奖金']"
296,2762400,软件实施工程师,广州,2018-04-27 18:37:03,5.6,123829,易达科技,广州易达建信科技开发有限公司,150-500人,天河区,大专,不需要融资,企业服务,113.344598,23.141189,全职,不限,"['绩效奖金', '带薪年假', '岗位晋升', '节日礼物']"
297,3981718,实施工程师（广州）,广州,2018-04-26 09:30:43,12.0,88059,鹏业软件,成都鹏业软件股份有限公司,150-500人,越秀区,大专,未融资,"移动互联网,旅游",113.2718,23.12253,全职,5-10年,"['技能培训', '节日礼物', '带薪年假', '绩效奖金']"
298,4437679,技术支持/实施工程师,合肥,2018-04-23 16:51:50,4.8,261560,科迅软件,安徽省科迅教育装备有限公司,50-150人,高新区,大专,未融资,"移动互联网,信息安全",117.197105,31.840706,全职,1-3年,[]
299,4147494,软件实施工程师,青岛,2018-04-28 08:05:30,8.4,321927,思玛网络,青岛思玛网络科技有限公司,50-150人,城阳区,大专,不需要融资,"移动互联网,电子商务",120.3929,36.265075,全职,1-3年,"['岗位晋升', '年底双薪', '绩效奖金', '午餐补助']"
300,4495480,软件实施工程师,深圳,2018-04-27 17:18:28,5.8,16831,武汉佰钧成技术有限公司,武汉佰钧成技术有限责任公司,2000人以上,福田区,大专,不需要融资,移动互联网,0.0,0.0,全职,1-3年,"['带薪年假', '计算机软件', '管理规范', '定期体检']"
301,1952365,软件实施工程师,广州,2018-04-16 14:34:22,5.6,82664,北大医信-健迅,广州健迅科技有限公司,50-150人,越秀区,本科,不需要融资,医疗健康,113.29694,23.13096,全职,不限,"['午餐补助', '定期体检', '通讯津贴', '管理规范']"
302,4300176,实施工程师,广州,2018-04-27 10:34:40,8.8,88273,科腾,广州科腾信息技术有限公司,500-2000人,天河区,本科,不需要融资,"移动互联网,企业服务",113.350869,23.119598,全职,1-3年,"['年底双薪', '带薪年假', '扁平管理', '定期体检']"
303,3204186,实施工程师,南昌,2018-04-25 14:11:00,4.8,27364,博微软件,江西博微新技术有限公司,150-500人,青山湖区,本科,上市公司,企业服务,115.951611,28.687038,全职,1-3年,"['项目奖金丰厚', '江西十佳雇主', '年度旅游！', '新人都有师傅']"
304,4217080,实施工程师,北京,2018-04-25 09:32:50,5.6,49848,统御至诚,北京统御至诚科技有限公司,50-150人,海淀区,本科,未融资,企业服务,116.277298,39.957205,全职,不限,"['年底双薪', '带薪年假', '绩效奖金', '年度旅游']"
305,3930565,运维实施工程师,杭州,2018-04-23 11:35:36,12.0,13163,个推,浙江每日互动网络科技股份有限公司,150-500人,西湖区,不限,D轮及以上,移动互联网,120.11455979,30.2903098,全职,不限,"['绩效奖金', '股票期权', '年底双薪', '专项奖金']"
306,4165230,软件实施工程师,上海,2018-04-19 13:53:54,9.6,263603,好孩子（中国）零售服务有限公司,好孩子（中国）零售服务有限公司,2000人以上,嘉定区,本科,上市公司,"移动互联网,O2O",121.162433,31.28875,全职,3-5年,"['午餐补助', '带薪年假', '绩效奖金', '定期体检']"
307,3886694,云运维（实施）工程师,南京,2018-04-27 16:28:07,9.6,43907,博云,苏州博纳讯动软件有限公司,150-500人,秦淮区,本科,B轮,"移动互联网,企业服务",118.785257,32.027385,全职,3-5年,"['凝聚力强', '客户群广', '发展迅速', '团队年轻']"
308,3197872,云计算实施工程师,北京,2018-04-25 10:27:28,15.0,43462,云途腾,北京云途腾科技有限责任公司,50-150人,海淀区,本科,B轮,数据服务,116.27856026,39.93211061,全职,3-5年,"['节日礼物', '技能培训', '绩效奖金', '年度旅游']"
309,4282712,实施工程师,广州,2018-04-24 15:31:52,8.4,124413,联奕科技,联奕科技有限公司,500-2000人,天河区,本科,上市公司,"教育,企业服务",112.993461,22.994261,全职,1-3年,"['定期体检', '绩效奖金', '带薪年假', '节日礼物']"
310,3488376,软件实施工程师,厦门,2018-04-16 09:12:33,5.6,29668,龙图软件有限公司,深圳市龙图软件有限公司,500-2000人,思明区,本科,未融资,企业服务,118.079304,24.458762,全职,1-3年,"['年底双薪', '技能培训', '绩效奖金', '年度旅游']"
311,4031887,实施工程师,武汉,2018-04-27 09:51:52,7.0,5016,宏途科技,武汉宏途科技有限公司,50-150人,江汉区,本科,未融资,"移动互联网,数据服务",114.269906,30.594914,全职,1-3年,"['带薪年假', '五险一金', '节日礼物', '弹性工作']"
312,2894347,实施顾问/实施工程师,珠海,2018-04-26 16:30:59,6.2,121903,珠海奥威软件科技有限公司,珠海奥威软件科技有限公司,150-500人,香洲区,大专,未融资,"数据服务,企业服务",113.571339,22.37083,全职,1-3年,"['年底双薪', '专项奖金', '带薪年假', '午餐补助']"
313,2275368,实施工程师（能适应出差）,长沙,2018-04-26 10:17:55,3.8,142689,云台数据,武汉云台数据有限公司,15-50人,雨花区,大专,未融资,"移动互联网,数据服务",113.012664,28.112292,全职,1-3年,"['交通补助', '通讯津贴', '弹性工作', '五险一金']"
314,3081504,助理实施工程师,厦门,2018-04-24 11:09:07,3.4,182895,亿星软件,厦门亿星软件有限公司,50-150人,思明区,本科,不需要融资,"企业服务,数据服务",118.186567,24.484718,全职,应届毕业生,"['年底双薪', '绩效奖金', '节日礼物', '美女多']"
315,4424827,实施工程师 （武汉）,武汉,2018-05-01 16:01:21,5.6,91279,社区580,广州市新橙信息科技有限公司,150-500人,江汉区,大专,B轮,"移动互联网,医疗健康",0.0,0.0,全职,1-3年,"['技能培训', '股票期权', '专项奖金', '带薪年假']"
316,4384266,软件实施工程师,淮北,2018-04-27 09:12:31,5.2,120260,优帆科技,合肥优帆信息科技有限公司,15-50人,相山区,大专,未融资,移动互联网,116.798265,33.955844,全职,1-3年,[]
317,3118943,软件实施工程师,厦门,2018-04-26 17:17:27,8.4,64758,快普,厦门快普信息技术有限公司,50-150人,思明区,大专,未融资,移动互联网,118.181297,24.485243,全职,不限,"['技能培训', '带薪年假', '岗位晋升', '刘备型老板']"
318,4476263,软件实施工程师,随州,2018-04-24 20:12:55,5.6,362681,随州恒昌,随州市恒昌财务咨询有限公司,15-50人,曾都区,不限,不需要融资,"企业服务,金融",113.374055,31.720609,全职,不限,[]
319,3611076,软件实施工程师,福州,2018-04-23 11:03:31,3.4,73092,福讯软件,福州福讯软件有限公司,50-150人,鼓楼区,大专,未融资,"移动互联网,医疗健康",119.251804,26.102987,全职,1年以下,"['技能培训', '专项奖金', '带薪年假', '岗位晋升']"
320,3744663,实施工程师,广州,2018-04-18 12:08:40,7.0,25907,迈尔汛,广州市迈尔汛科技有限公司,15-50人,萝岗区,大专,未融资,移动互联网,0.0,0.0,全职,1-3年,"['周末双休', '五险一金', '补充医疗保险', '带薪年假']"
321,3781801,运维实施工程师,杭州,2018-04-18 11:27:08,14.0,165939,橙鹰,杭州橙鹰数据技术有限公司,150-500人,余杭区,本科,不需要融资,数据服务,120.008998,30.279884,全职,3-5年,"['年底双薪', '带薪年假', '午餐补助', '定期体检']"
322,2204464,实施,上海,2018-04-27 14:53:22,7.4,24995,泛微,上海泛微网络科技股份有限公司,2000人以上,闵行区,本科,上市公司,"移动互联网,企业服务",121.52396,31.07979,全职,1-3年,"['技能培训', '带薪年假', '绩效奖金', '岗位晋升']"
323,3191515,初级实施工程师,西安,2018-04-25 18:25:33,7.0,7502,数云,杭州数云信息技术有限公司上海分公司,150-500人,雁塔区,本科,C轮,"企业服务,数据服务",108.898093,34.244143,全职,不限,"['绩效奖金', '股票期权', '五险一金', '通讯津贴']"
324,906940,技术实施工程师,宁波,2018-04-28 13:21:39,5.6,33459,新希望软件,宁波新希望信息技术有限公司,50-150人,,大专,未融资,"企业服务,生活服务",121.59607397,29.88703934,全职,不限,"['技能培训', '年底双薪', '专项奖金', '带薪年假']"
325,2547359,高级实施工程师,北京,2018-04-28 10:17:07,14.0,126031,Datatist,上海画龙信息科技有限公司,15-50人,海淀区,本科,A轮,"数据服务,广告营销",116.308891,39.980691,全职,3-5年,"['年底四薪', '股票期权', '带薪年假', '五险一金']"
326,3993792,实施工程师（广州）,广州,2018-04-27 10:15:16,6.8,28014,永洪科技,北京永洪商智科技有限公司,150-500人,越秀区,不限,C轮,企业服务、数据服务,113.266841,23.128524,全职,1-3年,"['期权股激励', '领导好', '五险一金', '巨大成长空间']"
327,4404195,软件实施工程师,济南,2018-04-11 15:23:18,3.8,104710,雅讯东方（山东）科技有限公司,雅讯东方（山东）科技有限公司,50-150人,历下区,大专,不需要融资,"移动互联网,硬件",117.13527,36.670887,全职,1-3年,"['节日礼物', '年底双薪', '带薪年假', '年度旅游']"
328,3768986,实施工程师,广州,2018-04-28 18:14:45,5.2,274523,逗号智能零售,广州逗号智能零售有限公司,50-150人,天河区,大专,不需要融资,"移动互联网,生活服务",113.321959,23.118733,全职,1-3年,"['扁平管理', '趣玩氛围', '晋升实力说话', 'CBD双地铁']"
329,2806660,实施工程师（哈尔滨）,哈尔滨,2018-04-28 10:46:27,5.2,61875,设计院,广东省电信规划设计院有限公司,2000人以上,南岗区,大专,上市公司,"移动互联网,金融",0.0,0.0,全职,1-3年,"['绩效奖金', '带薪年假', '通讯津贴', '年底双薪']"
330,2074783,实施,上海,2018-04-27 14:53:25,6.8,24995,泛微,上海泛微网络科技股份有限公司,2000人以上,闵行区,大专,上市公司,"移动互联网,企业服务",121.52396,31.07979,全职,1-3年,"['技能培训', '带薪年假', '绩效奖金', '岗位晋升']"
331,4493913,实施工程师,成都,2018-04-27 14:51:37,4.8,212862,硅行,成都硅行动力科技有限公司,少于15人,高新区,大专,不需要融资,医疗健康,104.055764,30.538471,全职,1-3年,[]
332,3964482,实施工程师（杭州岗）,杭州,2018-05-01 15:09:26,7.0,148986,首格网络,上海首格网络科技有限公司,50-150人,西湖区,本科,A轮,"移动互联网,医疗健康",120.140604,30.286446,全职,3-5年,"['带薪年假', '午餐补助', '定期体检', '股票期权']"
333,4432487,实施工程师/技术支持,北京,2018-04-28 11:53:49,9.0,44274,旻瑞信息,上海旻瑞信息技术有限公司,50-150人,西城区,大专,未融资,企业服务、移动互联网,116.360048,39.922132,全职,1-3年,"['年底双薪', '定期体检', '午餐补助']"
334,3708505,硬件实施工程师,深圳,2018-04-18 11:37:22,6.2,139069,创互科技,深圳市创互科技有限公司,50-150人,罗湖区,大专,未融资,"移动互联网,企业服务",114.171586,22.566686,全职,1-3年,"['带薪年假', '节日礼物', '五险一金', '绩效奖金']"
335,4422899,实施工程师（东莞）,东莞,2018-04-28 18:38:14,6.2,102366,星医科技,深圳星医科技有限公司,50-150人,东莞市市辖区,本科,A轮,"数据服务,移动互联网",113.742319,23.005581,全职,1-3年,"['专项奖金', '带薪年假', '扁平管理', '领导好']"
336,4077597,实施工程师,北京,2018-04-27 09:03:15,5.8,23727,知网,同方知网（北京）技术有限公司,2000人以上,海淀区,本科,上市公司,"移动互联网,电子商务",116.35717,40.04444006,全职,1-3年,"['美女多多', '带薪年假', '绩效奖金', '岗位晋升']"
337,1453287,实施工程师,杭州,2018-04-24 11:39:45,3.8,113888,普源软件,杭州普源软件有限公司,15-50人,西湖区,大专,不需要融资,企业服务,120.18605997,30.32123995,全职,1-3年,"['午餐补助', '带薪年假']"
338,4396369,实施工程师（银川）,银川,2018-04-20 17:51:31,6.8,46961,厦门巨龙,厦门市巨龙信息科技有限公司,150-500人,金凤区,大专,不需要融资,"信息安全,数据服务",106.241326,38.481788,全职,3-5年,"['过节费', '技能培训', '节日礼物', '专项奖金']"
339,3335657,软件实施工程师,合肥,2018-04-17 14:30:04,5.2,130628,天勤盛创,安徽天勤盛创信息科技有限公司,50-150人,高新区,大专,不需要融资,"移动互联网,数据服务",117.200731,31.848136,全职,1-3年,"['年底双薪', '绩效奖金', '股票期权', '带薪年假']"
340,4499993,实施工程师,杭州,2018-04-28 15:45:38,10.4,146072,络町网络,杭州络町网络技术有限公司,50-150人,滨江区,本科,A轮,"金融,移动互联网",120.167887,30.193444,全职,1-3年,[]
341,4487294,软件实施工程师,无锡,2018-04-26 14:35:59,6.2,60012,杭州软星,杭州软星科技有限公司,15-50人,北塘区,大专,未融资,"移动互联网,电子商务",120.330104,31.624405,全职,1-3年,"['年底双薪', '节日礼物', '绩效奖金', '年度旅游']"
342,2762004,实施工程师（厦门）,厦门,2018-04-28 08:52:58,10.8,356,捷通华声,北京捷通华声科技股份有限公司,150-500人,湖里区,本科,不需要融资,"移动互联网,数据服务",118.1268101,24.51372018,全职,1-3年,"['股票期权', '半年调薪', '绩效奖金多', '晋升空间大']"
343,4492069,软件实施工程师,厦门,2018-04-27 10:52:36,7.0,161491,EOULU,苏州伊欧陆系统集成有限公司,50-150人,思明区,本科,未融资,"硬件,企业服务",118.088671,24.436079,全职,1-3年,[]
344,3013512,软件实施工程师,南阳,2018-04-25 14:50:11,4.4,192651,南阳虹志公司,南阳虹志科技发展有限公司,150-500人,卧龙区,不限,不需要融资,移动互联网,112.53575,32.9927,全职,1-3年,[]
345,2153343,实施,上海,2018-04-27 14:53:25,6.8,24995,泛微,上海泛微网络科技股份有限公司,2000人以上,闵行区,大专,上市公司,"移动互联网,企业服务",121.52396,31.07979,全职,1年以下,"['技能培训', '带薪年假', '绩效奖金', '岗位晋升']"
346,4396347,实施工程师（兰州）,兰州,2018-04-20 17:51:28,6.8,46961,厦门巨龙,厦门市巨龙信息科技有限公司,150-500人,城关区,大专,不需要融资,"信息安全,数据服务",103.840047,36.053911,全职,3-5年,"['过节费', '技能培训', '节日礼物', '专项奖金']"
347,4471691,系统实施工程师,深圳,2018-04-24 12:04:54,15.2,244010,华锐金融技术,深圳华锐金融技术股份有限公司,50-150人,福田区,本科,不需要融资,"移动互联网,金融",114.031237,22.531132,全职,3-5年,"['股票期权', '绩效奖金', '带薪年假', '交通补助']"
348,2712349,实施工程师（实习）,福州,2018-04-21 09:23:41,4.2,165364,盈璞科技,上海盈璞科技有限公司,少于15人,鼓楼区,本科,未融资,企业服务,119.270014,26.112542,实习,1年以下,[]
349,4371116,硬件实施工程师,长沙,2018-04-18 11:37:22,5.6,139069,创互科技,深圳市创互科技有限公司,50-150人,芙蓉区,大专,未融资,"移动互联网,企业服务",112.976929,28.191892,全职,不限,"['带薪年假', '节日礼物', '五险一金', '绩效奖金']"
350,4238361,实施工程师,广州,2018-05-01 09:36:39,14.4,314226,宏鸿钥科技,广州宏鸿钥网络科技有限公司,150-500人,天河区,本科,未融资,"企业服务,其他",113.327016,23.119985,全职,1-3年,[]
351,3962020,实施工程师（北京）,北京,2018-04-28 15:56:52,11.2,84814,医渡云（北京）技术有限公司,医渡云（北京）技术有限公司,150-500人,海淀区,本科,B轮,"O2O,医疗健康",116.366019,39.982583,全职,1-3年,"['节日礼物', '年底双薪', '股票期权', '带薪年假']"
352,2789579,软件实施工程师/技术支持工程师,杭州,2018-04-28 09:23:29,8.4,101746,财人汇,杭州财人汇网络股份有限公司,150-500人,滨江区,本科,上市公司,"移动互联网,金融",120.210623,30.204848,全职,不限,"['节日礼物', '股票期权', '带薪年假', '绩效奖金']"
353,4490656,长沙实施工程师,长沙,2018-04-26 20:50:37,12.0,50702,美团点评,北京三快在线科技有限公司,2000人以上,芙蓉区,大专,D轮及以上,"移动互联网,O2O",112.983314,28.196151,全职,1年以下,"['技能培训', '绩效奖金', '岗位晋升', '领导好']"
354,4083475,大数据实施工程师,北京,2018-04-23 16:18:30,35.0,262476,中化能源科技有限公司,中化石油有限公司,2000人以上,海淀区,本科,不需要融资,"移动互联网,电子商务",0.0,0.0,全职,5-10年,"['午餐补助', '年终分红']"
355,4195472,实施工程师（厦门）,厦门,2018-04-11 10:12:15,6.8,33668,成都康赛,成都康赛信息技术有限公司,150-500人,同安区,大专,未融资,"教育,数据服务",118.154734,24.731052,全职,1-3年,"['技能培训', '节日礼物', '年底双薪', '专项奖金']"
356,3761482,实施工程师,杭州,2018-04-07 19:16:43,11.2,147940,杭州识微,杭州识微信息技术有限公司,少于15人,西湖区,本科,天使轮,"数据服务,企业服务",120.120322,30.276781,全职,应届毕业生,[]
357,4336649,软件实施工程师,成都,2018-04-27 09:08:23,4.8,333681,经纬万达,四川经纬万达科技有限公司,15-50人,高新区,本科,不需要融资,移动互联网,104.066282,30.544961,全职,1-3年,"['""""']"
358,4487036,实施工程师,深圳,2018-04-26 14:15:48,8.2,18083,江苏金智教育信息股份有限公司,江苏金智教育信息技术有限公司,500-2000人,福田区,大专,不需要融资,"移动互联网,数据服务",114.10957,22.543616,全职,3-5年,"['技能培训', '节日礼物', '免费班车', '扁平管理']"
359,4144719,实施工程师,广州,2018-04-20 15:37:20,5.6,81355,深绘科技,杭州深绘智能科技有限公司,150-500人,天河区,本科,B轮,"移动互联网,电子商务",113.346296,23.14746,全职,不限,"['节日礼物', '股票期权', '带薪年假', '绩效奖金']"
360,4094735,实施工程师（昆明）,昆明,2018-04-28 16:29:52,5.6,46961,厦门巨龙,厦门市巨龙信息科技有限公司,150-500人,西山区,大专,不需要融资,"信息安全,数据服务",102.660469,25.021072,全职,1-3年,"['过节费', '技能培训', '节日礼物', '专项奖金']"
361,4461525,客户支持工程师/实施工程师,杭州,2018-05-01 14:07:13,9.6,22805,恒生电子,恒生电子股份有限公司,2000人以上,滨江区,本科,上市公司,"移动互联网,金融",120.165668,30.185677,全职,1-3年,"['绩效奖金', '专项奖金', '五险一金', '通讯津贴']"
362,3511591,实施工程师（工作地点：中山）,中山,2018-04-28 17:31:54,3.8,24348,中大凯旋,广州中大凯旋电子科技有限公司,150-500人,中山市市辖区,大专,不需要融资,电子商务,0.0,0.0,全职,不限,"['年终分红', '绩效奖金', '专项奖金', '五险一金']"
363,2812273,软件实施工程师,成都,2018-04-23 10:47:50,4.8,171695,天问互联,成都天问互联科技有限公司,50-150人,武侯区,大专,A轮,"移动互联网,数据服务",104.072021,30.624388,全职,1-3年,[]
364,3609891,运维实施工程师,杭州,2018-04-23 11:35:36,12.0,13163,个推,浙江每日互动网络科技股份有限公司,150-500人,西湖区,本科,D轮及以上,移动互联网,120.11455979,30.2903098,全职,1-3年,"['绩效奖金', '股票期权', '年底双薪', '专项奖金']"
365,4365485,软件实施工程师,石家庄,2018-04-03 11:41:34,4.8,133697,品智科技,石家庄品智科技有限公司,50-150人,长安区,大专,不需要融资,其他,114.522383,38.048867,全职,不限,"['年度旅游', '节日礼物', '弹性工作', '管理规范']"
366,3080177,系统实施工程师,杭州,2018-04-26 08:59:05,11.2,169771,八维通科技,八维通科技有限公司,150-500人,滨江区,本科,A轮,移动互联网,120.20068,30.201629,全职,3-5年,"['绩效奖金', '带薪年假', '交通补助', '午餐补助']"
367,4421539,软件实施工程师,武汉,2018-04-14 11:38:50,9.6,228457,创必达科技,厦门创必达信息科技有限公司,少于15人,东湖新技术开发区,不限,未融资,"硬件,移动互联网",114.404007,30.479567,全职,不限,[]
368,4401439,软件实施工程师,宁波,2018-04-11 10:45:02,8.8,360504,久婵物联,宁波久婵物联科技有限公司,50-150人,鄞州区,大专,未融资,数据服务 硬件,121.5463,29.809227,全职,不限,"['""""']"
369,3736413,软件实施工程师,嘉兴,2018-04-24 09:51:35,4.2,76947,志诚,嘉兴志诚信息技术有限公司,15-50人,南湖区,大专,未融资,"移动互联网,O2O",120.734986,30.750874,全职,1-3年,"['年底双薪', '股票期权', '专项奖金', '绩效奖金']"
370,2831707,实施工程师,上海,2018-04-28 14:46:56,14.0,31395,灵雀云,北京凌云雀科技有限公司,150-500人,浦东新区,本科,B轮,"数据服务,企业服务",121.710381,31.175669,全职,3-5年,"['股票期权', '顶级技术团队', '带薪年假', '国际化管理']"
371,4436446,软件实施工程师,贵阳,2018-04-17 16:50:21,3.8,325520,西码科技,贵州西码科技有限公司,15-50人,观山湖区（金阳新区）,大专,未融资,"企业服务,信息安全",106.647378,26.612661,全职,1-3年,"['""""']"
372,4381340,实施工程师（广州）,成都,2018-04-08 13:51:10,7.8,1608,1905电影网,一九零五（北京）网络科技有限公司,150-500人,高新区,本科,未融资,"社交网络,文化娱乐",104.065347,30.591532,全职,3-5年,"['年底双薪', '节日礼物', '管理规范', '通讯津贴']"
373,2073251,实施工程师,上海,2018-04-27 17:14:20,5.2,24995,泛微,上海泛微网络科技股份有限公司,2000人以上,闵行区,大专,上市公司,"移动互联网,企业服务",121.525236,31.080356,全职,1-3年,"['技能培训', '带薪年假', '绩效奖金', '岗位晋升']"
374,4487010,实施工程师,广州,2018-04-26 14:13:57,8.2,18083,江苏金智教育信息股份有限公司,江苏金智教育信息技术有限公司,500-2000人,天河区,大专,不需要融资,"移动互联网,数据服务",113.402453,23.111801,全职,3-5年,"['技能培训', '节日礼物', '免费班车', '扁平管理']"
375,4065277,运维实施工程师,杭州,2018-04-23 11:35:36,12.0,13163,个推,浙江每日互动网络科技股份有限公司,150-500人,西湖区,本科,D轮及以上,移动互联网,120.11455979,30.2903098,全职,1-3年,"['绩效奖金', '股票期权', '年底双薪', '专项奖金']"
376,2620108,实施,上海,2018-04-27 17:14:21,5.8,24995,泛微,上海泛微网络科技股份有限公司,2000人以上,闵行区,大专,上市公司,"移动互联网,企业服务",121.525236,31.080356,全职,1-3年,"['技能培训', '带薪年假', '绩效奖金', '岗位晋升']"
377,4342136,大数据实施工程师(华南)J10149,深圳,2018-04-23 12:19:24,17.8,7600,TalkingData,北京腾云天下科技有限公司,500-2000人,南山区,本科,C轮,移动互联网,113.953481,22.52824,全职,3-5年,"['精英团队', '扁平管理', '海量数据', '弹性工作']"
378,3154276,实施工程师,武汉,2018-04-20 15:06:34,5.6,109458,博晟信息,武汉博晟信息科技有限公司,50-150人,东湖新技术开发区,不限,上市公司,"移动互联网,数据服务",114.40368,30.476,全职,3-5年,"['年底双薪', '带薪年假', '午餐补助', '技能培训']"
379,4209769,软件实施工程师,厦门,2018-04-28 16:57:16,5.2,105321,微信软件,厦门微信软件有限公司,50-150人,思明区,本科,未融资,"电子商务,企业服务",118.186897,24.484315,全职,不限,"['技能培训', '节日礼物', '专项奖金', '带薪年假']"
380,3869075,实施工程师,北京,2018-04-28 09:50:07,8.2,65313,浙江保融,浙江保融科技有限公司,150-500人,朝阳区,本科,不需要融资,金融,116.460297,39.906923,全职,1-3年,"['年底双薪', '节日礼物', '岗位晋升', '通讯津贴']"
381,4015157,供应链实施工程师,北京,2018-04-26 14:47:39,15.2,1650,联想集团,联想（北京）有限公司,2000人以上,海淀区,本科,上市公司,"移动互联网,数据服务",116.30991,40.04216006,全职,3-5年,"['技能培训', '待遇优厚', '晋升空间', '五险一金']"
382,4058478,实施工程师,西安,2018-04-26 11:57:48,7.6,86178,西软股份,西软软件股份有限公司,150-500人,高新技术产业开发区,本科,B轮,"移动互联网,电子商务",108.9107,34.21275,全职,1-3年,"['节日礼物', '股票期权', '专项奖金', '带薪年假']"
383,3890550,实施工程师/产品运营专员,杭州,2018-04-23 16:35:54,4.2,148409,华坤道威,浙江华坤道威数据科技有限公司,150-500人,西湖区,大专,不需要融资,"移动互联网,数据服务",120.123909,30.272701,全职,1-3年,"['绩效奖金', '午餐补助', '节日礼物', '扁平管理']"
384,4423469,实施工程师,杭州,2018-04-15 21:00:30,5.8,90201,梦速,杭州梦速科技有限公司,15-50人,西湖区,大专,未融资,"移动互联网,数据服务",120.110181,30.267033,全职,3-5年,"['年底双薪', '股票期权', '专项奖金', '绩效奖金']"
385,4168776,系统实施工程师,深圳,2018-05-01 19:00:39,11.6,622,房多多,深圳市房多多网络科技有限公司,2000人以上,南山区,本科,C轮,"移动互联网,O2O",113.94362,22.54924,全职,1-3年,"['节日礼物', '带薪年假', '扁平管理', '美女多']"
386,4376488,软件实施（工程师助理）,南京,2018-05-01 09:26:00,4.8,233304,燃网络,南京网燃网络科技有限公司,少于15人,秦淮区,大专,未融资,"移动互联网,游戏",118.788719,32.049374,全职,不限,[]
387,4493828,实施工程师,北京,2018-04-27 14:43:31,19.0,125449,智齿科技,北京智齿博创科技有限公司,150-500人,海淀区,大专,C轮,"移动互联网,企业服务",116.30533,39.982357,全职,1-3年,"['绩效奖金', '定期体检', '零食水果', '弹性工作']"
388,4392503,软件实施工程师,南京,2018-04-25 10:29:10,8.4,154329,万德软件,陕西万德信息科技股份有限公司,500-2000人,鼓楼区,大专,上市公司,移动互联网,118.762479,32.044695,全职,3-5年,[]
389,4161816,实施工程师,广州,2018-04-18 19:03:06,12.4,68025,广州思迈特,广州思迈特软件有限公司,150-500人,天河区,本科,不需要融资,"企业服务,数据服务",113.410609,23.172075,全职,3-5年,"['技能培训', '带薪年假', '年度旅游', '扁平管理']"
390,1949788,实施工程师,西安,2018-04-28 18:08:34,7.0,107791,西点软件,西安西点软件有限责任公司,50-150人,雁塔区,本科,不需要融资,"移动互联网,电子商务",108.91093464,34.21388238,全职,1-3年,"['带薪年假', '定期体检', '年度旅游', '节日礼物']"
391,2910651,软件实施工程师,珠海,2018-04-27 14:37:51,5.6,37241,远光共创,远光共创智能科技股份有限公司武汉研发中心,150-500人,香洲区,大专,不需要融资,企业服务,113.561193,22.376153,全职,1-3年,"['技能培训', '节日礼物', '免费班车', '专项奖金']"
392,2842884,实施工程师,杭州,2018-04-26 09:32:47,10.8,63048,森马电商,浙江森马电子商务有限公司,500-2000人,西湖区,大专,上市公司,"移动互联网,电子商务",120.06284,30.28043,全职,1-3年,"['节日礼物', '技能培训', '绩效奖金', '年度旅游']"
393,3442408,实施工程师,上海,2018-04-27 09:49:50,6.8,24995,泛微,上海泛微网络科技股份有限公司,2000人以上,闵行区,大专,上市公司,"移动互联网,企业服务",121.52396,31.07979,全职,1-3年,"['技能培训', '带薪年假', '绩效奖金', '岗位晋升']"
394,4432015,运维工程师/系统实施工程师,北京,2018-04-28 10:13:46,12.0,272321,知学云,深圳市知学云科技有限公司,150-500人,东城区,大专,不需要融资,"移动互联网,教育",116.424346,39.948702,全职,3-5年,"['责任', '创新', '分享', '激情']"
395,4250910,技术实施工程师,广州,2018-04-27 16:54:49,9.0,340441,spark机器人,广州思八客科技有限公司,15-50人,天河区,大专,天使轮,硬件 移动互联网,113.333912,23.123836,全职,1-3年,"['""""']"
396,3924800,实施工程师,北京,2018-04-28 13:47:35,6.8,293937,康博嘉信息科技,康博嘉信息科技（北京）股份有限公司,150-500人,朝阳区,本科,B轮,"移动互联网,医疗健康",121.379662,31.18056,全职,1-3年,"['""""']"
397,4248964,实施工程师（济南）,济南,2018-04-28 10:00:22,7.0,65313,浙江保融,浙江保融科技有限公司,150-500人,高新区,本科,不需要融资,金融,117.115171,36.66336,全职,1-3年,"['年底双薪', '节日礼物', '岗位晋升', '通讯津贴']"
398,3932671,实施工程师,成都,2018-04-24 11:32:29,5.6,299142,思杰聚典,成都思杰聚典科技有限公司,150-500人,双流县,大专,不需要融资,"移动互联网,O2O",104.009092,30.569919,全职,1-3年,"['""""']"
399,4141855,软件实施工程师,南京,2018-04-19 13:10:53,5.2,78160,路特,南京路特软件有限公司,15-50人,雨花台区,大专,未融资,移动互联网,118.76783,31.98637,全职,1-3年,"['技能培训', '节日礼物', '专项奖金', '带薪年假']"
400,1228401,软件实施工程师,广州,2018-04-28 09:54:52,10.8,99750,阳光耐特,广州阳光耐特电子有限公司,150-500人,越秀区,本科,不需要融资,"信息安全,数据服务",,,全职,1-3年,"['年底双薪', '专项奖金', '带薪年假', '绩效奖金']"
401,4347322,云计算实施工程师,广州,2018-04-27 09:42:06,12.6,128830,CloudChef,上海骞云信息科技有限公司,50-150人,天河区,本科,B轮,"企业服务,数据服务",113.340729,23.140945,全职,3-5年,"['年底双薪', '股票期权', '带薪年假', '定期体检']"
402,2839470,实施工程师,成都,2018-04-26 10:20:16,5.2,59589,西辰软件,成都西辰软件有限公司,50-150人,高新区,大专,未融资,"移动互联网,分类信息",103.99341,30.994233,全职,1年以下,"['团队活动', '管理规范', '带薪年假', '五险一金']"
403,3260182,运维实施工程师,宁波,2018-04-24 10:58:03,7.0,62653,云霁科技,杭州云霁科技有限公司,50-150人,鄞州区,大专,A轮,企业服务,0.0,0.0,全职,1-3年,"['技能培训', '创业天堂', '带薪年假', '股票期权']"
404,1701458,实施工程师,天津,2018-04-28 11:00:03,6.6,69368,天津网络广播电视台,天津网络广播电视台有限公司,150-500人,和平区,本科,上市公司,"文化娱乐,移动互联网",,,全职,1-3年,"['年底双薪', '节日礼物', '技能培训', '绩效奖金']"
405,4488449,实施运维工程师,无锡,2018-04-26 15:59:57,6.2,55046,朗新科技,朗新科技股份有限公司,2000人以上,无锡新区,大专,上市公司,"移动互联网,企业服务",120.367743,31.492264,全职,1-3年,"['技能培训', '年底双薪', '带薪年假', '岗位晋升']"
406,2499256,实施工程师,上海,2018-04-26 15:43:54,10.8,153615,意利科技,上海意利信息科技股份有限公司,50-150人,浦东新区,大专,上市公司,"移动互联网,数据服务",121.632278,31.222912,全职,3-5年,[]
407,1249995,实施工程师,北京,2018-04-25 17:33:43,4.2,7903,天鹏恒宇,北京天鹏恒宇科技发展有限公司,50-150人,海淀区,本科,天使轮,"金融,医疗健康",116.298553,40.041186,全职,不限,"['绩效奖金', '五险一金', '带薪年假', '午餐补助']"
408,3071516,实施工程师,杭州,2018-04-28 09:32:36,5.2,38689,鼎永科技,杭州鼎永科技有限公司,50-150人,拱墅区,大专,不需要融资,教育,120.118342,30.336031,全职,1-3年,"['节日礼物', '年底双薪', '带薪年假', '绩效奖金']"
409,3360455,定制家具实施工程师,广州,2018-04-26 17:33:07,6.2,10359,酷家乐,杭州群核信息技术有限公司,500-2000人,天河区,大专,D轮及以上,移动互联网,113.321542,23.120458,全职,3-5年,"['两次加薪', '弹性工作', '期权丰厚', '两次晋升']"
410,4230796,软件实施工程师,合肥,2018-04-25 16:39:41,5.6,274166,拓普网络,北京拓普丰联信息工程有限公司,150-500人,庐阳区,本科,未融资,移动互联网,117.288338,31.867166,全职,不限,"['年底双薪', '通讯津贴', '周末双休', '五险一金']"
411,4381183,实施工程师（杭州）,杭州,2018-04-08 13:33:46,7.8,1608,1905电影网,一九零五（北京）网络科技有限公司,150-500人,上城区,本科,未融资,"社交网络,文化娱乐",120.165303,30.213689,全职,3-5年,"['年底双薪', '节日礼物', '管理规范', '通讯津贴']"
412,4473869,软件实施（工程师助理）,南京,2018-05-01 09:26:01,3.8,233304,燃网络,南京网燃网络科技有限公司,少于15人,秦淮区,大专,未融资,"移动互联网,游戏",118.788719,32.049374,全职,不限,[]
413,2512551,软件实施工程师,临沂,2018-04-29 07:25:17,5.8,154298,中科动力,临沂中科动力信息科技有限公司,15-50人,兰山区,大专,未融资,"数据服务,移动互联网",118.358628,35.049256,全职,1-3年,[]
414,3105149,实施工程师（杭州）,杭州,2018-04-28 10:00:22,7.6,65313,浙江保融,浙江保融科技有限公司,150-500人,西湖区,本科,不需要融资,金融,120.067429,30.285487,全职,1-3年,"['年底双薪', '节日礼物', '岗位晋升', '通讯津贴']"
415,4296894,软件实施工程师（应届生）,武汉,2018-04-27 16:50:06,5.4,101746,财人汇,杭州财人汇网络股份有限公司,150-500人,江汉区,本科,上市公司,"移动互联网,金融",114.26381,30.593388,实习,应届毕业生,"['节日礼物', '股票期权', '带薪年假', '绩效奖金']"
416,2645463,实施工程师,上海,2018-04-27 10:57:10,7.0,76795,爱朗格瑞,北京爱朗格瑞科技有限公司,150-500人,黄浦区,本科,不需要融资,"企业服务,其他",121.519326,31.216566,全职,1-3年,"['年底双薪', '带薪年假', '绩效奖金', '扁平管理']"
417,3796080,云计算实施工程师,上海,2018-04-27 09:42:05,14.0,128830,CloudChef,上海骞云信息科技有限公司,50-150人,杨浦区,大专,B轮,"企业服务,数据服务",121.545889,31.276121,全职,3-5年,"['年底双薪', '股票期权', '带薪年假', '定期体检']"
418,2818388,实施工程师,北京,2018-04-26 17:40:37,6.8,142387,重混智能,北京重混智能科技有限公司,15-50人,海淀区,本科,天使轮,"教育,移动互联网",116.296706,40.051522,全职,不限,"['年底双薪', '股票期权', '绩效奖金', '年终分红']"
419,4279751,实施运维工程师,北京,2018-04-26 15:58:20,10.8,262476,中化能源科技有限公司,中化石油有限公司,2000人以上,海淀区,本科,不需要融资,"移动互联网,电子商务",116.308811,39.983578,全职,3-5年,"['午餐补助', '年终分红']"
420,2994598,实施工程师,杭州,2018-04-20 15:37:13,4.8,81355,深绘科技,杭州深绘智能科技有限公司,150-500人,滨江区,大专,B轮,"移动互联网,电子商务",120.198993,30.208189,全职,不限,"['节日礼物', '股票期权', '带薪年假', '绩效奖金']"
421,2777489,实施工程师(上海）,上海,2018-04-29 14:48:46,8.4,30605,赢时胜软件,深圳市赢时胜信息技术股份有限公司,500-2000人,浦东新区,大专,上市公司,金融,121.533997,31.215291,全职,不限,"['活动多多', '氛围轻松', '自研产品', '上市公司']"
422,4127738,实施工程师,长沙,2018-04-23 10:15:09,6.2,37435,蔬东坡,北京木屋时代科技有限公司,50-150人,天心区,大专,A轮,"移动互联网,电子商务",112.993417,27.994254,全职,1-3年,"['扁平管理', '美女多', '领导好', '年终分红']"
423,4381327,实施工程师实习生,重庆,2018-04-08 13:49:58,4.2,152532,中科智加,北京中科智加科技有限公司,50-150人,渝北区,本科,不需要融资,"移动互联网,数据服务",106.584874,29.638231,实习,应届毕业生,[]
424,4161988,实施工程师,北京,2018-04-18 19:03:06,9.6,68025,广州思迈特,广州思迈特软件有限公司,150-500人,海淀区,本科,不需要融资,"企业服务,数据服务",116.322762,39.955814,全职,1-3年,"['技能培训', '带薪年假', '年度旅游', '扁平管理']"
425,3363587,软件实施工程师,上海,2018-04-28 15:25:20,7.0,95540,点钢商务,上海点钢电子商务有限公司,50-150人,宝山区,大专,不需要融资,"电子商务,O2O",121.49389,31.3368,全职,1-3年,"['年底双薪', '带薪年假', '岗位晋升', '扁平管理']"
426,4118529,IT技术支持/实施岗,北京,2018-04-28 13:02:30,13.2,5748,天润融通,北京天润融通科技有限公司,150-500人,大兴区,大专,不需要融资,"企业服务,数据服务",116.496718,39.783708,全职,不限,"['五险一金', '带薪年假', '免费班车', '领导好']"
427,4433581,软件实施工程师,成都,2018-04-28 10:22:35,7.0,19825,任我行软件,成都任我行软件股份有限公司,500-2000人,高新区,大专,不需要融资,"移动互联网,企业服务",104.074136,30.539948,全职,3-5年,"['绩效奖金', '年底双薪', '专项奖金', '节日礼物']"
428,4470752,运维实施工程师,上海,2018-04-24 11:04:18,7.0,62653,云霁科技,杭州云霁科技有限公司,50-150人,浦东新区,大专,A轮,企业服务,0.0,0.0,全职,1-3年,"['技能培训', '创业天堂', '带薪年假', '股票期权']"
429,3711770,软件实施工程师,贵阳,2018-04-10 17:57:24,3.8,274166,拓普网络,北京拓普丰联信息工程有限公司,150-500人,云岩区,大专,未融资,移动互联网,0.0,0.0,全职,1-3年,"['年底双薪', '通讯津贴', '周末双休', '五险一金']"
430,4221299,部署实施（J171213008）,北京,2018-04-27 10:10:10,24.0,2474,滴滴出行,北京嘀嘀无限科技发展有限公司,2000人以上,海淀区,本科,不需要融资,移动互联网,116.283768,40.04455,全职,3-5年,"['弹性工作', '节日礼物', '岗位晋升', '技能培训']"
431,4309280,软件实施工程师,北京,2018-04-27 08:39:28,5.8,184388,蓝波今朝,北京蓝波今朝科技有限公司,50-150人,海淀区,本科,不需要融资,信息安全,,,全职,1-3年,[]
432,3894192,软件实施工程师,南京,2018-04-11 10:26:42,6.2,136216,南京德益康信息科技,南京德益康信息科技有限公司,150-500人,鼓楼区,本科,未融资,"移动互联网,医疗健康",118.763936,32.043971,全职,3-5年,"['五险一金', '午餐补助', '年度旅游', '节日礼物']"
433,4492646,实施工程师,北京,2018-04-27 11:41:07,4.8,28365,中海纪元,北京中海纪元数字技术发展股份有限公司,500-2000人,海淀区,大专,上市公司,数据服务,116.32211,39.96104,全职,1-3年,"['绩效奖金', '五险一金', '带薪年假', '节日礼物']"
434,2198712,实施工程师,北京,2018-04-24 15:50:44,5.6,59278,安码科技,北京安码科技有限公司,50-150人,海淀区,本科,B轮,信息安全,116.3562,39.95375006,全职,1-3年,"['技能培训', '带薪年假', '绩效奖金', '岗位晋升']"
435,4008253,偏硬件实施工程师（有出差）,南京,2018-04-23 09:23:16,3.4,215372,南京天朗电子科技有限公司,南京恒新天朗电子科技有限公司,150-500人,玄武区,大专,不需要融资,移动互联网,118.892542,32.091287,全职,1-3年,[]
436,4265809,大数据实施工程师,北京,2018-04-18 10:18:45,14.0,154474,中科天玑,中科天玑数据科技股份有限公司,150-500人,海淀区,本科,B轮,"移动互联网,数据服务",116.319802,39.98294,全职,3-5年,[]
437,3554125,实施工程师,北京,2018-04-08 14:07:57,7.8,1608,1905电影网,一九零五（北京）网络科技有限公司,150-500人,西城区,本科,未融资,"社交网络,文化娱乐",116.349131,39.94243907,全职,1-3年,"['年底双薪', '节日礼物', '管理规范', '通讯津贴']"
438,1465880,实施工程师,深圳,2018-04-25 12:41:01,10.8,114307,TechSure,深圳市赞悦科技有限公司,50-150人,南山区,本科,A轮,企业服务,113.94729323,22.54483498,全职,1-3年,"['股票期权', '年底双薪', '弹性工作', '节日礼物']"
439,4463156,软件实施工程师,深圳,2018-04-23 10:58:18,5.6,41772,浪潮软件,浪潮软件股份有限公司,2000人以上,龙华新区,大专,上市公司,数据服务,114.042487,22.668132,全职,1-3年,"['年底双薪', '节日礼物', '技能培训', '绩效奖金']"
440,4162479,实施工程师,上海,2018-04-18 19:03:06,12.0,68025,广州思迈特,广州思迈特软件有限公司,150-500人,徐汇区,本科,不需要融资,"企业服务,数据服务",121.427603,31.183976,全职,1-3年,"['技能培训', '带薪年假', '年度旅游', '扁平管理']"
441,4426987,系统实施工程师,连云港,2018-04-16 15:09:12,5.2,99958,桔子科技,福建桔子信息科技有限公司,50-150人,赣榆区,大专,未融资,移动互联网,119.288298,35.103393,全职,1-3年,"['技能培训', '节日礼物', '专项奖金', '带薪年假']"
442,2137521,实施工程师（深圳）,深圳,2018-04-28 08:52:58,14.0,356,捷通华声,北京捷通华声科技股份有限公司,150-500人,南山区,本科,不需要融资,"移动互联网,数据服务",113.94639816,22.55297323,全职,1-3年,"['股票期权', '半年调薪', '绩效奖金多', '晋升空间大']"
443,4028558,实施工程师,杭州,2018-04-25 15:24:28,7.0,33377,巴图鲁公司,广州市巴图鲁信息科技有限公司,150-500人,江干区,大专,C轮,电子商务,119.993591,29.993662,全职,1-3年,"['技能培训', '节日礼物', '年底双薪', '带薪年假']"
444,4156520,实施工程师,北京,2018-04-23 11:30:09,9.6,156190,鸿链科技,北京鸿链科技有限公司,15-50人,顺义区,本科,未融资,"企业服务,数据服务",116.563056,40.071164,全职,1-3年,"['年底双薪', '带薪年假', '弹性工作', '五险一金']"
445,1574781,中级实施工程师,深圳,2018-04-11 18:42:26,6.8,30605,赢时胜软件,深圳市赢时胜信息技术股份有限公司,500-2000人,南山区,本科,上市公司,金融,113.98181091,22.55013068,全职,1-3年,"['活动多多', '氛围轻松', '自研产品', '上市公司']"
446,3583742,实施工程师,杭州,2018-04-28 17:09:15,5.2,96921,远传技术,浙江远传信息技术股份有限公司,150-500人,滨江区,本科,上市公司,移动互联网,120.167887,30.193444,全职,1-3年,"['技能培训', '节日礼物', '股票期权', '带薪年假']"
447,2521128,实施技术工程师,深圳,2018-04-25 09:10:44,5.2,112666,浙江远图互联科技股份有限公司,浙江远图互联科技股份有限公司,150-500人,,大专,上市公司,"移动互联网,医疗健康",0.0,0.0,全职,1-3年,"['带薪年假', '定期体检', '专项奖金', '股票期权']"
448,3708916,网站实施工程师,西安,2018-04-26 09:11:50,4.8,164710,西安博达软件,西安博达软件股份有限公司,150-500人,高新技术产业开发区,本科,上市公司,"移动互联网,企业服务",108.843768,34.198242,全职,1-3年,"['股票期权', '专项奖金', '绩效奖金', '带薪年假']"
449,4189896,软件实施工程师,上海,2018-04-25 23:20:48,7.6,44951,旺田信息,上海旺田信息技术有限公司,15-50人,浦东新区,本科,天使轮,"企业服务,数据服务",121.60522,31.178281,全职,1-3年,"['技能培训', '节日礼物', '绩效奖金', '年度旅游']"
450,4293402,实施工程师,南京,2018-04-25 10:05:33,6.2,6692,海云数据,天津大海云科技有限公司,150-500人,雨花台区,本科,B轮,"数据服务,企业服务",0.0,0.0,全职,1-3年,"['节日礼物', '技能培训', '专项奖金', '股票期权']"
451,3777768,实施运维工程师,盐城,2018-04-08 10:59:19,7.0,33646,久远银海,四川久远银海软件股份有限公司,500-2000人,亭湖区,本科,上市公司,"移动互联网,硬件",120.15627,33.353475,全职,1-3年,"['节日礼物', '专项奖金', '带薪年假', '岗位晋升']"
452,2709965,实施工程师,上海,2018-04-26 09:24:41,10.0,135510,上海领友,上海领友商务信息咨询有限公司,15-50人,浦东新区,不限,不需要融资,"企业服务,移动互联网",121.602376,31.205842,全职,3-5年,[]
453,3898840,EAM实施,佛山,2018-04-24 09:20:00,12.0,16831,武汉佰钧成技术有限公司,武汉佰钧成技术有限责任公司,2000人以上,顺德区,大专,不需要融资,移动互联网,113.219574,22.934207,全职,3-5年,"['带薪年假', '计算机软件', '管理规范', '定期体检']"
454,4442422,实施工程师,成都,2018-04-23 15:32:34,6.8,282889,卓信优品,四川卓信优品科技有限公司,15-50人,高新区,大专,不需要融资,移动互联网,104.063241,30.571198,全职,1-3年,[]
455,4400158,软件实施工程师,南京,2018-04-11 08:35:45,4.8,362731,净如源,江苏净如源生物科技有限公司,150-500人,玄武区,本科,不需要融资,移动互联网、电子商务,118.807035,32.07939,全职,不限,"['""""']"
456,3950593,软件实施/技术支持/售后客服,天津,2018-04-30 15:24:10,4.8,149034,骏嘉财通,北京骏嘉财通科技有限公司,500-2000人,和平区,大专,未融资,金融,117.208961,39.119614,全职,应届毕业生,"['专项奖金', '绩效奖金', '年终分红', '带薪年假']"
457,4290401,（软件）实施工程师,苏州,2018-04-28 08:33:21,5.2,130431,苏州承泽医疗科技,苏州承泽医疗科技有限公司,15-50人,工业园区,大专,A轮,"医疗健康,移动互联网",120.765813,31.27763,全职,不限,"['绩效奖金', '带薪年假', '午餐补助', '定期体检']"
458,3029936,实施工程师,武汉,2018-04-23 10:54:52,6.2,194850,库得克软件,武汉库得克软件有限公司,50-150人,东湖新技术开发区,本科,未融资,"数据服务,硬件",114.502857,30.556153,全职,1-3年,[]
459,4031746,驻场实施工程师,三沙,2018-04-28 15:19:37,5.6,101895,星网信通,深圳市星网信通科技有限公司,150-500人,儋州市,不限,未融资,移动互联网,112.338695,16.831839,全职,1-3年,"['技能培训', '通讯津贴', '五险一金', '带薪年假']"
460,4357369,系统实施工程师,上海,2018-04-01 23:10:15,12.0,216917,阿里文娱,大鱼快乐有限公司,2000人以上,黄浦区,本科,上市公司,"文化娱乐,移动互联网",121.48175,31.229255,全职,1-3年,"['年底双薪', '股票期权', '绩效奖金', '定期体检']"
461,4482828,实施工程师,郑州,2018-04-27 17:38:20,4.8,24995,泛微,上海泛微网络科技股份有限公司,2000人以上,金水区,本科,上市公司,"移动互联网,企业服务",113.707773,34.776213,全职,1-3年,"['技能培训', '带薪年假', '绩效奖金', '岗位晋升']"
462,4329071,实施工程师,杭州,2018-04-26 11:33:07,12.0,41444,米雅,杭州米雅信息科技有限公司,150-500人,滨江区,本科,不需要融资,移动互联网,120.201807,30.185004,全职,1-3年,"['年底双薪', '绩效奖金', '带薪年假', '弹性工作']"
463,4297255,实施工程师,北京,2018-04-09 09:48:09,7.0,81330,中关村科技软件,中关村科技软件股份有限公司,50-150人,海淀区,本科,不需要融资,"移动互联网,数据服务",116.29422,40.05067,全职,1-3年,"['技能培训', '节日礼物', '带薪年假', '年度旅游']"
464,4138671,技术实施工程师,北京,2018-04-17 13:07:53,28.0,265845,云联万维,北京云联万维技术有限公司,15-50人,朝阳区,本科,天使轮,"移动互联网,数据服务",116.490505,39.979894,全职,3-5年,"['年底双薪', '专项奖金', '股票期权', '绩效奖金']"
465,3898830,EAM实施,佛山,2018-04-24 09:20:00,12.0,16831,武汉佰钧成技术有限公司,武汉佰钧成技术有限责任公司,2000人以上,顺德区,大专,不需要融资,移动互联网,113.219574,22.934207,全职,3-5年,"['带薪年假', '计算机软件', '管理规范', '定期体检']"
466,4489512,软件实施工程师助理/实习生,南京,2018-05-01 15:49:01,3.8,233304,燃网络,南京网燃网络科技有限公司,少于15人,秦淮区,大专,未融资,"移动互联网,游戏",118.788719,32.049374,全职,不限,[]
467,4370904,实施工程师,杭州,2018-04-28 17:06:32,8.4,95466,亿赛通,北京亿赛通科技发展有限责任公司,150-500人,江干区,大专,上市公司,信息安全,120.207805,30.238752,全职,3-5年,"['带薪年假', '定期体检', '五险一金', '弹性工作']"
468,4077611,实施工程师,北京,2018-04-27 09:03:15,6.8,23727,知网,同方知网（北京）技术有限公司,2000人以上,海淀区,本科,上市公司,"移动互联网,电子商务",116.35717,40.04444006,全职,1-3年,"['美女多多', '带薪年假', '绩效奖金', '岗位晋升']"
469,4469151,技术实施工程师,北京,2018-04-24 07:47:20,7.0,16411,科友医疗,北京汇美科友科技有限公司,50-150人,西城区,本科,未融资,"医疗健康,信息安全",116.355049,39.951006,全职,1-3年,"['五险一金', '带薪年假', '通讯津贴', '定期体检']"
470,4463608,实施工程师,成都,2018-04-23 11:32:27,4.2,112405,欣阳科技,四川欣阳科技有限公司,150-500人,高新区,不限,不需要融资,"医疗健康,企业服务",104.065269,30.568844,全职,不限,"['年底双薪', '专项奖金', '带薪年假', '通讯津贴']"
471,3926603,实施工程师,杭州,2018-04-28 10:09:58,4.8,100280,图特科技,杭州图特信息科技有限公司,50-150人,西湖区,大专,A轮,"移动互联网,医疗健康",120.125843,30.277575,全职,1-3年,"['技能培训', '专项奖金', '带薪年假', '岗位晋升']"
472,4139889,实施工程师,广州,2018-04-26 16:26:56,3.8,163310,绿晶信息科技,广州绿晶信息科技有限公司,15-50人,天河区,大专,天使轮,"移动互联网,数据服务",113.341063,23.175132,全职,不限,[]
473,4461922,实施工程师,杭州,2018-04-26 09:39:39,5.6,103244,品茗软件,杭州品茗安控信息技术股份有限公司,500-2000人,西湖区,大专,上市公司,"企业服务,数据服务",120.116851,30.290811,全职,1-3年,"['技能培训', '年底双薪', '带薪年假', '绩效奖金']"
474,2386593,实施工程师,北京,2018-04-25 10:02:48,9.0,63045,同方知网数字出版技术股份有限公司,同方知网数字出版技术股份有限公司,2000人以上,海淀区,本科,不需要融资,教育,116.35725501,40.04330406,全职,1-3年,"['节日礼物', '免费班车', '绩效奖金', '扁平管理']"
475,4308348,硬件实施工程师,南京,2018-04-13 13:26:28,4.8,34396,千目信息科技,南京千目信息科技有限公司,15-50人,玄武区,大专,未融资,"移动互联网,O2O",118.78506,32.08773,全职,1-3年,"['技能培训', '带薪年假', '绩效奖金', '岗位晋升']"
476,3025987,实施工程师/技术支持工程师,深圳,2018-04-08 09:07:02,6.8,41772,浪潮软件,浪潮软件股份有限公司,2000人以上,福田区,大专,上市公司,数据服务,114.05957,22.54299,全职,1-3年,"['年底双薪', '节日礼物', '技能培训', '绩效奖金']"
477,3106007,实施工程师,武汉,2018-04-25 16:01:32,5.6,187670,链享医药,武汉链享医药供应链管理有限公司,50-150人,江汉区,大专,天使轮,"移动互联网,数据服务",114.24733,30.599099,全职,1-3年,[]
478,4477403,实施工程师,北京,2018-04-25 10:06:03,11.2,55351,北京美飒格松柏科技发展有限公司,北京美飒格松柏科技发展有限公司,150-500人,昌平区,大专,天使轮,"移动互联网,金融",116.371502,40.108988,全职,3-5年,[]
479,3019915,EAS实施工程师,广州,2018-04-03 10:03:27,5.6,132739,华新商贸,广州华新商贸有限公司,2000人以上,海珠区,大专,不需要融资,其他,113.31188,23.102425,全职,不限,[]
480,4343095,软件实施工程师（南昌）,南昌,2018-04-28 16:29:51,5.8,46961,厦门巨龙,厦门市巨龙信息科技有限公司,150-500人,新建县,大专,不需要融资,"信息安全,数据服务",115.830392,28.631418,全职,1-3年,"['过节费', '技能培训', '节日礼物', '专项奖金']"
481,3943813,实施工程师,杭州,2018-04-28 11:25:53,5.6,111983,君方科技,杭州君方科技有限公司,50-150人,萧山区,大专,B轮,企业服务,120.256038,30.231123,全职,不限,[]
482,2958583,实施工程师,杭州,2018-04-28 09:21:20,5.6,91008,健海科技,杭州健海科技有限公司,50-150人,余杭区,本科,A轮,"移动互联网,医疗健康",120.111393,30.342333,全职,1-3年,"['年底双薪', '股票期权', '带薪年假', '福利齐全']"
483,2117121,实施工程师,深圳,2018-04-27 14:44:19,6.2,101440,壹加康泰,深圳市火龙果信息科技有限公司,15-50人,南山区,大专,天使轮,医疗健康,113.94675756,22.55300905,全职,1-3年,"['年底双薪', '专项奖金', '股票期权', '带薪年假']"
484,2503393,实施工程师,西安,2018-04-27 10:57:11,7.0,76795,爱朗格瑞,北京爱朗格瑞科技有限公司,150-500人,碑林区,本科,不需要融资,"企业服务,其他",108.971993,34.262521,全职,1-3年,"['年底双薪', '带薪年假', '绩效奖金', '扁平管理']"
485,4262090,实施工程师,上海,2018-04-19 14:02:54,4.8,338031,上海雅澳,上海雅澳供应链管理有限公司,500-2000人,青浦区,大专,天使轮,金融,121.212463,31.218674,全职,1-3年,"['""""']"
486,4407781,实施工程师,杭州,2018-04-27 14:21:35,7.0,332833,知汇网络,杭州知汇网络科技有限公司,50-150人,江干区,大专,未融资,移动互联网、医疗健康,120.249218,30.309749,全职,1-3年,"['年底双薪', '股票期权', '绩效奖金', '带薪年假']"
487,1342817,实施工程师（南京）,南京,2018-04-26 13:42:02,3.8,90348,聚微科技,上海聚微计算机技术有限公司,50-150人,鼓楼区,大专,A轮,"移动互联网,企业服务",118.77147973,32.05654944,全职,1-3年,"['节日礼物', '带薪年假', '领导好', '五险一金']"
488,4139884,软件实施,长春,2018-04-17 15:27:49,7.2,164634,百得思维,安徽百得思维信息科技有限公司,500-2000人,朝阳区,本科,未融资,其他,,,全职,3-5年,[]
489,4372597,信息实施工程师,杭州,2018-04-28 11:12:33,4.8,198523,新光供应链,新光供应链管理有限公司,150-500人,上城区,大专,未融资,金融,120.178774,30.214233,全职,不限,"['交通补助', '通讯津贴', '带薪年假', '绩效奖金']"
490,4086864,运维实施工程师,广州,2018-04-27 10:57:56,7.6,6558,明动软件,广州明动软件股份有限公司,150-500人,天河区,本科,上市公司,"企业服务,数据服务",113.350591,23.177721,全职,1-3年,"['技能培训', '节日礼物', '年底双薪', '绩效奖金']"
491,4381094,实施工程师实习生,北京,2018-04-08 13:19:51,4.2,152532,中科智加,北京中科智加科技有限公司,50-150人,海淀区,本科,不需要融资,"移动互联网,数据服务",116.334031,39.984563,实习,应届毕业生,[]
492,4441221,实施工程师,上海,2018-04-28 15:27:21,4.8,167781,虎赞科技,上海虎赞信息科技有限公司,50-150人,闵行区,大专,天使轮,"电子商务,企业服务",121.336815,31.150624,全职,1-3年,"['股票期权', '专项奖金', '带薪年假', '年底双薪']"
493,4384199,实施工程师,北京,2018-04-17 10:40:12,6.8,228072,联华信,北京联华信科技有限公司,15-50人,西城区,本科,未融资,信息安全,116.353008,39.931759,全职,1-3年,[]
494,4195105,软件实施工程师,成都,2018-04-16 14:48:39,3.4,263552,义幻健康互联网医院,成都义幻健康管理有限公司,50-150人,武侯区,本科,未融资,"移动互联网,医疗健康",104.0668,30.639016,全职,1年以下,[]
495,1131650,中级软件实施工程师,厦门,2018-04-28 16:29:51,7.6,46961,厦门巨龙,厦门市巨龙信息科技有限公司,150-500人,湖里区,大专,不需要融资,"信息安全,数据服务",,,全职,不限,"['过节费', '技能培训', '节日礼物', '专项奖金']"
496,3768113,技术支持与实施工程师,深圳,2018-04-29 11:52:42,12.0,77962,GrowingIO,北京易数科技有限公司,150-500人,南山区,本科,A轮,"企业服务,数据服务",113.943399,22.543413,全职,1-3年,"['股票期权', '绩效奖金', '扁平管理', '弹性工作']"
497,4397065,软件实施,铜仁,2018-04-11 16:37:14,6.6,164634,百得思维,安徽百得思维信息科技有限公司,500-2000人,碧江区,本科,未融资,其他,109.181122,27.690653,全职,1-3年,[]
498,2577826,实施工程师,北京,2018-04-09 14:19:55,5.6,21229,嘉和美康,北京嘉和美康信息技术有限公司,500-2000人,海淀区,大专,C轮,"移动互联网,医疗健康",116.30481,40.041141,全职,1-3年,"['管理人性化', '发展多元化', '培训全面化', '晋升机会多']"
499,3139081,软件实施工程师,苏州,2018-04-03 16:53:11,4.2,31819,爱家微社区,苏州工业园区进一科技有限公司,15-50人,工业园区,大专,A轮,"移动互联网,生活服务",120.66212,31.296188,全职,不限,"['年终分红', '绩效奖金', '带薪年假', '弹性工作']"
500,4014154,实施/售前,北京,2018-04-25 16:59:18,19.0,5812,用友,用友网络科技股份有限公司,2000人以上,海淀区,本科,上市公司,"企业服务,数据服务",116.238822,40.068734,全职,5-10年,"['技能培训', '节日礼物', '免费班车', '岗位晋升']"
501,3828083,实施工程师,广州,2018-04-28 11:09:49,3.8,129071,天意电子,广州市天意电子科技有限公司,50-150人,萝岗区,大专,不需要融资,其他,0.0,0.0,全职,应届毕业生,[]
502,1213492,实施工程师,深圳,2018-04-26 15:56:44,4.8,85781,金政软件,深圳市金政软件技术有限公司,150-500人,福田区,不限,未融资,"移动互联网,企业服务",114.066399,22.566924,全职,1-3年,"['年底双薪', '专项奖金', '带薪年假', '绩效奖金']"
503,2362364,实施工程师,上海,2018-04-19 10:09:03,5.6,126004,上海榕海,上海榕海计算机系统集成有限公司,50-150人,宝山区,大专,不需要融资,"移动互联网,数据服务",121.495418,31.339323,全职,1-3年,[]
504,4393913,Oracle ERP/EBS运维/实施工程师,上海,2018-04-10 10:41:50,13.2,313093,永映软件,上海永映软件有限公司,50-150人,静安区,本科,未融资,移动互联网、企业服务,121.460558,31.234679,全职,3-5年,"['""""']"
505,3737859,实施工程师,重庆,2018-04-26 10:56:00,5.6,147822,同远能源,重庆同远能源技术有限公司,50-150人,渝北区,大专,未融资,"数据服务,企业服务",106.491721,29.620937,全职,1-3年,"['绩效奖金', '带薪年假', '定期体检', '节日礼物']"
506,3549024,实施工程师,深圳,2018-04-12 10:25:46,4.8,245913,云道科技（深圳）有限公司,云道科技（深圳）有限公司,15-50人,福田区,大专,未融资,"其他,移动互联网",114.057465,22.507783,全职,1-3年,[]
507,704323,实施工程师,北京,2018-04-12 09:50:47,7.0,55362,格道软件,北京格道软件有限责任公司,15-50人,海淀区,本科,未融资,"电子商务,其他",116.310611,39.976778,全职,1-3年,"['技能培训', '年底双薪', '带薪年假', '绩效奖金']"
508,4347827,实施工程师,北京,2018-04-25 15:17:11,7.8,102154,安德网,北京安德网讯科技有限公司,500-2000人,西城区,大专,未融资,"移动互联网,电子商务",116.356009,39.923686,全职,1-3年,"['年底双薪', '带薪年假', '扁平管理', '领导好']"
509,2186139,实施工程师,武汉,2018-04-18 15:59:31,5.6,140551,青贝科技,武汉青贝科技有限公司,15-50人,东湖新技术开发区,本科,不需要融资,"教育,数据服务",114.421283,30.507305,全职,1-3年,"['绩效奖金', '带薪年假', '技能培训', '岗位晋升']"
510,4096942,技术工程师、实施技术（福州）,福州,2018-04-28 16:29:51,6.8,46961,厦门巨龙,厦门市巨龙信息科技有限公司,150-500人,鼓楼区,大专,不需要融资,"信息安全,数据服务",119.287549,26.101609,全职,1-3年,"['过节费', '技能培训', '节日礼物', '专项奖金']"
511,4368506,实施工程师,北京,2018-04-16 14:30:27,7.2,37435,蔬东坡,北京木屋时代科技有限公司,50-150人,朝阳区,大专,A轮,"移动互联网,电子商务",116.41611,40.033469,全职,1-3年,"['扁平管理', '美女多', '领导好', '年终分红']"
512,4491233,（大数据）实施工程师,南京,2018-04-27 09:46:08,8.4,106054,北京特微特科技发展有限公司,特微特,50-150人,浦口区,本科,不需要融资,"移动互联网,电子商务",118.627895,32.059093,全职,3-5年,[]
513,4236219,软件实施工程师,上海,2018-04-26 16:50:52,9.6,200683,Lean Work,上海领壹信息科技有限公司,50-150人,徐汇区,本科,A轮,"移动互联网,金融",121.439906,31.19191,全职,3-5年,[]
514,4196235,实施工程师,西安,2018-04-19 11:18:13,10.8,326566,DRXX,陕西德容信息技术有限公司,15-50人,高新技术产业开发区,本科,不需要融资,不限,108.872908,34.190295,全职,5-10年,[]
515,3369095,技术支持/实施工程师,广州,2018-04-18 10:27:11,7.6,33377,巴图鲁公司,广州市巴图鲁信息科技有限公司,150-500人,白云区,本科,C轮,电子商务,112.993461,22.994261,全职,不限,"['技能培训', '节日礼物', '年底双薪', '带薪年假']"
516,4410427,实施工程师,杭州,2018-04-12 13:24:46,11.2,60958,浙江律讯,浙江律讯网络科技有限公司,50-150人,余杭区,本科,A轮,"移动互联网,信息安全",120.0097,30.27753,全职,1-3年,"['专项奖金', '带薪年假', '绩效奖金', '年度旅游']"
517,1842268,实施工程师,南京,2018-04-19 13:10:55,5.2,78160,路特,南京路特软件有限公司,15-50人,雨花台区,大专,未融资,移动互联网,118.774335,31.992328,全职,不限,"['技能培训', '节日礼物', '专项奖金', '带薪年假']"
518,2829330,高级实施工程师,上海,2018-04-11 13:37:03,9.6,26961,蚁城科技,上海蚁城网络科技有限公司,50-150人,徐汇区,本科,未融资,电子商务,121.4302,31.16124,全职,1-3年,"['节日礼物', '技能培训', '管理规范', '通讯津贴']"
519,4358149,实施工程师,北京,2018-04-02 10:40:16,7.6,3506,冠新软件,北京冠新医卫软件科技有限公司,150-500人,海淀区,本科,未融资,"移动互联网,医疗健康",116.356734,40.043731,全职,1-3年,"['绩效奖金', '年底双薪', '五险一金', '通讯津贴']"
520,4497417,软件实施工程师,重庆,2018-04-28 10:18:37,7.6,63010,聚禾富,重庆聚禾富科技有限公司,50-150人,南岸区,大专,不需要融资,"移动互联网,电子商务",106.562803,29.528834,全职,1-3年,[]
521,3580848,实施工程师,成都,2018-04-25 10:06:50,5.6,227928,新生泰和创,成都新生泰和创科技有限公司,50-150人,武侯区,大专,不需要融资,"移动互联网,数据服务",103.977308,30.621554,全职,1-3年,[]
522,3614388,实施工程师（运维）,北京,2018-04-24 18:38:57,19.0,125449,智齿科技,北京智齿博创科技有限公司,150-500人,海淀区,大专,C轮,"移动互联网,企业服务",116.30533,39.982357,全职,3-5年,"['绩效奖金', '定期体检', '零食水果', '弹性工作']"
523,4248143,实施工程师,杭州,2018-04-19 14:40:30,5.6,63890,天正思维,浙江天正思维信息技术有限公司,150-500人,西湖区,本科,不需要融资,企业服务,120.154787,30.268047,全职,不限,"['技能培训', '节日礼物', '带薪年假', '绩效奖金']"
524,4444041,实施工程师,北京,2018-04-18 16:49:31,5.2,21229,嘉和美康,北京嘉和美康信息技术有限公司,500-2000人,海淀区,大专,C轮,"移动互联网,医疗健康",116.304932,40.041195,全职,1-3年,"['管理人性化', '发展多元化', '培训全面化', '晋升机会多']"
525,4244980,实施工程师,北京,2018-04-18 16:01:58,10.8,31467,北创软件,北京创讯未来软件技术有限公司,15-50人,海淀区,本科,未融资,移动互联网,116.360711,39.96398,全职,3-5年,"['技能培训', '节日礼物', '专项奖金', '带薪年假']"
526,4349683,实施工程师,西安,2018-04-09 14:19:53,4.8,21229,嘉和美康,北京嘉和美康信息技术有限公司,500-2000人,雁塔区,大专,C轮,"移动互联网,医疗健康",108.882489,34.223117,全职,1-3年,"['管理人性化', '发展多元化', '培训全面化', '晋升机会多']"
527,4496922,运维实施工程师,成都,2018-04-28 09:29:13,4.8,224808,成都传晟信息,成都传晟信息技术有限公司,50-150人,高新区,大专,不需要融资,"数据服务,移动互联网",104.056159,30.588204,全职,1-3年,[]
528,3929413,软件开发实施工程师,深圳,2018-04-27 14:18:53,14.0,113083,数尊,数尊信息科技（上海）有限公司,15-50人,南山区,本科,A轮,"移动互联网,金融",113.936658,22.523953,全职,3-5年,"['领导好', '扁平管理', '岗位晋升', '绩效奖金']"
529,3749609,实施工程师,杭州,2018-04-23 13:44:11,3.8,200882,南京云档,南京云档信息科技有限公司,150-500人,上城区,不限,未融资,企业服务,120.173887,30.249526,全职,不限,[]
530,1378116,IT支持/实施工程师,南京,2018-04-23 11:52:12,7.0,111138,嵩讯科技,南京嵩讯科技开发有限公司,50-150人,江宁区,大专,未融资,"移动互联网,电子商务",118.77933982,31.95199043,全职,1-3年,"['年底双薪', '交通补助', '带薪年假', '午餐补助']"
531,4435206,实施工程师,杭州,2018-04-17 15:29:29,5.6,35124,格讯,杭州格讯科技有限公司,50-150人,滨江区,大专,B轮,"O2O,数据服务",120.18046,30.18881,全职,1-3年,"['技能培训', '节日礼物', '股票期权', '专项奖金']"
532,4402871,软件实施工程师,上海,2018-04-11 13:11:45,5.2,207123,上海纷时信息技术有限公司,上海纷时信息技术有限公司,15-50人,宝山区,大专,不需要融资,企业服务,121.42904,31.38319,全职,1-3年,"['年底双薪', '股票期权', '专项奖金', '年终分红']"
533,711991,实施工程师,北京,2018-04-03 17:45:38,7.0,56492,华软新元,北京华软新元信息技术股份有限公司,15-50人,朝阳区,本科,未融资,"数据服务,其他",116.42461221,39.99528251,全职,1-3年,"['技能培训', '节日礼物', '带薪年假', '绩效奖金']"
534,2462381,实施工程师（无锡）,无锡,2018-04-01 21:08:59,5.2,151253,夸微科技,无锡夸微科技有限公司,15-50人,江阴市,大专,未融资,电子商务,,,全职,1-3年,[]
535,4398185,金风慧能-软件实施工程师J13456,北京,2018-04-19 11:46:15,9.8,143967,金风科技,北京金风科创风电设备有限公司,2000人以上,大兴区,本科,上市公司,"硬件,其他",116.543137,39.775778,全职,5-10年,"['带薪年假', '节日礼物', '帅哥多', '美女多']"
536,2239477,实施工程师,上海,2018-04-04 10:32:13,7.0,20717,百胜软件,上海百胜软件有限公司,2000人以上,浦东新区,大专,D轮及以上,"移动互联网,企业服务",121.52898003,31.20598992,全职,不限,[]
537,4417156,运维实施工程师,苏州,2018-04-25 14:24:54,6.2,134675,苏州无线生活,苏州无线生活网络科技有限公司,50-150人,昆山市,大专,未融资,移动互联网,120.97364,31.431338,全职,1年以下,[]
538,4182249,实施工程师,北京,2018-04-23 10:43:46,4.8,107210,博能科技,北京博能科技有限公司,50-150人,海淀区,大专,上市公司,"企业服务,信息安全",116.314326,39.982115,全职,1-3年,"['年底双薪', '绩效奖金', '带薪年假', '交通补助']"
539,3309086,实施工程师,杭州,2018-04-28 09:18:09,4.2,224157,杭州搜娱科技,杭州搜娱科技有限公司,少于15人,西湖区,大专,未融资,其他,120.066953,30.313021,全职,1-3年,[]
540,4413929,实施工程师,北京,2018-04-12 18:10:46,7.0,21229,嘉和美康,北京嘉和美康信息技术有限公司,500-2000人,海淀区,大专,C轮,"移动互联网,医疗健康",116.304932,40.041195,全职,1-3年,"['管理人性化', '发展多元化', '培训全面化', '晋升机会多']"
541,2762342,软件实施助理工程师,广州,2018-04-27 18:37:04,3.8,123829,易达科技,广州易达建信科技开发有限公司,150-500人,天河区,大专,不需要融资,企业服务,112.993461,22.994261,全职,不限,"['绩效奖金', '带薪年假', '岗位晋升', '节日礼物']"
542,4088820,高级实施工程师,北京,2018-04-26 10:48:25,11.2,294309,聚云位智,北京聚云位智信息科技有限公司,15-50人,朝阳区,本科,A轮,数据服务,116.417034,40.031998,全职,3-5年,"['大数据', '带薪年假', '弹性工作', '技能培训']"
543,4387430,软件实施工程师,武汉,2018-04-22 19:23:44,4.8,169792,极峰体育,武汉极智峰运动科技有限公司,15-50人,东湖新技术开发区,大专,未融资,文化娱乐,114.40564,30.4541,全职,1-3年,[]
544,4217842,实施工程师,成都,2018-04-17 17:35:35,4.8,80578,医鸣数据,北京医鸣技术有限公司,15-50人,高新区,大专,B轮,"移动互联网,数据服务",104.056073,30.632985,全职,不限,"['绩效奖金', '交通补助', '通讯津贴', '午餐补助']"
545,4404181,实施工程师,深圳,2018-04-11 15:22:35,8.2,359268,乐家云计算有限公司,深圳市乐家云计算有限公司,50-150人,南山区,本科,不需要融资,"移动互联网,企业服务",113.916332,22.531811,全职,1-3年,"['""""']"
546,4411131,实施工程师~六险一金,北京,2018-04-28 15:07:05,5.4,131515,众合卓越,北京众合卓越科技服务有限公司,150-500人,海淀区,本科,不需要融资,"数据服务,移动互联网",,,全职,1-3年,"['绩效奖金', '带薪年假', '定期体检']"
547,4441016,软件开发实施工程师,济南,2018-04-18 12:17:58,6.8,60730,济南贝森电子,济南贝森电子信息有限公司,50-150人,历下区,大专,未融资,"移动互联网,其他",117.109548,36.696008,全职,1-3年,"['技能培训', '年底双薪', '专项奖金', '带薪年假']"
548,4024450,实施工程师,广州,2018-04-16 11:15:48,3.8,57867,盛盈汇,广州市盛盈汇食品科技有限公司,150-500人,海珠区,大专,上市公司,电子商务,113.318103,23.088689,全职,应届毕业生,"['五险一金', '周未双休', '带薪年假', '绩效奖金']"
549,3962084,IT软件实施工程师,天津,2018-04-30 17:31:30,5.6,149034,骏嘉财通,北京骏嘉财通科技有限公司,500-2000人,河西区,大专,未融资,金融,117.219904,39.093899,全职,不限,"['专项奖金', '绩效奖金', '年终分红', '带薪年假']"
550,2474658,实施工程师,南京,2018-04-17 15:20:18,8.4,138969,保旺达,江苏保旺达软件技术有限公司,150-500人,浦口区,本科,不需要融资,信息安全,118.697461,32.162731,全职,3-5年,"['午餐补助', '交通补助', '带薪年假', '定期体检']"
551,4290323,实施工程师,杭州,2018-04-04 09:48:38,10.8,275218,古语科技,杭州古语科技有限公司,50-150人,西湖区,本科,未融资,"移动互联网,信息安全",120.136803,30.272931,全职,3-5年,"['交通补助', '午餐补助', '带薪年假', '扁平管理']"
552,2649853,实施工程师（合肥）,合肥,2018-04-17 15:32:53,5.6,161693,卫宁软件,卫宁健康科技集团股份有限公司合肥分公司,500-2000人,蜀山区,本科,上市公司,"医疗健康,信息安全",117.250164,31.851266,全职,不限,[]
553,4207468,实施工程师,深圳,2018-04-12 09:04:58,10.8,96281,银河表计,深圳市银河表计股份有限公司,150-500人,南山区,本科,不需要融资,其他,113.939324,22.524457,全职,不限,"['专项奖金', '股票期权', '带薪年假', '绩效奖金']"
554,4231196,实施经理,海口,2018-05-01 20:34:23,8.4,274166,拓普网络,北京拓普丰联信息工程有限公司,150-500人,美兰区,大专,未融资,移动互联网,110.34091,20.026091,全职,3-5年,"['年底双薪', '通讯津贴', '周末双休', '五险一金']"
555,4483487,运维实施工程师,北京,2018-05-01 19:58:54,9.8,30605,赢时胜软件,深圳市赢时胜信息技术股份有限公司,500-2000人,顺义区,本科,上市公司,金融,116.660986,40.163034,全职,1-3年,"['活动多多', '氛围轻松', '自研产品', '上市公司']"
556,4426206,系统实施工程师,上海,2018-04-26 13:57:00,4.8,164928,久趣鹿途,上海鹿途网络科技有限公司,少于15人,黄浦区,大专,未融资,"移动互联网,旅游",121.445904,31.199653,全职,1-3年,[]
557,4436531,实施工程师,武汉,2018-04-17 16:56:04,7.0,366687,中科软,中科软科技股份有限公司-信息工程一部7组,2000人以上,洪山区,本科,不需要融资,其他,114.407426,30.505886,全职,1-3年,"['""""']"
558,2463068,硬件实施工程师,杭州,2018-04-10 11:02:12,5.2,92358,吉黄科技,杭州吉黄网络科技有限公司,50-150人,余杭区,大专,未融资,"移动互联网,数据服务",119.992047,30.276004,全职,1年以下,"['带薪年假', '绩效奖金', '扁平管理', '领导好']"
559,4492203,软件实施工程师,杭州,2018-04-27 11:02:43,8.8,34641,视在科技,杭州视在科技有限公司,少于15人,西湖区,本科,天使轮,"移动互联网,文化娱乐",120.089097,30.288709,全职,1-3年,"['节日礼物', '年底双薪', '带薪年假', '岗位晋升']"
560,4217069,高级实施工程师,西安,2018-04-24 15:57:50,8.2,298836,明朝万达,北京明朝万达科技股份有限公司,150-500人,高新技术产业开发区,本科,上市公司,"信息安全,数据服务",108.883885,34.197824,全职,3-5年,"['""""']"
561,4408177,实施工程师,深圳,2018-04-12 09:47:36,7.2,96281,银河表计,深圳市银河表计股份有限公司,150-500人,南山区,本科,不需要融资,其他,113.939324,22.524457,全职,应届毕业生,"['专项奖金', '股票期权', '带薪年假', '绩效奖金']"
562,4399375,实施工程师,北京,2018-04-10 18:53:21,10.8,128534,易轻软件,北京易轻软件有限公司,少于15人,昌平区,本科,天使轮,"移动互联网,企业服务",116.36116,40.073875,全职,1-3年,"['交通补助', '股票期权', '年底双薪', '通讯津贴']"
563,4250973,实施工程师,武汉,2018-04-09 14:10:46,5.2,2238,九州通医药集团股份有限公司,九州通医药集团股份有限公司,2000人以上,汉阳区,大专,上市公司,电子商务,0.0,0.0,全职,1-3年,"['技能培训', '项目奖金', '带薪年假', '话费补贴']"
564,2879441,实施工程师,北京,2018-04-08 14:03:29,7.6,39793,中科院自动化所,中国科学院自动化研究所,2000人以上,海淀区,本科,不需要融资,数据服务,116.334031,39.984563,全职,不限,"['带薪年假', '岗位晋升', '定期体检', '五险一金']"
565,4199429,项目经理/实施工程师,上海,2018-04-28 10:00:23,10.8,65313,浙江保融,浙江保融科技有限公司,150-500人,浦东新区,本科,不需要融资,金融,121.544379,31.221517,全职,3-5年,"['年底双薪', '节日礼物', '岗位晋升', '通讯津贴']"
566,4354763,实施工程师（产品部）,广州,2018-04-28 08:38:14,10.8,62627,广东亿迅,广东亿迅科技有限公司,2000人以上,海珠区,不限,不需要融资,移动互联网,39.897445,116.331398,全职,3-5年,"['技能培训', '节日礼物', '年底双薪', '带薪年假']"
567,4467845,软件实施工程师,武汉,2018-04-23 17:47:50,5.6,40238,Topstar,武汉拓思达科技信息技术有限公司,15-50人,洪山区,本科,未融资,移动互联网,114.349126,30.5847,全职,1-3年,"['带薪年假', '绩效奖金', '岗位晋升', '五险一金']"
568,3508057,实施工程师,北京,2018-04-16 09:03:24,7.0,27400,普华和诚,北京普华和诚科技有限公司,150-500人,朝阳区,大专,未融资,医疗健康,116.453055,39.905149,全职,1-3年,"['绩效奖金', '五险一金', '带薪年假', '节日礼物']"
569,4317225,软件实施,重庆,2018-04-11 16:37:14,6.6,164634,百得思维,安徽百得思维信息科技有限公司,500-2000人,南岸区,本科,未融资,其他,106.637338,29.480069,全职,1-3年,[]
570,4373321,实施工程师,北京,2018-04-04 14:52:08,6.8,344629,中欣科技,北京中欣环测科技有限公司,15-50人,海淀区,不限,未融资,"移动互联网,企业服务",116.314526,39.982338,全职,不限,"['""""']"
571,2939546,软件实施工程师,武汉,2018-04-27 09:04:56,6.2,64988,顶点软件,福建顶点软件股份有限公司,500-2000人,洪山区,本科,不需要融资,"移动互联网,企业服务",114.408308,30.47883,全职,1-3年,"['技能培训', '节日礼物', '专项奖金', '带薪年假']"
572,4299597,软件开发实施工程师,上海,2018-04-26 17:26:55,9.6,202989,chinapex,创络（上海）数据科技有限公司,50-150人,徐汇区,本科,B轮,"数据服务,广告营销",0.0,0.0,全职,1-3年,"['绩效奖金', '股票期权', '弹性工作', '美女多']"
573,2990352,实施技术工程师（济南）,济南,2018-04-25 09:10:45,6.2,112666,浙江远图互联科技股份有限公司,浙江远图互联科技股份有限公司,150-500人,市中区,大专,上市公司,"移动互联网,医疗健康",0.0,0.0,全职,1-3年,"['带薪年假', '定期体检', '专项奖金', '股票期权']"
574,3903206,实施工程师,上海,2018-04-23 11:14:30,6.8,82252,药易,上海药易供应链管理有限公司,50-150人,普陀区,大专,B轮,"移动互联网,医疗健康",121.393495,31.224321,全职,1-3年,"['带薪年假', '领导好', '定期体检', '通讯津贴']"
575,2583498,软件实施工程师,北京,2018-04-16 09:06:38,7.6,31504,乐知行,北京讯飞乐知行软件有限公司,150-500人,海淀区,本科,未融资,教育,116.299394,40.044745,全职,不限,"['绩效奖金', '岗位晋升', '管理规范', '定期体检']"
576,2360882,实施工程师,上海,2018-04-12 10:11:08,7.2,38589,艾格文,上海艾格文信息科技有限公司,15-50人,长宁区,本科,不需要融资,企业服务,121.426917,31.19926,全职,1-3年,"['岗位晋升', '绩效奖金', '带薪年假', '节日礼物']"
577,4167782,实施工程师,郑州,2018-04-11 09:55:03,4.8,316244,郑州乐程,郑州乐程电子科技有限公司,15-50人,二七区,本科,未融资,其他,113.668171,34.720332,全职,1-3年,"['交通补助', '带薪年假', '定期体检', '绩效奖金']"
578,2764783,实施工程师(驻合肥),合肥,2018-04-10 14:59:18,6.2,16837,爱瑞思,爱瑞思软件（深圳）有限公司,150-500人,政务文化新区,大专,未融资,"电子商务,金融",117.308127,31.863051,全职,1-3年,"['绩效奖金', '五险一金', '带薪年假', '节日礼物']"
579,3657385,实施工程师,北京,2018-04-03 17:48:34,6.2,121231,智诚民康,北京智诚民康信息技术有限公司,15-50人,朝阳区,大专,未融资,"医疗健康,数据服务",116.537136,39.905579,全职,不限,[]
580,4011106,实施工程师（浙江）,杭州,2018-04-27 10:57:13,7.0,76795,爱朗格瑞,北京爱朗格瑞科技有限公司,150-500人,西湖区,大专,不需要融资,"企业服务,其他",120.136973,30.268807,全职,1-3年,"['年底双薪', '带薪年假', '绩效奖金', '扁平管理']"
581,3937865,实施工程师/业务分析员（上海）,上海,2018-04-26 15:31:39,2.4,37191,树维,上海树维信息科技有限公司,150-500人,杨浦区,本科,上市公司,"企业服务,教育",121.542063,31.276103,实习,应届毕业生,"['绩效奖金', '带薪年假', '定期体检', '弹性工作']"
582,3344300,实施工程师,北京,2018-04-18 08:53:54,6.2,24995,泛微,上海泛微网络科技股份有限公司,2000人以上,朝阳区,本科,上市公司,"移动互联网,企业服务",116.462808,39.956548,全职,1-3年,"['技能培训', '带薪年假', '绩效奖金', '岗位晋升']"
583,4456667,实施工程师,北京,2018-04-24 09:46:41,6.8,369699,智量酷,北京智量酷教育科技有限公司,500-2000人,海淀区,大专,天使轮,"企业服务,教育",116.296302,40.044423,全职,不限,[]
584,4226765,软件实施工程师,北京,2018-04-28 11:00:50,8.8,335444,医帮管家,北京医帮管家网络科技有限公司,50-150人,朝阳区,不限,A轮,医疗健康,116.407334,40.001665,全职,1-3年,[]
585,4264538,实施工程师,北京,2018-04-10 09:05:11,11.2,33874,全智道,全智道（北京）科技有限公司,15-50人,海淀区,大专,天使轮,移动互联网,116.307033,39.983085,全职,3-5年,"['技能培训', '股票期权', '带薪年假', '扁平管理']"
586,4126464,项目工程师（实施）,上海,2018-04-24 16:24:53,14.0,31317,中国金融认证中心,中金金融认证中心有限公司,500-2000人,浦东新区,本科,不需要融资,"金融,数据服务",121.626502,31.203161,全职,1-3年,"['年底双薪', '绩效奖金', '管理规范', '定期体检']"
587,554674,实施工程师,武汉,2018-04-10 08:55:05,3.8,33217,华信数据,武汉华信数据系统有限公司,50-150人,洪山区,大专,未融资,"企业服务,数据服务",114.424821,30.503197,全职,不限,"['技能培训', '节日礼物', '年底双薪', '岗位晋升']"
588,3937990,实施工程师/业务分析员（北京）,北京,2018-04-26 15:32:16,2.4,37191,树维,上海树维信息科技有限公司,150-500人,海淀区,本科,上市公司,"企业服务,教育",116.317866,40.030842,实习,应届毕业生,"['绩效奖金', '带薪年假', '定期体检', '弹性工作']"
589,4324550,实施顾问,无锡,2018-04-27 13:16:36,6.2,224073,上海喔趣,上海喔趣信息科技有限公司,150-500人,新吴区,本科,不需要融资,移动互联网,120.329666,31.573485,全职,1-3年,[]
590,4492793,实施顾问（上海）,上海,2018-04-27 11:52:13,7.6,86167,新核云,上海纽酷信息科技有限公司,50-150人,徐汇区,本科,A轮,"移动互联网,企业服务",121.467262,31.192769,全职,1-3年,"['股票期权', '国外团建', '开心工作', '年轻团队']"
591,4439604,实施工程师,武汉,2018-04-18 10:34:28,4.8,12731,北京亿信华辰,北京亿信华辰软件有限责任公司,150-500人,东湖新技术开发区,本科,未融资,数据服务,114.426583,30.453894,全职,不限,"['绩效奖金', '五险一金', '带薪年假', '节日礼物']"
592,4126971,软件实施工程师,成都,2018-04-08 16:29:29,5.6,31771,博软软件,成都博软软件开发有限公司,15-50人,锦江区,本科,未融资,移动互联网,103.99341,30.994233,全职,1-3年,[]
593,3630690,实施工程师（工作地点：梅州）,梅州,2018-04-28 17:31:55,3.8,24348,中大凯旋,广州中大凯旋电子科技有限公司,150-500人,梅县区,大专,不需要融资,电子商务,116.129749,24.29174,全职,不限,"['年终分红', '绩效奖金', '专项奖金', '五险一金']"
594,2841508,售前咨询及实施,北京,2018-04-23 11:30:04,14.0,156190,鸿链科技,北京鸿链科技有限公司,15-50人,顺义区,本科,未融资,"企业服务,数据服务",116.563056,40.071164,全职,3-5年,"['年底双薪', '带薪年假', '弹性工作', '五险一金']"
595,4232792,软件实施工程师,广州,2018-04-20 10:47:14,7.8,182503,联兆,广州市联兆基因科技有限公司,50-150人,海珠区,大专,未融资,"其他,医疗健康",113.384064,23.102148,全职,1-3年,"['年底双薪', '带薪年假', '绩效奖金', '午餐补助']"
596,4447013,实施顾问-技术支持,广州,2018-04-27 19:03:26,4.8,167781,虎赞科技,上海虎赞信息科技有限公司,50-150人,越秀区,不限,天使轮,"电子商务,企业服务",113.306574,23.132272,全职,不限,"['股票期权', '专项奖金', '带薪年假', '年底双薪']"
597,2994843,实施技术工程师（郑州）,郑州,2018-04-25 09:10:45,5.6,112666,浙江远图互联科技股份有限公司,浙江远图互联科技股份有限公司,150-500人,金水区,大专,上市公司,"移动互联网,医疗健康",113.660555,34.800156,全职,1-3年,"['带薪年假', '定期体检', '专项奖金', '股票期权']"
598,2879553,实施工程师,北京,2018-04-08 13:12:02,7.6,152532,中科智加,北京中科智加科技有限公司,50-150人,海淀区,本科,不需要融资,"移动互联网,数据服务",116.334031,39.984563,全职,不限,[]
599,4363894,开发实施,重庆,2018-04-03 09:38:13,7.6,98586,云之家,深圳云之家网络有限公司,150-500人,渝北区,大专,A轮,"移动互联网,企业服务",106.509361,29.614118,全职,1-3年,"['节日礼物', '股票期权', '带薪年假', '年度旅游']"
600,4436894,实施顾问（上海）,上海,2018-04-26 10:50:26,6.2,224073,上海喔趣,上海喔趣信息科技有限公司,150-500人,徐汇区,大专,不需要融资,移动互联网,121.441596,31.185112,全职,3-5年,[]
601,4244919,高级实施工程师（深圳）,深圳,2018-04-28 17:34:17,9.6,124751,石竹软件,广州石竹计算机软件有限公司,50-150人,龙岗区,本科,不需要融资,"企业服务,数据服务",0.0,0.0,全职,3-5年,"['五天7小时', '定期体检', '通讯津贴', '带薪年假']"
602,3447091,软件实施工程师,成都,2018-04-25 17:14:59,6.2,174026,厚立信息,成都厚立信息技术有限公司,50-150人,高新区,大专,天使轮,"医疗健康,数据服务",104.056543,30.53872,全职,1-3年,"['年底双薪', '带薪年假', '交通补助', '定期体检']"
603,2975619,实施工程师/技术支持工程师,深圳,2018-04-28 11:25:07,6.6,46525,永兴元,深圳市永兴元科技有限公司,150-500人,南山区,本科,不需要融资,"移动互联网,生活服务",113.941246,22.544974,全职,1-3年,"['年底双薪', '节日礼物', '技能培训', '绩效奖金']"
604,4492152,实施顾问 03-03-01,杭州,2018-04-27 10:59:32,4.2,18655,大搜车,杭州大搜车汽车服务有限公司,500-2000人,余杭区,大专,D轮及以上,"移动互联网,O2O",120.032401,30.243532,全职,1-3年,"['技能培训', 'Geek', '开放', '扁平管理']"
605,4442201,软件实施工程师,深圳,2018-04-18 14:40:29,7.6,25317,金证股份,深圳市金证科技股份有限公司,2000人以上,南山区,大专,上市公司,金融,113.947599,22.534921,全职,1-3年,"['激情的团队', '股票期权', '努力变大牛', '有舞台给您跳']"
606,4387650,中级系统实施工程师,成都,2018-04-28 14:44:09,10.0,38056,电科华云,中电科华云信息技术有限公司,150-500人,高新区,本科,A轮,"移动互联网,数据服务",104.06788,30.53899,全职,3-5年,"['带薪年假', '岗位晋升', '领导好', '定期体检']"
607,4272794,HIS实施工程师（贵州）,贵阳,2018-04-27 11:39:05,6.8,122054,华唯科技,四川华唯科技有限责任公司,50-150人,云岩区,不限,不需要融资,"移动互联网,医疗健康",106.630153,26.647661,全职,3-5年,[]
608,4463046,软件实施工程师（哈尔滨）,哈尔滨,2018-04-27 11:36:59,5.6,67390,订货宝,成都阿商信息技术有限公司,50-150人,双城区,大专,B轮,电子商务,126.312745,45.383263,全职,1-3年,"['节日礼物', '带薪年假', '扁平管理', '领导好']"
609,4335237,软件实施工程师,北京,2018-04-23 17:47:01,4.8,12575,中国煤炭市场网,北京中煤时代科技发展有限公司,50-150人,丰台区,大专,未融资,电子商务,116.286343,39.823265,全职,1-3年,"['绩效奖金', '专项奖金', '年底双薪', '五险一金']"
610,3431917,运维实施工程师,杭州,2018-04-20 15:23:46,3.8,184639,云霁,北京云霁网络科技有限公司,15-50人,余杭区,大专,A轮,"企业服务,金融",120.00884,30.283485,实习,应届毕业生,"['绩效奖金', '带薪年假', '股票期权', '午餐补助']"
611,4297188,实施工程师（高级）,北京,2018-04-09 09:48:09,9.6,81330,中关村科技软件,中关村科技软件股份有限公司,50-150人,海淀区,本科,不需要融资,"移动互联网,数据服务",116.29422,40.05067,全职,3-5年,"['技能培训', '节日礼物', '带薪年假', '年度旅游']"
612,2994852,实施技术工程师（武汉）,武汉,2018-04-25 09:10:45,5.6,112666,浙江远图互联科技股份有限公司,浙江远图互联科技股份有限公司,150-500人,武昌区,大专,上市公司,"移动互联网,医疗健康",114.316223,30.554235,全职,1-3年,"['带薪年假', '定期体检', '专项奖金', '股票期权']"
613,4056926,线上实施,廊坊,2018-04-28 14:40:56,4.8,233895,车行168,北京车通达科技有限公司,150-500人,三河市,大专,B轮,移动互联网,116.792387,39.989967,全职,不限,"['绩效奖金', '午餐补助', '定期体检', '带薪年假']"
614,4487836,软件实施工程师（沈阳）,沈阳,2018-04-26 15:12:17,3.4,55549,易能云科技,重庆市易能云科技有限公司,50-150人,沈河区,本科,不需要融资,"移动互联网,数据服务",123.44142,41.804979,全职,1-3年,"['技能培训', '年底双薪', '绩效奖金', '岗位晋升']"
615,4474314,项目实施工程师,北京,2018-04-26 09:43:26,6.8,26426,BJCA,北京数字认证股份有限公司,500-2000人,海淀区,本科,上市公司,信息安全,116.304382,39.984408,全职,1-3年,"['五险一金', '午餐补助', '绩效奖金', '交通补助']"
616,4173120,软件实施工程师,武汉,2018-04-16 17:06:30,7.0,255602,华杰中南,华杰工程咨询有限公司中南分公司,50-150人,硚口区,本科,不需要融资,"移动互联网,其他",114.252662,30.576146,全职,应届毕业生,[]
617,4001790,实施顾问,上海,2018-04-26 10:50:55,8.4,73184,薪人薪事,企家有道网络技术（北京）有限公司,50-150人,静安区,本科,B轮,企业服务,121.455605,31.229279,全职,1-3年,"['股票期权', '扁平管理', '弹性工作', '五险一金']"
618,3515382,实施顾问,深圳,2018-04-26 16:47:50,7.6,5834,小满科技,深圳市小满科技有限公司,150-500人,南山区,大专,C轮,"企业服务,数据服务",113.955443,22.542071,全职,1-3年,"['绩效奖金', '股票期权', '五险一金', '带薪年假']"
619,4351238,软件实施工程师,上海,2018-04-23 14:20:11,6.8,355504,致得软件,致得科创软件(北京)有限公司,15-50人,普陀区,大专,未融资,"企业服务,数据服务",121.439012,31.242042,全职,1-3年,"['带薪年假', '节日礼物', '扁平管理', '技能培训']"
620,4469680,实施顾问,北京,2018-04-28 10:13:46,11.2,272321,知学云,深圳市知学云科技有限公司,150-500人,东城区,本科,不需要融资,"移动互联网,教育",116.424346,39.948702,全职,3-5年,"['责任', '创新', '分享', '激情']"
621,4379952,实施顾问,上海,2018-04-26 10:02:37,7.6,154561,MoSeeker仟寻,上海大岂网络科技有限公司,50-150人,徐汇区,本科,B轮,移动互联网,121.432441,31.196247,全职,3-5年,"['带薪年假', '定期体检', '年终分红', '节日礼物']"
622,4448044,技术支持与实施,北京,2018-04-23 11:24:34,4.8,56041,任网行,北京任网行科技有限公司,50-150人,昌平区,大专,不需要融资,"电子商务,金融",116.41499,40.05613,全职,1-3年,"['技能培训', '专项奖金', '带薪年假', '岗位晋升']"
623,4435386,实施主管,深圳,2018-04-27 20:09:51,9.6,123777,通力互联,北京通力互联技术服务有限公司,2000人以上,罗湖区,本科,不需要融资,"电子商务,企业服务",114.120147,22.581327,全职,1-3年,"['绩效奖金', '交通补助', '定期体检', '通讯津贴']"
624,3123978,技术支持/实施工程师,杭州,2018-04-08 10:55:05,7.0,44484,易和互联,杭州易和互联软件技术有限公司,15-50人,余杭区,本科,不需要融资,企业服务,120.03905,30.284981,全职,不限,"['技能培训', '年底双薪', '带薪年假', '绩效奖金']"
625,4357384,系统实施工程师（哈尔滨）,哈尔滨,2018-04-01 23:20:38,12.0,216917,阿里文娱,大鱼快乐有限公司,2000人以上,南岗区,本科,上市公司,"文化娱乐,移动互联网",126.695498,45.752079,全职,1-3年,"['年底双薪', '股票期权', '绩效奖金', '定期体检']"
626,4250647,实施顾问 [上海],上海,2018-04-27 10:17:56,10.2,86167,新核云,上海纽酷信息科技有限公司,50-150人,徐汇区,本科,A轮,"移动互联网,企业服务",121.467262,31.192769,全职,1-3年,"['股票期权', '国外团建', '开心工作', '年轻团队']"
627,4059587,项目实施工程师/项目经理,长沙,2018-04-28 14:19:57,8.8,3246,帆软软件,南京帆软软件有限公司,500-2000人,芙蓉区,本科,不需要融资,数据服务,0.0,0.0,全职,应届毕业生,"['技能培训', '股票期权', '带薪年假', '年度旅游']"
628,4422261,实施维护工程师,珠海,2018-04-25 09:27:26,9.0,352954,珠海万晟达,珠海市万晟达科技发展有限公司,50-150人,香洲区,大专,不需要融资,"移动互联网,数据服务",113.576811,22.284364,全职,1-3年,"['带薪年假', '通讯津贴', '定期体检', '年度旅游']"
