,职位编码,职位名称,所在城市,发布日期,薪资待遇(k),公司编码,公司名称,公司全称,公司规模,所在区域,最低学历,融资状态,公司类型,经度,纬度,全职/实习,工作经验
0,3780892,技术总监,宁波,2018-04-28 15:10:47,31.0,78225,草料二维码,宁波邻家网络科技有限公司,50-150人,海曙区,本科,未融资,"移动互联网,其他",0.0,0.0,全职,3-5年
1,3981750,技术总监,杭州,2018-04-27 09:12:20,34.0,26983,浙江冰峰,浙江冰峰科技有限公司,50-150人,滨江区,大专,不需要融资,游戏,120.19195,30.19735,全职,5-10年
2,4500389,技术总监,武汉,2018-04-30 02:37:17,24.0,140572,佰益源,武汉佰益源信息科技有限公司,50-150人,硚口区,本科,天使轮,"移动互联网,企业服务",114.194181,30.604995,全职,5-10年
3,4235818,技术总监,郑州,2018-04-28 15:58:49,17.0,324006,钱通控股集团,河南钱通投资管理有限公司,50-150人,郑东新区,本科,未融资,金融,113.735209,34.772265,全职,5-10年
4,4483519,技术总监,武汉,2018-04-26 14:19:41,21.0,212032,尚德机构,北京尚德在线教育科技有限公司,2000人以上,洪山区,本科,上市公司,教育,0.0,0.0,全职,5-10年
5,3930701,技术总监,厦门,2018-04-28 17:58:45,29.0,26742,趣游（厦门）科技有限公司,趣游（厦门）科技有限公司,150-500人,湖里区,本科,不需要融资,移动互联网,118.156696,24.524271,全职,5-10年
6,3263596,技术总监,长沙,2018-04-28 11:11:07,12.0,94013,湖南交通物流,湖南交通物流信息服务有限公司,15-50人,岳麓区,本科,未融资,移动互联网,112.993417,27.994254,全职,5-10年
7,4441307,技术总监,深圳,2018-04-28 10:53:02,34.0,98800,竹间智能科技(上海)有限公司,竹间智能科技（上海）有限公司,150-500人,南山区,本科,B轮,"移动互联网,其他",113.952696,22.530438,全职,5-10年
8,4029545,技术总监,北京,2018-04-28 10:35:12,27.0,200111,锐文网,北京锐文网络科技有限公司,15-50人,海淀区,本科,A轮,"移动互联网,文化娱乐",116.315297,39.981511,全职,5-10年
9,4080868,技术总监,杭州,2018-04-12 08:59:59,35.0,26248,丁香园,观澜网络（杭州）有限公司,500-2000人,滨江区,不限,D轮及以上,"医疗健康,企业服务",0.0,0.0,全职,5-10年
10,3483948,技术总监,北京,2018-04-28 13:39:10,31.0,25439,Udesk－企业级智能客服平台,北京沃丰时代数据科技有限公司,150-500人,西城区,本科,B轮,其他,116.357353,39.939211,全职,5-10年
11,4105528,技术总监,郑州,2018-04-27 18:07:11,24.0,116333,象聚集团,河南象聚实业有限公司,500-2000人,高新区,大专,不需要融资,"移动互联网,金融",113.566392,34.817257,全职,5-10年
12,2736632,技术总监,武汉,2018-04-26 14:53:16,14.0,111175,ZingFront智线,智线云科技（北京）有限公司,50-150人,洪山区,本科,A轮,"移动互联网,数据服务",114.417855,30.500538,全职,3-5年
13,4158938,技术总监,杭州,2018-04-28 18:17:05,24.0,37818,万商汇,浙江万商汇网络科技有限公司,50-150人,萧山区,本科,A轮,电子商务,120.245446,30.238378,全职,5-10年
14,3077701,技术总监,成都,2018-04-27 11:18:20,16.4,15899,谛听,成都谛听科技股份有限公司,50-150人,武侯区,本科,上市公司,移动互联网,104.070101,30.550622,全职,5-10年
15,3739999,技术总监,杭州,2018-04-25 11:53:47,38.0,73675,店家科技,杭州店家科技有限公司,50-150人,余杭区,本科,A轮,企业服务,119.999328,30.28781,全职,5-10年
16,976460,技术总监,北京,2018-04-28 15:03:57,38.0,179,她理财,北京新工场投资顾问有限公司,50-150人,朝阳区,本科,A轮,"移动互联网,金融",116.47647185,39.90804497,全职,5-10年
17,4498416,技术总监,广州,2018-04-28 11:44:56,38.0,228143,广东瑞亚传媒,广东瑞亚传媒发展有限公司,150-500人,荔湾区,大专,天使轮,"移动互联网,文化娱乐",113.228065,23.056905,全职,3-5年
18,2802092,技术总监,上海,2018-04-28 09:51:02,21.6,14983,游族网络,上海游族信息技术有限公司,500-2000人,徐汇区,不限,上市公司,"移动互联网,游戏",39.897445,116.331398,全职,5-10年
19,4137499,技术总监,苏州,2018-04-28 18:00:22,31.0,23398,极课大数据,江苏曲速教育科技有限公司,150-500人,工业园区,本科,B轮,教育、移动互联网,120.66659,31.296259,全职,10年以上
20,3330287,技术总监,杭州,2018-04-28 10:04:53,34.0,49117,钱粒科技,浙江钱粒科技有限公司,150-500人,西湖区,本科,A轮,移动互联网,120.073823,30.289948,全职,5-10年
21,2680590,技术总监,北京,2018-04-27 10:10:42,29.0,53308,妙健康,北京妙医佳信息技术有限公司,50-150人,朝阳区,本科,B轮,移动互联网,116.47384,39.90257007,全职,5-10年
22,3153301,技术总监,上海,2018-04-28 17:32:10,38.0,134233,立木征信,上海康成电子商务有限公司,50-150人,浦东新区,本科,未融资,"金融,电子商务",121.510217,31.229108,全职,5-10年
23,4417402,技术总监/CTO,广州,2018-04-27 15:31:12,42.0,81576,卡宝宝,广州卡宝宝互联网金融信息服务股份有限公司,50-150人,萝岗区,本科,上市公司,"移动互联网,金融",112.993461,22.994261,全职,5-10年
24,3547874,技术总监,杭州,2018-04-12 08:59:59,34.0,26248,丁香园,观澜网络（杭州）有限公司,500-2000人,滨江区,本科,D轮及以上,"医疗健康,企业服务",120.202258,30.188678,全职,5-10年
25,4050117,技术总监,北京,2018-04-28 10:13:47,28.0,272321,知学云,深圳市知学云科技有限公司,150-500人,东城区,本科,不需要融资,"移动互联网,教育",116.424346,39.948702,全职,5-10年
26,1214670,技术总监,广州,2018-04-28 11:17:38,44.0,44841,PPmoney互联网金融平台,万惠投资管理有限公司,500-2000人,天河区,本科,上市公司,金融,113.326686,23.119559,全职,5-10年
27,4158266,技术总监B岗,南京,2018-04-25 13:58:45,42.0,225665,惠龙易通,惠龙易通国际物流股份有限公司,150-500人,雨花台区,本科,A轮,"移动互联网,电子商务",0.0,0.0,全职,5-10年
28,4144686,技术总监,深圳,2018-04-20 15:57:38,19.0,97752,消费保,深圳市消费宝网络科技有限公司,50-150人,南山区,本科,天使轮,移动互联网,113.950613,22.557487,全职,5-10年
29,4189925,技术总监,杭州,2018-04-27 15:44:15,38.0,64712,火球科技,杭州火球科技有限公司,150-500人,西湖区,本科,A轮,"移动互联网,电子商务",120.075258,30.28882,全职,5-10年
30,4425672,技术总监,杭州,2018-04-27 09:23:40,54.0,20493,新移传媒,浙江新华移动传媒股份有限公司,50-150人,上城区,本科,不需要融资,移动互联网,120.15424,30.20754,全职,5-10年
31,3305978,技术总监,上海,2018-04-29 15:48:19,35.0,38329,云兜,上海云兜网络科技有限公司,50-150人,普陀区,本科,A轮,"电子商务,教育",121.437768,31.242574,全职,5-10年
32,4318399,技术总监,深圳,2018-04-28 09:05:09,35.0,3826,土拨鼠,浙江土拨鼠网络科技有限公司,150-500人,宝安区,本科,A轮,"移动互联网,电子商务",113.866041,22.575673,全职,5-10年
33,4495375,技术总监,北京,2018-04-27 17:08:44,19.0,246358,秀健身,北京秀健身网络科技有限公司,15-50人,昌平区,本科,未融资,移动互联网,116.290178,40.143752,全职,3-5年
34,4158345,技术总监B岗,苏州,2018-04-25 13:58:44,42.0,225665,惠龙易通,惠龙易通国际物流股份有限公司,150-500人,昆山市,本科,A轮,"移动互联网,电子商务",0.0,0.0,全职,5-10年
35,3795421,技术总监,南京,2018-04-25 20:00:36,38.0,53992,苏宁易购,南京苏宁软件技术有限公司,2000人以上,玄武区,本科,上市公司,"O2O,移动互联网",0.0,0.0,全职,5-10年
36,4481974,技术总监,杭州,2018-04-25 16:49:40,29.0,38306,阿拉丁信息科技,浙江阿拉丁电子商务股份有限公司,150-500人,滨江区,本科,上市公司,移动互联网,120.215111,30.213111,全职,5-10年
37,3692821,技术总监,武汉,2018-04-28 12:13:42,28.0,120978,药帮忙,武汉小药药医药科技有限公司,500-2000人,东湖新技术开发区,本科,C轮,医疗健康,114.421772,30.455517,全职,5-10年
38,4191088,技术总监/CTO,珠海,2018-04-28 20:14:35,28.0,32979,小源科技,珠海市小源科技有限公司,150-500人,香洲区,本科,C轮,移动互联网,113.54087,22.23359,全职,5-10年
39,4094428,技术总监,上海,2018-04-28 10:53:02,50.0,98800,竹间智能科技(上海)有限公司,竹间智能科技（上海）有限公司,150-500人,徐汇区,硕士,B轮,"移动互联网,其他",121.417459,31.175027,全职,10年以上
40,4334252,技术总监,上海,2018-04-24 14:34:59,39.0,23277,微知,上海微知软件科技有限公司,150-500人,静安区,本科,B轮,"企业服务,数据服务",121.428328,31.22863,全职,5-10年
41,4445666,技术总监,杭州,2018-04-28 16:08:29,38.0,12195,要出发,广州酷旅旅行社有限公司,500-2000人,滨江区,本科,D轮及以上,"电子商务,生活服务",120.220229,30.207793,全职,5-10年
42,4108674,技术总监,重庆,2018-04-27 15:39:52,21.0,180567,互递postalong,互递科技有限公司,50-150人,渝北区,不限,未融资,"移动互联网,生活服务",106.502402,29.614192,全职,不限
43,191232,技术总监,广州,2018-04-27 11:37:25,38.0,23648,运立方,北京运科网络科技有限公司,150-500人,天河区,硕士,C轮,"移动互联网,O2O",0.0,0.0,全职,5-10年
44,3856101,技术总监,北京,2018-04-28 10:34:42,46.0,19475,疯狂老师,上海享学网络科技有限公司,150-500人,朝阳区,本科,C轮,移动互联网,116.393925,40.004042,全职,5-10年
45,4353228,技术总监,深圳,2018-04-27 16:07:58,29.0,116424,深资创,深圳深资创软件开发技术有限公司,15-50人,宝安区,本科,未融资,"移动互联网,电子商务",0.0,0.0,全职,5-10年
46,2784242,技术总监,深圳,2018-04-28 09:13:03,38.0,129639,优加互联,深圳市优加互联科技有限公司,50-150人,南山区,本科,A轮,"移动互联网,电子商务",113.92487,22.510971,全职,5-10年
47,1480675,技术总监,广州,2018-04-27 17:24:59,36.0,114985,安发网络科技有限公司,广州市安发网络科技有限公司,15-50人,天河区,本科,A轮,"O2O,电子商务",113.333283,23.132751,全职,10年以上
48,230572,技术总监,重庆,2018-04-27 13:37:47,22.0,35338,重庆鸿巨网络科技有限公司,重庆鸿巨网络科技有限公司,150-500人,渝中区,本科,不需要融资,"移动互联网,电子商务",106.55443,29.56603001,全职,5-10年
49,2545158,技术总监,深圳,2018-04-26 08:53:54,48.0,103077,智慧享联,深圳市智慧享联网络技术有限公司,150-500人,南山区,本科,不需要融资,"移动互联网,O2O",113.993578,22.99368,全职,10年以上
50,4490322,技术总监,上海,2018-04-28 15:19:56,38.0,80314,投投金融信息服务有限公司,上海联泰资产管理有限公司,50-150人,长宁区,本科,A轮,"移动互联网,金融",121.357725,31.227883,全职,5-10年
51,4447957,技术总监,杭州,2018-04-20 13:07:39,28.0,110359,爱拼机,杭州爱拼机网络科技有限公司,50-150人,滨江区,大专,C轮,"移动互联网,旅游",120.20232,30.207399,全职,5-10年
52,4424264,技术总监-真格基金投资企业-51talk,北京,2018-04-28 22:34:42,42.0,23702,真格基金,北京真格天成投资管理有限公司,50-150人,海淀区,本科,不需要融资,金融,116.303276,40.035542,全职,5-10年
53,4499765,技术总监,北京,2018-04-28 15:22:33,38.0,246358,秀健身,北京秀健身网络科技有限公司,15-50人,昌平区,本科,未融资,移动互联网,116.301768,40.087032,全职,5-10年
54,3704041,技术总监,北京,2018-04-28 11:06:56,35.0,20091,中电博亚,北京中电博亚科技有限公司,50-150人,海淀区,本科,A轮,"电子商务,游戏",116.353194,40.016308,全职,5-10年
55,3318320,技术总监,广州,2018-04-28 09:52:22,34.0,95959,缺钱么,广东缺钱么网络科技有限公司,150-500人,天河区,本科,A轮,"移动互联网,金融",112.993461,22.994261,全职,5-10年
56,4491578,技术总监,杭州,2018-04-27 10:13:17,24.0,38306,阿拉丁信息科技,浙江阿拉丁电子商务股份有限公司,150-500人,滨江区,本科,上市公司,移动互联网,120.212651,30.212415,全职,5-10年
57,4458041,技术总监,北京,2018-04-28 10:40:22,33.0,100164,千锋教育,北京千锋互联科技有限公司,500-2000人,海淀区,本科,A轮,移动互联网,116.370571,40.037093,全职,1-3年
58,4382747,技术总监 － 安链云,上海,2018-04-27 10:51:22,41.0,29824,众安保险,众安在线财产保险股份有限公司,2000人以上,黄浦区,硕士,上市公司,金融,121.48782,31.243034,全职,5-10年
59,3960043,技术总监,广州,2018-04-27 10:31:58,19.0,72266,恒峰信息,恒峰信息技术有限公司,150-500人,萝岗区,本科,上市公司,"移动互联网,硬件",113.457904,23.17264,全职,不限
60,4359036,技术总监,北京,2018-04-27 21:49:09,42.0,23004,图灵机器人,北京光年无限科技有限公司,150-500人,海淀区,本科,B轮,移动互联网,116.312234,40.027697,全职,5-10年
61,4381935,技术总监 - 希遇科技,北京,2018-04-28 22:34:42,29.0,23702,真格基金,北京真格天成投资管理有限公司,50-150人,朝阳区,本科,不需要融资,金融,116.484929,39.924379,全职,5-10年
62,4224023,技术总监,北京,2018-04-28 15:31:55,35.0,30060,中公教育,北京中公教育科技股份有限公司,2000人以上,海淀区,本科,未融资,教育,116.35125,40.010953,全职,10年以上
63,4331755,技术总监,杭州,2018-04-27 10:25:16,54.0,148393,万家乐科技,杭州万家乐网络科技有限公司,150-500人,西湖区,本科,不需要融资,"移动互联网,金融",120.124799,30.273009,全职,5-10年
64,4059307,技术总监,杭州,2018-04-27 09:50:06,56.0,35980,车纷享,杭州车厘子智能科技有限公司,150-500人,拱墅区,本科,不需要融资,移动互联网,120.114024,30.325485,全职,5-10年
65,4391490,技术总监,深圳,2018-04-28 09:07:58,31.0,42627,中青宝,深圳中青宝互动网络股份有限公司,500-2000人,南山区,本科,上市公司,"移动互联网,游戏",113.952423,22.537373,全职,5-10年
66,4336472,技术总监,武汉,2018-04-27 17:32:54,21.0,309403,南博科技,武汉南博网络科技有限公司,150-500人,东湖新技术开发区,本科,未融资,"电子商务,其他",0.0,0.0,全职,5-10年
67,4194988,技术总监,杭州,2018-04-27 15:01:51,32.0,130680,巴九灵,杭州巴九灵文化创意有限公司,150-500人,下城区,本科,不需要融资,"文化娱乐,移动互联网",120.166755,30.315757,全职,10年以上
68,1726327,技术总监,深圳,2018-04-27 09:30:20,35.0,2066,小恩爱,深圳市梦之舵信息技术有限公司,50-150人,南山区,本科,A轮,社交网络,113.92558398,22.52393802,全职,5-10年
69,3795213,技术总监,太原,2018-04-11 18:34:20,12.0,144592,山西天帷,山西天帷智能城市规划设计有限公司,50-150人,小店区,本科,未融资,"移动互联网,教育",112.571011,37.747247,全职,10年以上
70,4117473,架构师/技术总监,深圳,2018-04-29 23:42:12,48.0,290938,中国正通汽车集团,正通汽车服务有限公司,2000人以上,南山区,本科,上市公司,其他,113.939728,22.525353,全职,5-10年
71,4443861,技术总监,长沙,2018-04-26 17:46:07,26.0,27754,惠农,湖南惠农科技有限公司,150-500人,芙蓉区,本科,未融资,"电子商务,O2O",112.993417,27.994254,全职,5-10年
72,1578219,技术总监,杭州,2018-04-28 08:05:05,14.4,105533,优考科技,杭州优考科技有限公司,15-50人,江干区,本科,天使轮,"移动互联网,教育",,,全职,3-5年
73,3139039,技术总监,杭州,2018-04-24 17:29:55,28.0,195181,社群赢行,杭州爱鑫品投资管理有限公司,15-50人,西湖区,本科,未融资,"金融,社交网络",120.071444,30.284065,全职,5-10年
74,3615868,技术总监,北京,2018-04-24 09:23:55,42.0,20917,君石控股,北京君石久正投资管理有限公司,150-500人,海淀区,本科,不需要融资,金融,116.313113,39.979474,全职,5-10年
75,4199095,技术总监,南宁,2018-04-19 10:40:51,22.2,134645,中国东信,中国—东盟信息港股份有限公司,150-500人,良庆区,本科,不需要融资,"数据服务,金融",108.37048228,22.76676916,全职,10年以上
76,3996432,技术总监,武汉,2018-04-27 23:36:28,24.0,307964,Firestorm,武汉踏浪出海科技有限公司,15-50人,洪山区,本科,A轮,移动互联网 金融,114.394678,30.510051,全职,5-10年
77,4086220,技术副总/技术总监,成都,2018-04-27 11:18:20,22.4,15899,谛听,成都谛听科技股份有限公司,50-150人,高新区,本科,上市公司,移动互联网,104.070101,30.550622,全职,10年以上
78,4003376,技术总监,杭州,2018-04-27 13:28:25,35.0,53080,有贝,有贝网络科技（杭州）有限公司,50-150人,滨江区,本科,不需要融资,"移动互联网,金融",120.20019,30.191665,全职,5-10年
79,4165685,技术总监,广州,2018-04-28 09:55:15,43.2,129227,3K游戏,上海游民网络科技有限公司,150-500人,天河区,本科,不需要融资,"游戏,移动互联网",113.380976,23.124854,全职,5-10年
80,3954379,技术总监,北京,2018-04-26 14:35:04,48.0,1561,Face++,北京旷视科技有限公司,500-2000人,海淀区,本科,C轮,"移动互联网,硬件",NaN,NaN,全职,5-10年
81,4263722,技术总监,北京,2018-04-10 17:08:20,41.0,36904,烽泰科技,烽泰科技（北京）有限公司,50-150人,海淀区,本科,不需要融资,企业服务,116.308623,40.03757,全职,5-10年
82,4335085,技术总监,北京,2018-04-30 08:03:17,19.0,174737,金银花,重庆金银花科技有限公司,少于15人,海淀区,本科,未融资,移动互联网、教育,116.351796,39.968809,全职,5-10年
83,4402464,技术总监,上海,2018-04-26 10:14:24,19.0,160317,珩灵智能,上海珩灵智能科技有限公司,15-50人,闵行区,本科,不需要融资,移动互联网,121.406806,31.136986,全职,5-10年
84,3060370,技术总监,深圳,2018-04-25 09:41:53,49.0,94,思必驰科技,苏州思必驰信息科技有限公司,150-500人,南山区,本科,C轮,企业服务,113.939219,22.52393,全职,5-10年
85,4284752,技术总监,上海,2018-04-27 09:50:57,42.0,295333,鲜驰达,上海成龙五谷信息科技有限公司,2000人以上,浦东新区,本科,不需要融资,移动互联网,39.897445,116.331398,全职,5-10年
86,3885688,技术总监/CTO,杭州,2018-04-27 10:55:29,35.0,88499,火石创造,杭州费尔斯通科技有限公司,50-150人,滨江区,本科,A轮,医疗健康,119.993591,29.993662,全职,5-10年
87,4158303,技术总监B岗,上海,2018-04-25 13:58:45,42.0,225665,惠龙易通,惠龙易通国际物流股份有限公司,150-500人,浦东新区,本科,A轮,"移动互联网,电子商务",0.0,0.0,全职,5-10年
88,3010741,技术总监,广州,2018-04-28 18:13:11,29.0,6356,兼职猫,广州九尾信息科技有限公司,150-500人,番禺区,本科,C轮,"移动互联网 ,O2O",112.993461,22.994261,全职,5-10年
89,3581820,技术总监,深圳,2018-04-28 09:21:56,48.0,15265,我来贷WeLab,深圳卫盈智信科技有限公司,500-2000人,南山区,本科,B轮,金融,113.94212,22.50907,全职,5-10年
90,2736630,技术总监,北京,2018-04-26 14:53:15,19.0,111175,ZingFront智线,智线云科技（北京）有限公司,50-150人,朝阳区,本科,A轮,"移动互联网,数据服务",116.472483,39.93868,全职,3-5年
91,4481349,技术总监/CTO,杭州,2018-04-25 16:01:29,24.0,38306,阿拉丁信息科技,浙江阿拉丁电子商务股份有限公司,150-500人,滨江区,本科,上市公司,移动互联网,120.214164,30.213574,全职,5-10年
92,4284138,技术总监,重庆,2018-04-24 11:06:09,18.8,309607,重庆有个表情网络科技有限公司,重庆有个表情网络科技有限公司,15-50人,南岸区,本科,不需要融资,"移动互联网,电子商务",106.556531,29.5223,全职,3-5年
93,4447619,技术总监,重庆,2018-04-19 10:52:06,18.8,66024,重庆时报,重庆时报社,2000人以上,南岸区,本科,上市公司,文化娱乐,106.5564,29.52221,全职,3-5年
94,4474439,CTO/技术总监,重庆,2018-04-26 09:29:02,14.0,339899,茂日软件,重庆茂日科技发展有限公司,15-50人,渝中区,不限,不需要融资,"移动互联网,电子商务",106.534804,29.546491,全职,5-10年
95,4488942,技术总监,北京,2018-04-26 16:35:42,34.0,61249,云鸟科技,北京云鸟科技有限公司,500-2000人,朝阳区,本科,D轮及以上,"移动互联网,O2O",116.470598,39.985842,全职,5-10年
96,4500498,技术总监,苏州,2018-04-28 16:40:21,17.0,375649,艾尼斯控股有限公司,艾尼斯控股有限公司,150-500人,相城区,本科,未融资,"移动互联网,教育",120.59259,31.37606,全职,5-10年
97,3614523,技术总监,北京,2018-04-10 16:52:32,21.0,22182,安正软件,广州安正软件股份有限公司,150-500人,西城区,本科,上市公司,"移动互联网,金融",116.359084,39.92067,全职,5-10年
98,4069839,技术总监,北京,2018-04-28 10:34:51,48.0,150239,考拉阅读,北京享阅教育科技有限公司,50-150人,海淀区,本科,B轮,"教育,移动互联网",116.30982,39.983452,全职,5-10年
99,3119800,技术总监,深圳,2018-04-26 09:54:03,56.0,64175,捷顺科技股份,深圳市捷顺科技实业股份有限公司,500-2000人,福田区,本科,上市公司,"移动互联网,O2O",114.04295,22.571492,全职,10年以上
100,4388828,技术总监,贵阳,2018-04-28 11:02:40,12.0,361293,蓝众投资,贵州蓝众投资管理有限公司,15-50人,观山湖区（金阳新区）,大专,不需要融资,企业服务,106.647216,26.622039,全职,5-10年
101,4359034,技术总监,保定,2018-04-28 13:48:37,39.0,116064,晨阳水漆，让家人放心,河北晨阳工贸集团有限公司,2000人以上,徐水县,本科,未融资,电子商务,115.67383,39.00934,全职,3-5年
102,2707592,技术总监,西安,2018-04-27 09:08:34,20.8,165191,西安小巨人,西安小巨人信息技术有限公司,15-50人,高新技术产业开发区,本科,A轮,"数据服务,移动互联网",108.886875,34.22455,全职,3-5年
103,4207996,技术总监,石家庄,2018-04-09 13:27:56,9.6,23727,知网,同方知网（北京）技术有限公司,2000人以上,长安区,本科,上市公司,"移动互联网,电子商务",114.546708,38.038705,全职,3-5年
104,2617837,技术总监,上海,2018-04-23 14:31:41,35.0,14357,游想网络,上海游想网络科技有限公司,50-150人,闵行区,本科,不需要融资,"移动互联网,游戏",121.38822,31.169269,全职,10年以上
105,4272056,技术总监,深圳,2018-04-28 11:36:30,78.0,31745,找靓机网,深圳市万事富科技有限公司,50-150人,福田区,本科,B轮,"移动互联网,电子商务",114.083397,22.539045,全职,5-10年
106,3945072,技术总监,北京,2018-04-02 20:16:02,68.0,48622,资产360,北京互连众信科技有限公司,150-500人,朝阳区,本科,B轮,"移动互联网,O2O",116.47,39.934299,全职,5-10年
107,3738686,技术总监/专家,长沙,2018-04-28 18:45:39,21.0,252410,58农服,湖南五八农服信息技术有限公司,50-150人,岳麓区,本科,A轮,移动互联网,112.879169,28.226817,全职,5-10年
108,4501341,技术总监,成都,2018-04-28 18:04:01,13.2,314595,四川大源文创科技有限公司,四川大源文创科技有限公司,50-150人,高新区,本科,未融资,移动互联网,104.064981,30.547162,全职,3-5年
109,410947,技术总监,厦门,2018-04-28 09:36:51,12.0,48325,零图,厦门零图科技有限公司,15-50人,湖里区,大专,A轮,"移动互联网,硬件",118.18707971,24.5278101,全职,3-5年
110,4350169,技术总监/经理,杭州,2018-03-30 10:37:38,28.0,46629,金诚集团,浙江诚泽金开投资管理有限公司,2000人以上,拱墅区,本科,上市公司,金融,120.144599,30.313212,全职,5-10年
111,4430363,技术总监,北京,2018-04-27 10:46:28,38.0,2768,易到,北京东方车云信息技术有限公司,500-2000人,东城区,本科,D轮及以上,"移动互联网,O2O",116.433819,39.904592,全职,5-10年
112,4497794,技术总监,武汉,2018-04-28 10:50:48,20.2,358204,方墨科技,湖北方墨科技有限公司,15-50人,洪山区,大专,不需要融资,移动互联网,114.421262,30.479791,全职,5-10年
113,1401865,技术总监,武汉,2018-04-27 18:53:31,15.0,70044,平行世界,武汉平行世界网络科技有限公司,50-150人,武汉经济技术开发区,本科,天使轮,"电子商务,文化娱乐",114.16162223,30.49214971,全职,5-10年
114,3503036,移动端架构师/技术总监,深圳,2018-04-27 11:19:45,35.0,195436,Finogeeks,珠海凡泰极客科技有限责任公司,50-150人,南山区,硕士,A轮,"金融,社交网络",113.930476,22.533013,全职,5-10年
115,4488728,技术总监,长沙,2018-04-26 16:20:47,17.0,199550,智云微时代,北京智云时代科技有限公司长沙分公司,50-150人,岳麓区,大专,B轮,"移动互联网,O2O",112.876251,28.196693,全职,5-10年
116,4474420,技术总监,郑州,2018-04-24 16:25:23,17.0,312959,天互商贸,郑州天互商贸有限公司,2000人以上,惠济区,大专,B轮,电子商务 移动互联网,0.0,0.0,全职,5-10年
117,4390409,技术总监,杭州,2018-04-23 17:42:50,22.0,353004,投这家金服,浙江投浙家金融服务外包有限公司,50-150人,拱墅区,本科,不需要融资,金融,120.123,30.32372,全职,5-10年
118,4362567,技术总监,北京,2018-04-10 17:08:27,31.0,36904,烽泰科技,烽泰科技（北京）有限公司,50-150人,海淀区,本科,不需要融资,企业服务,116.308623,40.03757,全职,5-10年
119,746056,技术总监,杭州,2018-04-24 17:24:55,19.0,60254,导领科技,杭州导领科技有限公司,15-50人,西湖区,本科,天使轮,"移动互联网,教育",120.146524,30.279371,全职,5-10年
120,3428031,技术总监,成都,2018-04-23 17:21:37,20.8,186878,四川华西集采电子商务有限公司,四川华西集采电子商务有限公司,15-50人,金牛区,本科,不需要融资,电子商务,,,全职,5-10年
121,4463370,技术总监,杭州,2018-04-23 11:14:25,24.0,341344,太秀科技,杭州太秀科技有限公司,15-50人,拱墅区,不限,不需要融资,"移动互联网,金融",120.143289,30.303642,全职,5-10年
122,4199494,技术总监,青岛,2018-04-17 13:25:47,20.8,131878,天天在线,青岛信恒网络科技有限公司,50-150人,崂山区,本科,A轮,"移动互联网,教育",0.0,0.0,全职,5-10年
123,4349610,技术总监,厦门,2018-04-26 14:06:17,19.0,189163,在野漫游,厦门市在野网络科技有限公司,50-150人,湖里区,本科,不需要融资,游戏,118.158499,24.527027,全职,5-10年
124,4480713,技术总监,苏州,2018-04-25 15:12:24,17.0,144381,原本图像,苏州原本图像科技有限公司,15-50人,工业园区,本科,天使轮,"其他,文化娱乐",120.723278,31.259784,全职,5-10年
125,3324187,技术总监,郑州,2018-04-25 14:20:34,14.0,225660,中软高科,郑州中软高科信息技术有限公司,50-150人,高新区,本科,未融资,"移动互联网,数据服务",113.560863,34.819155,全职,5-10年
126,4332250,技术总监,北京,2018-04-26 15:03:08,35.0,303915,创智臻视,北京创智臻视科技有限公司,15-50人,海淀区,本科,天使轮,"信息安全,数据服务",0.0,0.0,全职,5-10年
127,4377873,技术总监,北京,2018-04-18 17:08:01,38.0,226679,货圈全,炘宇（北京）科技有限公司,50-150人,朝阳区,本科,A轮,移动互联网,116.415977,40.032988,全职,10年以上
128,4239830,技术总监/高级项目经理,杭州,2018-04-28 11:12:33,22.8,198523,新光供应链,新光供应链管理有限公司,150-500人,上城区,本科,未融资,金融,120.178774,30.214233,全职,5-10年
129,4324189,技术总监,武汉,2018-04-28 09:16:46,45.0,346043,莱铂克,武汉莱铂克纺织品有限公司,150-500人,江夏区,本科,未融资,"移动互联网,电子商务",114.33575,30.361318,全职,5-10年
130,4468432,技术总监,杭州,2018-04-26 08:56:06,29.0,127100,大鱼金服,杭州有余网络技术有限公司,少于15人,滨江区,大专,未融资,"移动互联网,金融",120.203341,30.208057,全职,5-10年
131,4437284,技术总监,武汉,2018-04-23 14:14:18,14.0,13127,兴图新科,武汉兴图新科电子股份有限公司,500-2000人,洪山区,本科,A轮,"移动互联网,文化娱乐",114.408917,30.477669,全职,5-10年
132,4207395,技术总监,上海,2018-04-10 15:02:12,48.0,185078,深兰科技,深兰科技（上海）有限公司,150-500人,黄浦区,硕士,B轮,"硬件,移动互联网",121.417031,31.207896,全职,3-5年
133,4493179,技术总监,苏州,2018-04-27 13:32:43,21.0,369596,苏州艾尼斯教育科技有限公司,苏州艾尼斯教育科技有限公司,150-500人,相城区,本科,未融资,教育,120.592601,31.375875,全职,5-10年
134,4303277,技术经理/技术总监,上海,2018-04-25 09:54:00,29.0,211050,英雄互娱,成都英雄互娱科技有限公司,150-500人,静安区,本科,上市公司,"移动互联网,游戏",0.0,0.0,全职,5-10年
135,4246234,技术总监,北京,2018-04-28 10:44:29,42.0,43055,轻松筹,北京轻松筹网络科技有限公司,150-500人,东城区,本科,C轮,"移动互联网,金融",116.42454227,39.94877813,全职,5-10年
136,4110575,技术总监,上海,2018-04-26 16:15:13,44.0,1403,爱回收,上海悦易网络信息技术有限公司,500-2000人,杨浦区,本科,D轮及以上,"电子商务,O2O",121.99341,30.994275,全职,5-10年
137,4131844,技术总监,济南,2018-04-20 09:35:23,13.2,302877,质检网,山东权检信息技术有限公司,15-50人,历下区,大专,A轮,"移动互联网,企业服务",117.048868,36.680142,全职,3-5年
138,4248865,技术总监,西安,2018-04-26 11:10:15,21.0,156180,JC MOB,上海雍治文化传播有限公司,15-50人,高新技术产业开发区,本科,不需要融资,"移动互联网,广告营销",108.837196,34.210026,全职,5-10年
139,4397542,技术总监,上海,2018-04-25 11:51:39,41.0,59470,nonda 能塔智能,上海能塔智能科技有限公司,50-150人,徐汇区,本科,A轮,"移动互联网,硬件",121.46488,31.198303,全职,5-10年
140,4197414,技术总监,中山,2018-04-20 12:00:46,14.0,207550,云网科技,中山市云网信息科技有限公司,15-50人,中山市市辖区,大专,天使轮,"移动互联网,企业服务",113.411767,22.499879,全职,5-10年
141,4415883,技术总监,合肥,2018-04-16 13:34:50,17.0,204733,拓狐科技,拓狐信息科技（上海）有限公司安徽分公司,50-150人,政务文化新区,本科,未融资,"移动互联网,电子商务",0.0,0.0,全职,5-10年
142,4161310,技术总监,杭州,2018-04-16 01:19:00,14.0,245502,撒豆人,杭州撒豆人网络科技有限公司,15-50人,滨江区,不限,未融资,"生活服务,广告营销",120.207624,30.188325,全职,1-3年
143,4421993,技术总监,上海,2018-04-14 14:41:23,21.0,364711,宇珩信息,上海宇珩信息科技有限公司,15-50人,闵行区,本科,不需要融资,企业服务,121.413091,31.124684,全职,10年以上
144,4464256,技术总监,深圳,2018-04-27 09:57:41,29.0,369776,天平控股,深圳市天平控股有限公司,少于15人,南山区,本科,天使轮,数据服务 企业服务,113.94679,22.556374,全职,3-5年
145,4412997,技术总监,无锡,2018-04-25 10:33:09,6.8,364495,威狗科技,无锡威狗信息科技有限公司,15-50人,梁溪区,不限,未融资,移动互联网,120.305263,31.546639,全职,1-3年
146,4358697,技术总监,北京,2018-04-20 12:18:04,28.0,356368,尚羊文化,北京尚羊文化科技发展有限公司,少于15人,海淀区,本科,不需要融资,不限,116.324959,39.964705,全职,3-5年
147,3397899,技术总监,深圳,2018-04-27 17:29:39,35.0,193010,吉粮惠民,深圳市吉粮商业管理有限公司,150-500人,南山区,本科,不需要融资,"移动互联网,O2O",113.936606,22.519618,全职,5-10年
148,4045326,技术总监,长沙,2018-04-26 15:23:09,13.6,89042,星火钱包,湖南星投信息服务有限公司,50-150人,岳麓区,本科,A轮,"移动互联网,金融",112.962899,28.226678,全职,5-10年
149,3672931,技术总监,杭州,2018-04-26 10:52:39,21.0,74564,万博云信,万博云信（北京）教育科技有限公司,15-50人,下沙,本科,A轮,"移动互联网,教育",120.369678,30.303553,全职,5-10年
150,2355861,技术总监,厦门,2018-04-18 11:31:42,24.0,16719,在街上,福建点石网络科技有限公司,50-150人,思明区,本科,A轮,"移动互联网,生活服务",118.1044,24.46586001,全职,5-10年
151,3266903,技术总监,盐城,2018-04-17 19:03:32,14.0,108345,智贝星商城,盐城市智贝星电子商务有限公司,15-50人,建湖县,本科,天使轮,"电子商务,硬件",119.754117,33.437375,全职,3-5年
152,2658734,技术总监,重庆,2018-04-16 11:30:43,9.0,162224,千问网络,上海千问网络科技有限公司,15-50人,渝北区,本科,天使轮,"企业服务,电子商务",106.491303,29.62128,全职,3-5年
153,2609451,技术总监,北京,2018-04-27 14:34:52,34.0,37446,APUS Group,北京麒麟合盛科技有限公司,150-500人,朝阳区,本科,B轮,移动互联网,116.47971721,39.99502389,全职,5-10年
154,4485490,技术总监,北京,2018-04-28 10:25:29,24.0,49757,北京甜心良品网络科技有限公司,北京甜心良品餐饮管理有限公司,150-500人,朝阳区,本科,B轮,O2O,116.46845,39.900386,全职,5-10年
155,4438328,技术总监,厦门,2018-04-17 21:40:05,17.0,353628,伴鱼科技,厦门伴鱼科技有限公司,15-50人,湖里区,大专,天使轮,旅游,118.18816,24.527997,全职,5-10年
156,4490772,技术总监,北京,2018-04-26 22:25:44,34.0,210462,北京中人健康管理有限公司,北京中人健康管理有限公司,15-50人,丰台区,不限,不需要融资,"移动互联网,生活服务",,,全职,3-5年
157,4252813,技术总监,宁波,2018-04-20 19:15:26,17.0,194602,麦智云服,宁波麦智云服信息科技有限公司,,海曙区,大专,,,121.540033,29.878665,全职,5-10年
158,4455161,技术总监,合肥,2018-04-20 11:19:32,13.2,287622,据合速驰,安徽据合速驰科技有限公司,少于15人,高新区,大专,天使轮,"移动互联网,数据服务",0.0,0.0,全职,5-10年
159,3954121,CTO/技术总监,成都,2018-04-27 10:31:43,24.0,297243,云图金控,北京云图金控科技有限公司,50-150人,锦江区,本科,未融资,"移动互联网,电子商务",104.091566,30.640937,全职,10年以上
160,3817020,技术总监,深圳,2018-04-26 15:43:05,34.0,254763,7贷金融,深圳市期待互联网科技有限公司,2000人以上,南山区,本科,不需要融资,金融,113.915457,22.481322,全职,3-5年
161,2933242,技术总监,昆明,2018-04-24 14:07:34,7.6,136383,才众网络,云南才众信息技术有限公司,15-50人,盘龙区,大专,未融资,"移动互联网,电子商务",102.730977,25.047282,全职,3-5年
162,4462696,技术总监,北京,2018-04-23 10:21:34,16.2,357191,云汇,云汇（天津）网络科技有限公司,15-50人,朝阳区,本科,不需要融资,"移动互联网,社交网络",116.473687,39.911937,全职,3-5年
163,4405571,技术总监,无锡,2018-04-11 16:59:15,4.2,323575,洛书中医,上海洛书医药科技有限公司,少于15人,滨湖区,本科,未融资,"移动互联网,医疗健康",120.284982,31.55428,全职,1-3年
164,4031114,技术总监,杭州,2018-04-25 15:24:40,39.0,286791,的蓝科技,杭州的蓝科技有限公司,150-500人,滨江区,本科,不需要融资,移动互联网,120.219113,30.208219,全职,5-10年
165,4043472,技术总监,杭州,2018-04-23 16:31:36,18.6,311188,钱报178,浙江钱报壹柒捌信息服务有限公司,15-50人,下城区,本科,未融资,生活服务,120.174328,30.269944,全职,5-10年
166,4462774,技术总监,北京,2018-04-23 10:28:46,17.0,357191,云汇,云汇（天津）网络科技有限公司,15-50人,朝阳区,本科,不需要融资,"移动互联网,社交网络",116.473687,39.911937,全职,3-5年
167,4010115,技术总监,北京,2018-04-11 09:48:49,52.0,30060,中公教育,北京中公教育科技股份有限公司,2000人以上,海淀区,本科,未融资,教育,116.35125,40.010953,全职,5-10年
168,4359388,技术总监,金华,2018-04-05 15:37:33,24.0,346546,爱拼团,义乌爱拼网络科技有限公司,少于15人,义乌市,本科,未融资,"电子商务,社交网络",120.112601,29.337503,全职,5-10年
169,3122910,技术总监/首席架构师,北京,2018-04-28 10:15:26,48.0,148646,领主,北京领主科技有限公司,15-50人,海淀区,硕士,A轮,"移动互联网,社交网络",116.333885,39.987693,全职,5-10年
170,3795106,技术总监,北京,2018-04-28 09:50:01,33.0,53260,桔子分期,北京桔子分期电子商务有限公司,150-500人,朝阳区,本科,A轮,"电子商务,金融",116.434784,39.998679,全职,5-10年
171,3750345,技术总监,北京,2018-04-25 09:37:44,38.0,73043,百融金服,百融（北京）金融信息服务股份有限公司,500-2000人,海淀区,本科,B轮,"金融,数据服务",115.99339,39.99426,全职,5-10年
172,4459716,技术总监,北京,2018-04-21 08:08:57,19.6,260863,坚小持,北京坚小持科技文化有限公司,15-50人,海淀区,本科,天使轮,教育,116.355492,40.047016,全职,3-5年
173,4287060,技术总监,烟台,2018-04-14 16:55:13,13.2,325144,道春金服,山东道春信息技术有限公司,15-50人,莱山区,本科,未融资,"移动互联网,金融",121.436239,37.459675,全职,5-10年
174,3702348,技术总监,北京,2018-04-07 20:15:37,24.0,231585,北京眸视,北京眸视科技有限公司,少于15人,海淀区,硕士,天使轮,"移动互联网,硬件",116.335821,39.998487,全职,3-5年
175,3910419,技术总监,北京,2018-04-27 16:32:43,38.0,232,北京微路况科技有限公司,车托帮（北京）移动科技有限公司,50-150人,朝阳区,本科,B轮,"移动互联网,生活服务",116.472346,39.95505,全职,5-10年
176,4493171,技术总监,西安,2018-04-27 13:31:41,19.0,113287,北京乐聪信息技术有限公司,北京乐聪信息技术有限公司,15-50人,高新技术产业开发区,本科,不需要融资,"移动互联网,医疗健康",108.884972,34.197647,全职,5-10年
177,4311876,技术总监,武汉,2018-04-23 19:28:49,6.2,125999,湖北创研科技,湖北创研楚商科技有限公司,15-50人,江岸区,大专,不需要融资,"O2O,企业服务",113.993569,30.993672,全职,3-5年
178,4039856,技术总监,石家庄,2018-04-17 11:07:41,12.0,210443,车航汽车,石家庄车航汽车服务有限公司,15-50人,长安区,大专,未融资,其他,114.57775,38.042039,全职,5-10年
179,4082632,技术总监,海口,2018-04-15 21:55:55,21.0,300079,添逸科技,添逸海南网络科技有限公司,150-500人,美兰区,本科,A轮,O2O 生活服务,0.0,0.0,全职,1-3年
180,4406298,技术总监,深圳,2018-04-28 10:46:52,15.6,59606,CUTV,华夏城视网络电视股份有限公司,50-150人,南山区,本科,天使轮,文化娱乐,113.979779,22.593608,全职,3-5年
181,3650583,技术总监,深圳,2018-04-17 18:13:56,45.0,28417,兔展RabbitPre,深圳兔展智能科技有限公司,150-500人,南山区,本科,B轮,移动互联网,113.952696,22.530438,全职,10年以上
182,4367043,技术总监,郑州,2018-04-08 10:22:57,12.0,285648,猎模APP,河南比比西文化传媒有限公司,15-50人,金水区,大专,天使轮,移动互联网,113.703154,34.753715,全职,3-5年
183,1656462,研发技术总监,广州,2018-04-28 18:40:46,24.0,116939,油菜花科技,广州油菜花信息科技有限公司,50-150人,番禺区,大专,未融资,"移动互联网,文化娱乐",113.375443,22.9691,全职,5-10年
184,2841336,技术总监,厦门,2018-04-22 14:57:44,33.0,121232,笨汉的智慧设施管理,厦门笨汉建筑设施管理有限公司,15-50人,思明区,本科,未融资,其他,118.167415,24.473568,全职,5-10年
185,4348666,技术总监,广州,2018-04-27 17:03:41,21.0,145412,快鱼传媒,广州快鱼文化传媒有限公司,50-150人,天河区,本科,不需要融资,"移动互联网,电子商务",113.380976,23.124854,全职,3-5年
186,2358047,技术总监,上海,2018-04-26 11:52:06,13.6,148045,皓为商务,上海皓为商务咨询有限公司,15-50人,虹口区,本科,天使轮,"移动互联网,医疗健康",121.481436,31.268495,全职,3-5年
187,4053620,技术总监,海口,2018-04-21 21:57:31,21.0,300079,添逸科技,添逸海南网络科技有限公司,150-500人,美兰区,大专,A轮,O2O 生活服务,110.358274,20.017054,全职,1-3年
188,3997241,技术总监,北京,2018-04-28 16:06:18,17.8,99957,美拍拍,北京美拍拍文化创意有限公司,15-50人,朝阳区,本科,A轮,"移动互联网,O2O",116.491202,39.898157,全职,5-10年
189,4481144,技术总监,广州,2018-04-25 15:45:09,24.0,81505,启动科技,东莞市启动网络科技有限公司,50-150人,天河区,大专,不需要融资,"移动互联网,生活服务",113.3612,23.12468,全职,5-10年
190,4454269,技术总监,北京,2018-04-20 10:15:08,38.0,100164,千锋教育,北京千锋互联科技有限公司,500-2000人,海淀区,本科,A轮,移动互联网,116.370571,40.037093,全职,5-10年
191,3765724,技术总监,北京,2018-04-18 17:27:34,28.0,121993,De Tao GIN,德稻全球创新网络（北京）有限公司,150-500人,海淀区,本科,未融资,"移动互联网,社交网络",116.268742,39.957771,全职,5-10年
192,3930695,技术总监,北京,2018-04-04 00:46:36,40.0,166829,小狗机器人,广州小狗机器人技术有限公司北京分公司,150-500人,朝阳区,本科,不需要融资,硬件,116.460635,39.89671,全职,5-10年
193,4175345,大数据技术总监,上海,2018-04-27 14:17:59,45.0,83249,帜讯信息,上海帜讯信息技术股份有限公司,500-2000人,浦东新区,本科,上市公司,"移动互联网,其他",0.0,0.0,全职,10年以上
194,3132550,技术总监,长沙,2018-04-27 10:57:55,19.0,57361,汉雅星空文化科技有限公司,汉雅星空文化科技有限公司,150-500人,岳麓区,本科,未融资,"移动互联网,文化娱乐",112.9096,28.22338,全职,10年以上
195,4278689,技术总监,杭州,2018-04-27 10:36:35,21.0,337140,浙江云视数据技术有限公司,浙江云视数据技术有限公司,15-50人,滨江区,本科,A轮,"移动互联网,数据服务",0.0,0.0,全职,10年以上
196,4455509,CTO/技术总监,深圳,2018-04-20 11:44:51,64.0,136833,史蒂夫软件,史蒂夫软件（深圳）有限公司,150-500人,南山区,本科,不需要融资,游戏,113.956668,22.539288,全职,10年以上
197,3048352,技术总监,杭州,2018-04-19 15:54:55,15.4,146006,特浦科技,浙江特浦科技有限公司,50-150人,拱墅区,本科,A轮,移动互联网、企业服务,120.124178,30.320436,全职,3-5年
198,4316829,技术总监,广州,2018-04-29 13:19:56,28.0,317240,京滴科技,京滴信息科技（广州）有限公司,15-50人,天河区,本科,A轮,"移动互联网,数据服务",113.329086,23.139079,全职,5-10年
199,4447729,技术总监,深圳,2018-04-23 16:21:27,21.0,357494,新云加科技网络有限公司,深圳市新云加科技网络有限公司,少于15人,福田区,本科,不需要融资,"移动互联网,电子商务",114.0478,22.54697,全职,10年以上
200,3407763,技术总监,北京,2018-04-09 19:06:10,52.0,3786,宜信,普信恒业科技发展（北京）有限公司,2000人以上,朝阳区,本科,上市公司,金融,116.477415,39.913332,全职,10年以上
201,4355243,技术总监,厦门,2018-03-31 11:42:29,10.8,356367,厦门与友,厦门与友计算机科技有限公司,少于15人,集美区,本科,未融资,企业服务,118.050876,24.606639,全职,3-5年
202,4388841,技术总监（云底层方向）,北京,2018-04-26 09:45:28,52.0,24561,国美互联网,国美在线电子商务有限公司,2000人以上,朝阳区,本科,上市公司,电子商务,39.897445,116.331398,全职,5-10年
203,4235403,技术总监,深圳,2018-04-23 10:51:17,35.0,2028,岂凡网络,深圳岂凡网络有限公司,150-500人,南山区,本科,A轮,游戏,113.943044,22.518785,全职,不限
204,4400068,技术总监,北京,2018-04-17 15:26:44,35.0,1561,Face++,北京旷视科技有限公司,500-2000人,海淀区,本科,C轮,"移动互联网,硬件",116.31561,39.983413,全职,5-10年
205,4477897,架构师/技术总监,杭州,2018-04-25 10:35:12,22.4,373076,资通科技,杭州资通科技有限公司,15-50人,下沙,本科,不需要融资,"移动互联网,电子商务",120.371787,30.303663,全职,3-5年
206,4473767,技术总监,上海,2018-04-24 15:39:46,25.2,111598,万怡会展,上海万怡会展管理股份有限公司,50-150人,徐汇区,本科,上市公司,"企业服务,医疗健康",121.460485,31.202159,全职,3-5年
207,4497141,技术总监,北京,2018-04-28 09:54:36,29.0,160234,云星数据,云星数据（深圳）有限公司,15-50人,朝阳区,本科,未融资,"医疗健康,数据服务",116.460745,39.915109,全职,5-10年
208,4478092,技术总监/Java,深圳,2018-04-26 10:08:53,34.0,181981,桐梦科技,深圳市桐梦科技有限公司,50-150人,福田区,本科,不需要融资,"金融,文化娱乐",114.062476,22.534205,全职,5-10年
209,3828620,技术总监,西安,2018-04-24 10:09:10,14.0,242015,小豚科技,西安小豚信息科技有限公司,15-50人,高新技术产业开发区,本科,天使轮,"移动互联网,文化娱乐",108.903369,34.240818,全职,5-10年
210,4385500,技术总监,长沙,2018-04-09 00:24:27,13.2,297815,有无信息科技,湖南有无信息科技有限公司,15-50人,芙蓉区,本科,不需要融资,"移动互联网,电子商务",113.032606,28.186412,全职,5-10年
211,4158610,技术总监,厦门,2018-04-17 20:46:46,28.0,297144,盈点,厦门盈点科技有限公司,15-50人,湖里区,本科,不需要融资,"移动互联网,电子商务",118.121398,24.516159,全职,5-10年
212,3847807,技术总监,上海,2018-04-24 16:31:33,52.0,264167,酷萌网络（LNI技术有限公司）,上海酷萌网络科技有限公司,500-2000人,闵行区,本科,不需要融资,"移动互联网,游戏",121.398919,31.008419,全职,10年以上
213,3965831,技术总监/CTO,北京,2018-04-28 11:06:50,35.0,968,有品 PICOOC,缤刻普锐（北京）科技有限责任公司,50-150人,西城区,本科,B轮,移动互联网,116.373732,39.953782,全职,10年以上
214,4489989,技术总监,北京,2018-04-26 18:01:30,28.0,26301,一呼医生,一呼（北京）电子商务有限公司,50-150人,海淀区,本科,A轮,移动互联网,116.35717,40.04444,全职,3-5年
215,4498158,技术总监,上海,2018-04-28 11:23:13,35.0,213472,麦广互娱,上海麦广互娱文化传媒股份有限公司,50-150人,浦东新区,本科,不需要融资,"移动互联网,广告营销",121.602647,31.201072,全职,10年以上
216,4259424,技术总监,上海,2018-04-15 18:57:12,24.0,341289,融康惠众,北京融康惠众健康管理有限公司,50-150人,长宁区,不限,未融资,医疗健康,121.40074,31.206366,全职,不限
217,1646007,技术总监,深圳,2018-04-23 13:48:30,68.0,114867,微商时代科技集团,深圳市微商时代科技有限公司,500-2000人,南山区,本科,C轮,"移动互联网,电子商务",113.939488,22.523822,全职,10年以上
218,3681582,技术总监,北京,2018-04-16 09:41:45,52.0,172190,博赢科技,北京天网博赢科技有限公司,500-2000人,海淀区,本科,不需要融资,移动互联网、电子商务,116.329955,40.048433,全职,5-10年
219,3285762,研发技术总监,广州,2018-04-28 11:31:35,51.0,4206,汇桔网,广州博鳌纵横网络科技有限公司,2000人以上,萝岗区,本科,C轮,"企业服务,O2O",113.45678124,23.17165026,全职,5-10年
220,3771078,技术总监,武汉,2018-04-13 15:04:38,24.0,45951,博科资讯武汉分公司,上海博科资讯股份有限公司武汉分公司,500-2000人,江汉区,本科,D轮及以上,"移动互联网,数据服务",114.239031,30.625187,全职,5-10年
221,4501597,技术总监,北京,2018-04-28 19:27:14,53.0,61249,云鸟科技,北京云鸟科技有限公司,500-2000人,朝阳区,本科,D轮及以上,"移动互联网,O2O",116.472688,39.984792,全职,5-10年
222,4078527,技术总监（金融会员）,南京,2018-04-19 21:15:20,56.0,53992,苏宁易购,南京苏宁软件技术有限公司,2000人以上,玄武区,本科,上市公司,"O2O,移动互联网",118.89213,32.084808,全职,5-10年
223,2816983,技术总监/VP/CTO,上海,2018-04-29 15:48:20,28.0,38329,云兜,上海云兜网络科技有限公司,50-150人,普陀区,本科,A轮,"电子商务,教育",121.436223,31.240299,全职,3-5年
224,4211409,技术总监/系统架构师,深圳,2018-04-28 09:52:03,16.8,299856,趣景科技,深圳市趣景科技有限公司,少于15人,宝安区,本科,未融资,移动互联网,113.873909,22.562406,全职,3-5年
225,4077645,技术总监（大数据）,南京,2018-04-19 21:14:08,56.0,53992,苏宁易购,南京苏宁软件技术有限公司,2000人以上,玄武区,本科,上市公司,"O2O,移动互联网",118.89213,32.084808,全职,5-10年
226,4101969,技术总监,深圳,2018-04-27 09:51:45,52.0,106390,跨越速运,跨越速运集团有限公司,2000人以上,宝安区,本科,不需要融资,其他,113.780717,22.68044,全职,5-10年
227,4459156,技术总监,上海,2018-04-20 18:45:10,22.0,167039,E3,笔易信息技术（上海）有限公司,15-50人,嘉定区,本科,天使轮,"移动互联网,O2O",121.233999,31.271527,全职,5-10年
228,4448925,技术总监,深圳,2018-04-26 14:13:51,22.4,202109,桃花互娱,桃花互娱（深圳）科技有限公司,15-50人,宝安区,不限,A轮,"电子商务,社交网络",113.874096,22.56245,全职,3-5年
229,2868376,研发主管/技术总监,西安,2018-04-23 15:48:06,9.6,165128,闪光科技,西安闪光软件科技有限公司,15-50人,雁塔区,本科,不需要融资,"企业服务,移动互联网",108.992764,34.23011,全职,5-10年
230,4262576,技术总监/高级经理,北京,2018-04-20 17:32:59,38.0,4558,火币网,北京火币天下网络技术有限公司,150-500人,海淀区,本科,A轮,"移动互联网,金融",116.31595001,40.05405606,全职,5-10年
231,4279856,技术总监,杭州,2018-04-13 19:13:04,28.0,315837,谷壳科技,谷壳科技（杭州）有限公司,15-50人,滨江区,本科,天使轮,"移动互联网,电子商务",120.194563,30.185148,全职,3-5年
232,4501809,平台架构师/技术总监,杭州,2018-04-29 00:10:06,31.0,359324,大块科技,杭州大块科技有限公司,15-50人,西湖区,本科,天使轮,"移动互联网,金融",120.078646,30.290994,全职,5-10年
233,4454074,技术总监,杭州,2018-04-20 09:59:26,24.0,204348,全球时刻,杭州介百文化创意有限公司,50-150人,余杭区,大专,未融资,"移动互联网,电子商务",120.003928,30.281215,全职,5-10年
234,4355234,技术总监,郑州,2018-04-24 14:58:15,15.8,269699,梦唐世家居生态系统,梦唐世贸易有限公司,15-50人,郑东新区,大专,A轮,O2O、移动互联网,0.0,0.0,全职,5-10年
235,4483105,JTYDCP-移动技术总监,北京,2018-04-27 14:41:17,48.0,39952,易车公司,北京易车互联信息技术有限公司,2000人以上,海淀区,本科,上市公司,"移动互联网,电子商务",116.32732,39.93812,全职,5-10年
236,3989518,技术总监,广州,2018-04-23 16:58:12,15.2,303586,汉蜂科技,广州汉蜂科技有限公司,15-50人,番禺区,大专,不需要融资,移动互联网,0.0,0.0,全职,3-5年
237,4413281,技术总监,广州,2018-04-12 17:09:46,19.0,76145,优秘,广州商协信息科技有限责任公司,15-50人,越秀区,本科,天使轮,"移动互联网,招聘",113.301422,23.132183,全职,5-10年
238,4394702,技术总监,北京,2018-04-10 11:34:54,12.0,280768,北京柏锟科技有限公司,北京柏锟科技有限公司,150-500人,东城区,本科,未融资,金融,116.432736,39.920948,全职,5-10年
239,4368597,技术总监,北京,2018-04-03 17:07:59,31.0,272348,BitMan,爱趣拼(北京)科技有限公司,15-50人,海淀区,本科,天使轮,移动互联网,116.349933,39.975578,全职,5-10年
240,4078463,技术总监（金融大数据）,南京,2018-04-19 21:12:45,34.0,53992,苏宁易购,南京苏宁软件技术有限公司,2000人以上,玄武区,本科,上市公司,"O2O,移动互联网",118.89213,32.084808,全职,5-10年
241,4060025,技术总监（偏技术）,深圳,2018-04-08 11:31:54,54.0,184532,Bello,深圳呗佬智能有限公司,15-50人,南山区,本科,A轮,移动互联网,113.938223,22.523806,全职,5-10年
242,4478286,技术总监,北京,2018-04-25 10:57:57,26.0,275351,真兄弟影视,真兄弟(北京)影视文化传媒有限公司,15-50人,东城区,本科,不需要融资,教育、文化娱乐,0.0,0.0,全职,5-10年
243,4345892,系统架构师/技术总监,厦门,2018-04-08 08:51:12,21.0,96050,蓝斯股份,厦门蓝斯通信股份有限公司,150-500人,集美区,本科,上市公司,"移动互联网,数据服务",0.0,0.0,全职,5-10年
244,2877795,技术总监,深圳,2018-04-28 15:39:41,38.0,29866,乐有家,深圳市家家顺物联科技有限公司,50-150人,福田区,本科,不需要融资,"移动互联网,生活服务",113.993578,22.99368,全职,5-10年
245,3835455,技术总监,上海,2018-04-26 09:52:58,41.0,123444,辰沅金融,上海辰沅金融信息服务有限公司,15-50人,浦东新区,本科,A轮,金融,121.534034,31.217086,全职,5-10年
246,4239143,技术总监,北京,2018-03-30 12:09:29,28.0,335677,本源链,北京和信本源科技有限公司,15-50人,海淀区,本科,天使轮,"移动互联网,企业服务",116.316341,39.977678,全职,3-5年
247,1427915,技术总监,广州,2018-04-28 19:10:33,41.0,14059,租租车,广州力挚网络科技有限公司,500-2000人,天河区,本科,B轮,"旅游,生活服务",113.321106,23.137468,全职,5-10年
248,4473961,技术总监,深圳,2018-04-24 15:54:39,23.8,318880,润民,润民(中国)控股有限公司,150-500人,福田区,本科,A轮,电子商务、生活服务,0.0,0.0,全职,3-5年
249,4225049,区块链高级架构师/技术总监,北京,2018-04-09 10:08:11,42.0,216769,智链ChainNova,智链数据科技（南通）有限公司,15-50人,西城区,本科,不需要融资,"金融,企业服务",116.350439,39.93865,全职,5-10年
250,4462144,技术总监,成都,2018-04-23 09:14:44,19.0,369222,房通通,成都房通通房地产经纪有限公司,50-150人,双流区,本科,不需要融资,其他,104.059243,30.552233,全职,1-3年
251,4154769,技术总监,深圳,2018-04-03 16:22:48,27.0,55373,深圳小微金融,深圳小微金融服务有限公司,50-150人,福田区,本科,未融资,金融,114.011965,22.53493,全职,5-10年
252,4245036,技术总监/技术负责人,北京,2018-04-26 17:51:53,28.0,68507,K2DATA,昆仑智汇数据科技（北京）有限公司,50-150人,海淀区,本科,B轮,数据服务,0.0,0.0,全职,10年以上
253,4388259,技术总监,深圳,2018-04-23 12:01:01,15.8,340417,蚂蚁精选,深圳蚂蚁精选电子商务有限公司,15-50人,宝安区,大专,未融资,电子商务,113.867381,22.567083,全职,5-10年
254,4273979,CTO/技术总监,桂林,2018-03-31 09:48:50,9.6,136424,杉帝网络,桂林市杉帝网络技术有限公司,15-50人,七星区,大专,天使轮,"游戏,移动互联网",109.994027,24.993444,全职,5-10年
255,4135862,技术总监（智能硬件）,南京,2018-04-25 20:00:36,38.0,53992,苏宁易购,南京苏宁软件技术有限公司,2000人以上,玄武区,本科,上市公司,"O2O,移动互联网",0.0,0.0,全职,10年以上
256,4111600,技术总监,杭州,2018-04-11 16:52:44,24.0,275075,亿尚智能,杭州亿尚智能科技有限公司,15-50人,余杭区,本科,未融资,"移动互联网,企业服务",120.299402,30.419045,全职,3-5年
257,4256349,技术总监,西安,2018-04-11 09:59:17,14.0,304890,西安华景城旅游集团,西安华景城旅游集团有限公司,50-150人,雁塔区,本科,未融资,"旅游,广告营销",0.0,0.0,全职,5-10年
258,4197615,大数据技术总监,杭州,2018-04-11 10:13:50,28.0,46629,金诚集团,浙江诚泽金开投资管理有限公司,2000人以上,拱墅区,本科,上市公司,金融,120.144599,30.313212,全职,5-10年
259,4481776,技术总监/OTC,郑州,2018-04-25 16:32:25,19.0,173387,郑州瑞之雪,郑州瑞之雪网络科技有限公司,15-50人,郑东新区,大专,未融资,"移动互联网,电子商务",113.746528,34.747339,全职,5-10年
260,4086154,技术总监/经理,北京,2018-04-20 13:26:34,33.0,134454,人人信,北京人人信科技有限公司,50-150人,海淀区,本科,A轮,"移动互联网,金融",116.308891,39.980691,全职,5-10年
261,4161406,技术总监,海口,2018-04-04 11:58:54,21.0,300079,添逸科技,添逸海南网络科技有限公司,150-500人,美兰区,本科,A轮,O2O 生活服务,,,全职,1-3年
262,4372519,技术总监,北京,2018-04-25 08:59:25,36.0,160,CC视频,创盛视联数码科技（北京）有限公司,150-500人,海淀区,本科,C轮,"数据服务,文化娱乐",116.354952,39.98815,全职,5-10年
263,4354087,技术经理，技术总监,昆明,2018-04-20 10:19:02,17.0,300659,匠品科技,匠品科技（深圳）有限公司,15-50人,官渡区,本科,天使轮,"移动互联网,电子商务",102.725917,25.025756,全职,5-10年
264,4468888,技术总监,北京,2018-04-23 21:03:59,24.0,43704,72变,北京奇天大胜网络科技有限公司,50-150人,海淀区,本科,A轮,硬件,116.306942,40.055818,全职,5-10年
265,4027898,技术总监/项目经理,郑州,2018-04-26 15:48:14,12.0,303997,汉源实业,河南汉源实业有限公司,150-500人,郑东新区,本科,未融资,其他,113.655107,34.763914,全职,5-10年
266,2565957,技术总监/CTO/技术合伙人,长沙,2018-04-23 00:10:19,19.0,137459,手信数据,湖南手信数据科技有限公司,50-150人,开福区,本科,未融资,"移动互联网,数据服务",112.970675,28.199575,全职,5-10年
267,4365170,技术总监,北京,2018-04-03 11:16:10,56.0,288177,哈弗租赁,哈弗汽车租赁有限公司,50-150人,丰台区,本科,不需要融资,移动互联网,0.0,0.0,全职,10年以上
268,3636491,技术总监,北京,2018-04-29 11:52:42,64.0,77962,GrowingIO,北京易数科技有限公司,150-500人,朝阳区,本科,A轮,"企业服务,数据服务",116.47863,39.98840005,全职,10年以上
269,3832548,技术总监/架构师,青岛,2018-04-17 13:25:47,15.0,131878,天天在线,青岛信恒网络科技有限公司,50-150人,崂山区,本科,A轮,"移动互联网,教育",120.486936,36.147993,全职,5-10年
270,4078610,技术总监（金融会员）,南京,2018-04-19 21:13:38,34.0,53992,苏宁易购,南京苏宁软件技术有限公司,2000人以上,玄武区,本科,上市公司,"O2O,移动互联网",118.89213,32.084808,全职,5-10年
271,4365252,技术总监,成都,2018-04-08 18:13:15,37.0,42369,ETCP,北京悦畅科技有限公司,500-2000人,金牛区,本科,B轮,移动互联网,104.056611,30.695955,全职,5-10年
272,4049480,技术总监,北京,2018-04-26 13:11:17,31.0,121211,欢庆时刻,北京欢庆时刻信息技术有限公司,15-50人,海淀区,本科,A轮,"移动互联网,游戏",116.334815,39.976282,全职,10年以上
273,4020790,APP技术总监,深圳,2018-04-28 10:27:11,22.0,164728,心意创新科技,深圳市心意创新科技有限公司,50-150人,福田区,本科,未融资,"移动互联网,电子商务",114.031225,22.533276,全职,3-5年
274,4135111,大数据技术总监,上海,2018-04-26 14:09:27,50.0,129887,上海评驾科技有限公司,上海评驾科技有限公司,50-150人,徐汇区,硕士,A轮,"移动互联网,数据服务",121.451503,31.158614,全职,5-10年
275,3601159,技术总监,北京,2018-04-28 09:39:52,24.0,175800,北京和佳软件技术有限公司,北京和佳软件技术有限公司,150-500人,海淀区,本科,不需要融资,其他,116.315297,39.981511,全职,5-10年
276,4450151,技术总监,深圳,2018-04-27 11:45:04,29.0,112044,SKT Education,深圳市思珂特教育科技有限公司,50-150人,南山区,本科,A轮,教育,113.944678,22.529016,全职,5-10年
277,3871893,支付技术总监,北京,2018-04-28 11:06:33,42.0,46399,会分期,会找房（北京）网络技术有限公司,150-500人,海淀区,本科,C轮,移动互联网、金融,116.301362,40.054996,全职,5-10年
278,4152848,技术总监,杭州,2018-03-30 15:42:03,49.0,314836,美平米,杭州美平米科技有限公司,150-500人,江干区,大专,上市公司,移动互联网 电子商务,120.198418,30.248618,全职,1-3年
279,4351211,技术总监,北京,2018-03-30 11:55:27,34.0,134042,海致,海致网络技术(北京)有限公司,150-500人,海淀区,本科,C轮,"移动互联网,企业服务",116.351045,40.007522,全职,5-10年
280,4055446,技术总监,重庆,2018-04-28 09:45:00,20.6,290037,创翼金服,厦门创翼金融技术服务有限公司,15-50人,渝北区,本科,未融资,"移动互联网,金融",106.530799,29.625127,全职,5-10年
281,4445961,技术总监,深圳,2018-04-18 21:07:05,21.0,74570,大器网络,深圳大器网络技术有限公司,少于15人,宝安区,大专,天使轮,"企业服务,游戏",113.88393,22.591023,全职,3-5年
282,4217683,平台技术总监,上海,2018-04-27 14:28:12,48.0,329,网易,网易（杭州）有限公司,2000人以上,浦东新区,本科,上市公司,"电子商务,移动互联网",0.0,0.0,全职,5-10年
283,4407064,技术总监,北京,2018-04-26 13:03:13,58.0,94241,合伙猫,北京一会儿科技有限公司,15-50人,海淀区,本科,未融资,"移动互联网,企业服务",116.303276,40.035542,全职,5-10年
284,4366202,技术总监-BJRD04,北京,2018-04-28 09:50:00,28.0,168219,贝壳金控,贝壳金控控股集团有限公司,500-2000人,朝阳区,本科,未融资,金融、移动互联网,0.0,0.0,全职,5-10年
285,4072335,技术总监（大数据）,南京,2018-04-19 10:35:40,43.4,53992,苏宁易购,南京苏宁软件技术有限公司,2000人以上,玄武区,本科,上市公司,"O2O,移动互联网",0.0,0.0,全职,5-10年
286,4444995,技术总监,北京,2018-04-26 11:39:07,34.0,263883,微语言,北京乐学通教育科技有限公司,150-500人,朝阳区,本科,A轮,"移动互联网,教育",116.449335,39.935939,全职,10年以上
287,3885650,技术总监,广州,2018-04-28 10:34:41,38.0,36376,Ways,广州威尔森信息科技有限公司,150-500人,天河区,本科,未融资,"移动互联网,企业服务",113.333231,23.114822,全职,10年以上
288,4308970,技术总监,广州,2018-04-27 08:59:29,22.0,27881,广州晶品,广州市晶品电子商务有限公司,50-150人,天河区,本科,不需要融资,移动互联网,113.37377,23.12566,全职,5-10年
289,4463967,技术总监,成都,2018-04-27 09:18:17,21.0,167449,千城数智,千城数智（北京）网络科技有限公司,50-150人,青羊区,本科,B轮,"移动互联网,O2O",104.07591,30.66005,全职,5-10年
290,4487314,技术总监,北京,2018-04-26 14:36:59,24.0,81412,声迅电子,北京声迅电子股份有限公司,500-2000人,海淀区,本科,未融资,"金融,硬件",116.235653,40.078324,全职,5-10年
291,4477077,架构师/技术总监,杭州,2018-04-25 09:42:03,22.4,360213,艾斯基,杭州艾斯基光学仪器有限公司,15-50人,下沙,本科,不需要融资,"移动互联网,电子商务",120.371564,30.303552,全职,3-5年
292,4043314,大数据技术总监,北京,2018-04-28 08:52:57,35.0,356,捷通华声,北京捷通华声科技股份有限公司,150-500人,海淀区,本科,不需要融资,"移动互联网,数据服务",116.29632768,40.05177651,全职,5-10年
293,3953974,技术总监,杭州,2018-04-18 10:45:31,24.0,212431,杭州宏亚,杭州宏亚金融信息服务有限公司,15-50人,滨江区,本科,A轮,金融,120.14504,30.188231,全职,5-10年
294,4135605,平台技术总监,厦门,2018-04-27 19:19:36,28.0,51037,飞鱼科技,厦门飞游信息科技有限公司,150-500人,思明区,本科,上市公司,游戏,39.897445,116.331398,全职,5-10年
295,4302101,技术总监,南京,2018-03-31 08:41:09,22.0,133867,360在线教育,江苏三六零数字传媒有限公司,150-500人,玄武区,大专,不需要融资,"广告营销,社交网络",118.885169,32.095403,全职,5-10年
296,4464852,技术总监,上海,2018-04-26 17:42:02,29.0,370347,飒娅科技,上海飒娅信息科技有限公司,15-50人,闵行区,本科,未融资,"电子商务,生活服务",121.316049,31.206362,全职,5-10年
297,4275081,技术总监,上海,2018-04-23 10:05:16,35.0,161092,弋尚科技,上海弋尚科技有限公司,150-500人,徐汇区,本科,未融资,移动互联网、数据服务,121.420659,31.165179,全职,5-10年
298,4196082,技术总监,广州,2018-04-04 11:35:50,21.0,39980,芳禾数据,广州芳禾数据服务有限公司,15-50人,天河区,不限,未融资,"移动互联网,企业服务",113.421054,23.177214,全职,5-10年
299,4360312,技术总监,广州,2018-04-28 11:02:57,24.0,189298,科大讯飞广州子公司,广州市讯飞樽鸿信息技术有限公司,50-150人,天河区,本科,上市公司,"移动互联网,信息安全",113.368201,23.125781,全职,5-10年
300,4214179,技术总监,深圳,2018-04-28 16:48:12,22.0,335143,小二软件,深圳市小二软件技术有限公司,50-150人,南山区,大专,天使轮,O2O、移动互联网,0.0,0.0,全职,5-10年
301,4402283,技术总监,北京,2018-04-17 15:26:44,38.0,1561,Face++,北京旷视科技有限公司,500-2000人,海淀区,本科,C轮,"移动互联网,硬件",116.31561,39.983413,全职,5-10年
302,4216415,技术总监,广州,2018-04-10 09:29:26,28.0,63978,房王网,广州合富信息科技有限公司,150-500人,天河区,本科,不需要融资,移动互联网,113.316378,23.121106,全职,10年以上
303,4323970,技术总监,深圳,2018-04-08 16:29:14,33.0,298729,哈皮互娱,哈皮互娱（深圳）科技有限公司,15-50人,南山区,大专,天使轮,移动互联网,113.952459,22.53608,全职,10年以上
304,3253999,技术总监 IT0000,长沙,2018-04-27 10:29:21,35.0,216593,Master新零售,湖南玛司特信息科技有限公司,少于15人,天心区,不限,天使轮,"移动互联网,电子商务",112.977269,28.19481,全职,5-10年
305,4336210,技术总监（慧声科技）,深圳,2018-04-25 09:41:53,28.0,94,思必驰科技,苏州思必驰信息科技有限公司,150-500人,南山区,本科,C轮,企业服务,113.936658,22.523953,全职,不限
306,4299836,技术总监,北京,2018-04-28 15:08:15,41.0,166792,远辽科技,成都远辽科技有限责任公司,15-50人,朝阳区,本科,不需要融资,"移动互联网,电子商务",116.407208,40.0015,全职,5-10年
307,4423607,技术总监,北京,2018-04-15 23:38:06,35.0,363812,极限盒子,北京极限盒子科技有限公司,少于15人,昌平区,本科,天使轮,"游戏,数据服务",116.311319,40.0655,全职,5-10年
308,3437591,技术总监（北京）,北京,2018-04-28 11:31:35,62.0,4206,汇桔网,广州博鳌纵横网络科技有限公司,2000人以上,海淀区,本科,C轮,"企业服务,O2O",116.324724,39.95345,全职,5-10年
309,4483660,技术总监,杭州,2018-04-25 20:39:55,44.0,219605,爆客科技,杭州爆客科技有限公司,15-50人,拱墅区,本科,天使轮,移动互联网、文化娱乐,120.106199,30.305179,全职,5-10年
310,4477882,技术经理/技术总监,上海,2018-04-25 10:34:12,26.0,150611,上海趣咖,上海趣咖网络科技有限公司,50-150人,闵行区,本科,未融资,"移动互联网,电子商务",121.512902,31.078362,全职,5-10年
311,2988318,技术总监,杭州,2018-04-02 16:27:58,38.0,188050,道玺投资,上海道玺投资管理有限公司,15-50人,江干区,本科,未融资,"金融,移动互联网",120.203128,30.246628,全职,5-10年
312,4476590,技术总监,成都,2018-04-24 22:35:41,19.0,323732,中厚银丞,陕西中厚银丞融资租赁有限公司,15-50人,成华区,本科,未融资,金融 移动互联网,104.107139,30.674294,全职,5-10年
313,4418562,技术总监/经理,深圳,2018-04-27 10:12:14,19.0,353796,未来之星,深圳市未来之星珠宝信息技术有限公司,15-50人,罗湖区,本科,不需要融资,"电子商务,金融",114.114524,22.542053,全职,5-10年
314,4048374,技术总监,深圳,2018-04-27 10:54:59,26.0,192708,深圳市咚咚金服信息服务有限公司,深圳市咚咚金服信息科技有限公司,50-150人,南山区,本科,A轮,金融,113.953738,22.542288,全职,5-10年
315,4200192,技术总监,深圳,2018-04-23 15:20:34,35.0,331226,优创,深圳优创信息科技有限公司,15-50人,罗湖区,大专,不需要融资,"移动互联网,金融",114.106652,22.543079,全职,5-10年
316,4450882,技术总监/技术合伙人,成都,2018-04-19 15:58:18,21.0,369328,有戏互动,成都有戏科技有限公司,少于15人,,本科,未融资,移动互联网,104.046032,30.554477,全职,5-10年
317,4058283,技术总监,杭州,2018-04-17 10:31:00,34.0,129890,十禾科技,杭州十禾信息科技有限公司,150-500人,余杭区,本科,未融资,电子商务,119.997013,30.276311,全职,5-10年
318,3729494,技术总监/经理,北京,2018-04-08 13:36:35,21.0,123096,科云科技,云南科云科技股份有限公司,50-150人,海淀区,本科,天使轮,"移动互联网,信息安全",116.308023,40.041943,全职,3-5年
319,4327670,后端技术总监-真格基金投资企业合作公司-大当加,北京,2018-04-28 22:34:42,48.0,23702,真格基金,北京真格天成投资管理有限公司,50-150人,朝阳区,本科,不需要融资,金融,116.48057,39.910341,全职,5-10年
320,4426741,技术总监,深圳,2018-04-27 09:42:15,58.0,365708,无极云区块链,深圳市无极云区块链互联网技术开发有限公司,50-150人,南山区,本科,不需要融资,移动互联网,113.943839,22.547619,全职,3-5年
321,3056269,三维技术总监,杭州,2018-04-26 18:46:32,14.0,70036,阿优文化,杭州阿优文化创意有限公司,150-500人,萧山区,本科,B轮,"教育,文化娱乐",120.23838,30.16104,全职,5-10年
322,2852310,技术总监,深圳,2018-04-17 12:34:47,22.0,174113,微回收,深圳市兵马科技有限公司,15-50人,南山区,本科,未融资,"O2O,电子商务",113.952514,22.535885,全职,3-5年
323,4408248,高级驱动研发工程师/系统架构师/技术总监,北京,2018-04-16 18:04:55,28.0,117964,信息安全服务,北京远为软件有限公司,50-150人,海淀区,不限,C轮,"移动互联网,信息安全",116.28288,40.047453,全职,不限
324,4479873,技术总监,深圳,2018-04-25 14:07:22,48.0,288235,富贵互娱,深圳富贵互娱科技有限公司,50-150人,南山区,本科,不需要融资,游戏,113.944704,22.538345,全职,10年以上
325,2353193,技术总监,北京,2018-04-27 15:41:49,48.0,75313,金利恒,北京金利恒兴投资管理有限公司,500-2000人,朝阳区,本科,未融资,其他,116.4566158,39.93278432,全职,5-10年
326,4448851,Fabric高级架构师/技术总监,北京,2018-04-26 13:03:13,42.0,94241,合伙猫,北京一会儿科技有限公司,15-50人,西城区,本科,未融资,"移动互联网,企业服务",116.372703,39.940623,全职,5-10年
327,3087191,搜狐媒体-集团商业部-商业技术总监,北京,2018-04-17 10:55:06,62.0,106303,搜狐集团,北京搜狐新媒体信息技术有限公司,2000人以上,海淀区,本科,上市公司,"移动互联网,广告营销",116.325402,39.983335,全职,10年以上
328,4470851,技术总监,北京,2018-04-28 15:10:32,48.0,120782,上海贤库,上海贤库企业管理咨询有限公司,15-50人,朝阳区,本科,不需要融资,"企业服务,电子商务",116.454276,39.957974,全职,5-10年
329,4329365,技术总监,深圳,2018-04-08 09:31:25,34.0,311879,鳗鱼饭,深圳鳗娱饭科技有限公司,15-50人,宝安区,不限,天使轮,文化娱乐、社交网络,0.0,0.0,全职,5-10年
330,3605845,技术总监,广州,2018-04-28 16:33:07,35.0,241942,启尔智信息科技,广州启尔智信息科技有限公司,15-50人,番禺区,大专,未融资,移动互联网,113.328943,23.006865,全职,5-10年
331,4416981,技术总监,北京,2018-04-26 17:20:14,41.0,284955,云台联创,北京云台联创网络科技有限公司,50-150人,朝阳区,硕士,天使轮,"移动互联网,社交网络",116.454675,39.920109,全职,5-10年
332,4150186,技术总监,杭州,2018-04-27 11:20:36,34.0,276554,收菜网,杭州收菜网络科技有限公司,15-50人,西湖区,大专,天使轮,"游戏,社交网络",120.122,30.281919,全职,5-10年
333,4461950,技术总监,深圳,2018-04-22 22:36:10,24.0,324000,众车在线,现代众车在线(深圳)金融信息服务有限公司,50-150人,福田区,大专,,金融,114.061131,22.570446,全职,5-10年
334,4399720,技术总监,北京,2018-04-19 10:15:05,29.2,286789,蔚蓝能源,北京车礼科技有限公司,15-50人,朝阳区,本科,天使轮,"移动互联网,金融",0.0,0.0,全职,5-10年
335,4305523,技术总监/CTO,上海,2018-04-16 18:12:11,28.0,137038,麦广网络,上海麦广互娱文化传媒股份有限公司,50-150人,浦东新区,本科,上市公司,"移动互联网,广告营销",121.99403,30.993438,全职,5-10年
336,4432513,技术总监,广州,2018-04-17 11:17:17,38.0,140478,中建普联,广东中建普联科技股份有限公司,150-500人,天河区,本科,不需要融资,"移动互联网,数据服务",113.369689,23.142569,全职,10年以上
337,4450441,php高级开发工程师/技术总监,西安,2018-04-19 15:25:02,8.8,208220,陕西搜恋网络科技有限公司,陕西搜恋网络科技有限公司,50-150人,莲湖区,大专,A轮,O2O,108.921292,34.268861,全职,3-5年
338,398780,技术总监,上海,2018-04-28 09:43:27,48.0,22246,天会皓闻,上海天会皓闻信息科技有限公司,50-150人,徐汇区,本科,不需要融资,移动互联网,,,全职,5-10年
339,4105754,技术总监,成都,2018-04-23 18:16:23,20.8,320823,天正信息,四川天正信息科技有限公司,15-50人,武侯区,本科,不需要融资,企业服务,104.076941,30.629821,全职,5-10年
340,3959318,技术总监,北京,2018-04-23 15:48:35,48.0,176259,中融民信,中融民信资本管理有限公司,2000人以上,朝阳区,本科,未融资,"金融,其他",116.433666,39.923823,全职,10年以上
341,4123188,技术总监,深圳,2018-04-27 10:51:21,35.0,318161,万合乾德,深圳市万合乾德科技发展有限公司,15-50人,南山区,本科,A轮,"移动互联网,生活服务",113.940923,22.522942,全职,5-10年
342,4489650,技术总监/CTO,成都,2018-04-26 17:31:01,24.0,287778,智蜀道,四川智蜀道信息技术有限公司,少于15人,高新区,本科,未融资,"企业服务,其他",104.068202,30.534278,全职,5-10年
343,4384013,技术总监,上海,2018-04-26 09:23:02,35.0,163790,探知数据,上海勃池信息技术有限公司,50-150人,静安区,本科,天使轮,"金融,数据服务",121.472214,31.240835,全职,3-5年
344,4267521,技术总监,广州,2018-04-25 17:52:44,24.0,129566,融脉科技,深圳市前海融脉科技有限公司,15-50人,天河区,本科,A轮,"移动互联网,数据服务",113.322894,23.149761,全职,10年以上
345,4154751,基地技术总监/农业种植主管/高级农艺师/农技专家,桂林,2018-04-25 11:58:46,10.8,19541,大丰收DFS168.com,深圳市五谷网络科技有限公司,150-500人,灵川县,本科,C轮,"电子商务,O2O",110.325636,25.409747,全职,5-10年
346,4429840,技术总监,深圳,2018-04-25 09:40:21,26.0,189002,中佑科技,深圳市中佑科技有限公司,150-500人,南山区,大专,不需要融资,移动互联网,113.930476,22.533013,全职,10年以上
347,4213748,信息技术总监,广州,2018-04-23 11:57:57,17.0,263558,茉莉传媒,广州幸福家科技有限公司,50-150人,越秀区,本科,A轮,广告营销,113.269701,23.128388,全职,5-10年
348,3453719,大数据技术总监,杭州,2018-04-23 10:09:36,62.0,234170,嘉侑财富互联网金融,上海嘉侑股权投资基金管理有限公司杭州分公司,500-2000人,西湖区,本科,不需要融资,"移动互联网,金融",120.137204,30.273066,全职,10年以上
349,4489396,技术总监架构师,南京,2018-04-26 17:08:03,19.0,262723,鹿鹤松,泗洪鹿鹤松网络科技有限公司,15-50人,雨花台区,本科,天使轮,电子商务,,,全职,5-10年
350,4396282,技术总监/VP,北京,2018-04-29 11:52:42,52.0,77962,GrowingIO,北京易数科技有限公司,150-500人,朝阳区,本科,A轮,"企业服务,数据服务",116.47863,39.9884,全职,5-10年
351,2761199,技术总监,深圳,2018-04-28 14:18:49,24.0,133792,小宏科技,深圳鸿博永创科技有限公司,15-50人,南山区,本科,不需要融资,"硬件,移动互联网",113.926974,22.516417,全职,5-10年
352,4412486,技术总监,北京,2018-04-24 16:48:03,52.0,231702,起点前程,起点前程（大连）教育科技有限公司,500-2000人,海淀区,本科,不需要融资,其他,116.306719,39.924025,全职,10年以上
353,4468550,后台技术总监,北京,2018-04-23 19:22:50,56.0,61249,云鸟科技,北京云鸟科技有限公司,500-2000人,朝阳区,本科,D轮及以上,"移动互联网,O2O",116.470598,39.985842,全职,5-10年
354,4371556,技术总监,深圳,2018-04-28 11:38:42,55.0,248457,顶冠创意,深圳市顶冠文化创意有限公司,50-150人,福田区,本科,A轮,"移动互联网,文化娱乐",114.08887,22.541292,全职,5-10年
355,4376009,技术总监,杭州,2018-04-05 04:37:16,44.0,75576,首科众筹,宁波首科众筹网络科技有限公司,500-2000人,西湖区,本科,不需要融资,"移动互联网,金融",,,全职,10年以上
356,4363237,技术总监,北京,2018-04-29 01:42:41,54.0,327615,金色前程,北京金色前程咨询有限公司,50-150人,丰台区,本科,A轮,"移动互联网,金融",116.386097,39.85035,全职,5-10年
357,4063029,技术总监,武汉,2018-04-26 19:41:31,42.0,83054,大件会,武汉大见时代网络科技有限公司,150-500人,武昌区,本科,A轮,"电子商务,生活服务",113.993569,30.993672,全职,5-10年
358,4385173,技术总监（带团队）,上海,2018-04-17 19:07:12,34.0,32799,快牛金科,上海淡红金融科技有限公司,500-2000人,长宁区,本科,B轮,金融,121.359894,31.221871,全职,5-10年
359,4331753,技术总监,北京,2018-04-24 11:30:36,38.0,22326,齐聚科技（原呱呱视频）,浙江齐聚科技有限公司北京分公司,150-500人,东城区,本科,B轮,"移动互联网,游戏",116.422789,39.95149,全职,10年以上
360,3980227,技术总监,北京,2018-04-12 20:22:28,42.0,297554,轰米,北京猎由科技有限公司,少于15人,海淀区,本科,天使轮,"移动互联网,社交网络",116.307524,39.984207,全职,5-10年
361,4176848,CTO/技术总监,杭州,2018-04-03 09:13:47,42.0,74960,银承库,北京银承库网络科技有限公司,50-150人,江干区,本科,B轮,"移动互联网,金融",120.206137,30.240031,全职,10年以上
362,4462279,技术总监,北京,2018-04-23 09:39:36,38.0,270915,壹壹财富,壹壹财富投资管理有限公司,50-150人,海淀区,本科,未融资,"金融,移动互联网",116.305723,39.977523,全职,5-10年
363,4111796,技术总监,北京,2018-04-17 18:12:42,62.0,313704,微壳,北京微光果壳科技有限公司,150-500人,海淀区,本科,不需要融资,"移动互联网,企业服务",116.314526,39.982338,全职,5-10年
364,4350933,研发技术总监,上海,2018-03-30 11:34:00,52.8,18233,智慧树网,上海卓越睿新数码科技有限公司,500-2000人,徐汇区,本科,B轮,"移动互联网,教育",121.402027,31.178009,全职,10年以上
365,4419125,技术经理/技术总监,上海,2018-04-27 09:41:59,21.0,218000,宾兔兔,上海开皇实业有限公司,15-50人,长宁区,本科,A轮,电子商务、移动互联网,0.0,0.0,全职,5-10年
366,4157001,技术总监,成都,2018-04-27 09:39:14,27.0,81816,摩宝网络,成都摩宝网络科技有限公司,50-150人,高新区,本科,C轮,"移动互联网,电子商务",103.99341,30.994233,全职,5-10年
367,4476504,大数据技术总监,深圳,2018-04-26 20:53:27,48.0,319547,万邑通,深圳市万邑通信息科技有限公司,500-2000人,南山区,本科,B轮,"电子商务,其他",113.953155,22.533634,全职,5-10年
368,4481546,技术总监,北京,2018-04-28 16:26:54,42.0,282084,北京装库创意,北京装库创意科技有限公司,50-150人,海淀区,本科,未融资,"移动互联网,电子商务",116.31414,39.984369,全职,5-10年
369,4387297,网站技术总监,北京,2018-04-27 17:06:45,14.0,119945,北京无线动力广告,北京无线动力广告有限公司,50-150人,朝阳区,本科,未融资,"广告营销,移动互联网",116.604496,39.902177,全职,1-3年
370,4333854,技术总监,深圳,2018-04-20 09:52:01,24.0,352843,深圳市腾云易付网络科技有限公司,深圳市腾云易付网络科技有限公司,50-150人,南山区,本科,天使轮,"移动互联网,金融",113.90075,22.528875,全职,5-10年
371,4455981,技术总监/高级技术经理,上海,2018-04-24 16:58:23,24.0,130023,朗涯互联,上海朗涯互联网科技有限公司,15-50人,闸北区,本科,未融资,"移动互联网,O2O",120.993464,30.994061,全职,5-10年
372,4350567,技术总监,深圳,2018-04-16 10:51:31,31.0,318251,猎音,猎音（深圳）文化传播有限公司,15-50人,南山区,本科,不需要融资,"移动互联网,文化娱乐",113.955681,22.538734,全职,5-10年
373,4411135,技术总监,深圳,2018-04-12 14:34:43,44.0,364047,万众创新,深圳万众创新科技有限公司,50-150人,南山区,本科,A轮,"移动互联网,企业服务",113.939444,22.522611,全职,10年以上
374,3892316,技术总监,北京,2018-04-27 09:14:21,38.0,114173,所问数据,北京所问数据科技有限公司,50-150人,朝阳区,本科,A轮,"企业服务,数据服务",116.480725,39.995964,全职,10年以上
375,4013948,技术总监,深圳,2018-04-23 11:54:55,38.0,139800,小安时代,深圳小安时代互联网金融服务有限公司,150-500人,南山区,本科,B轮,"移动互联网,金融",113.994059,22.993238,全职,5-10年
376,4258600,技术总监,广州,2018-04-27 11:30:52,24.8,26709,青木科技,青木数字技术股份有限公司,500-2000人,海珠区,本科,未融资,电子商务,113.318994,23.088623,全职,不限
377,4422802,技术总监,成都,2018-04-15 10:11:31,19.0,180690,步速者,成都步速者科技股份有限公司,15-50人,青羊区,本科,上市公司,移动互联网,103.953483,30.685402,全职,5-10年
378,2626861,技术总监,成都,2018-04-28 09:43:50,34.0,67390,订货宝,成都阿商信息技术有限公司,50-150人,高新区,本科,B轮,电子商务,104.06540042,30.53656953,全职,5-10年
379,4494759,技术总监,北京,2018-04-27 16:08:18,56.0,87996,君尧文化,上海君尧文化传播有限公司,少于15人,朝阳区,本科,天使轮,广告营销,116.432958,39.922368,全职,5-10年
380,3208579,技术总监,上海,2018-04-24 17:50:54,62.0,107784,拼多多,上海寻梦信息技术有限公司,500-2000人,长宁区,本科,C轮,"电子商务,移动互联网",121.402636,31.208967,全职,5-10年
381,3537496,技术总监,北京,2018-04-08 10:35:09,48.0,2422,凡普金科,凡普金科集团有限公司,2000人以上,东城区,本科,不需要融资,金融,116.415486,39.93234,全职,5-10年
382,3706340,技术总监,深圳,2018-04-27 15:22:39,31.0,18787,左邻,深圳市永佳天成科技发展有限公司,150-500人,南山区,本科,A轮,移动互联网,113.94591,22.54452,全职,10年以上
383,4248840,CTO/技术总监,深圳,2018-04-26 09:33:18,38.0,133953,前海云东家,深圳前海云东家科技有限公司,15-50人,南山区,本科,A轮,"移动互联网,金融",113.940785,22.522788,全职,5-10年
384,4084978,技术总监/CTO,北京,2018-04-27 10:50:55,34.0,175548,六次方,六次方（北京）信息科技有限公司,50-150人,海淀区,本科,未融资,企业服务,116.292868,40.047683,全职,5-10年
385,4385639,技术总监,深圳,2018-04-27 10:07:08,38.0,339838,菲凡数据,深圳市菲凡数据科技有限公司,15-50人,福田区,硕士,未融资,"电子商务,数据服务",114.063688,22.542257,全职,5-10年
386,4301455,游戏平台技术总监,广州,2018-04-20 10:20:48,19.0,334525,寻趣游戏,海南寻趣软件科技有限公司,15-50人,天河区,本科,天使轮,游戏,113.340957,23.142702,全职,5-10年
387,4470506,技术总监,北京,2018-04-24 10:48:40,38.0,339526,鹰加,鹰加企业管理咨询（北京）有限公司,少于15人,东城区,本科,未融资,招聘,116.43278,39.94023,全职,10年以上
388,4326313,区块链-CTO/技术总监,成都,2018-04-28 11:10:55,42.0,245889,网信集团,网信集团有限公司,2000人以上,高新区,本科,不需要融资,"移动互联网,金融",104.069932,30.585314,全职,10年以上
389,4164389,技术总监,上海,2018-04-16 12:10:05,29.0,283278,BUFFALO,上海旨福供应链管理有限公司,15-50人,闵行区,本科,A轮,"其他,生活服务",121.312927,31.18969,全职,5-10年
390,3994366,云计算技术总监,北京,2018-04-08 10:35:08,67.0,2422,凡普金科,凡普金科集团有限公司,2000人以上,东城区,本科,不需要融资,金融,116.415486,39.93234,全职,10年以上
391,3857173,IT技术总监,杭州,2018-04-28 14:43:38,21.0,89557,量康科技,杭州量康科技有限公司,50-150人,滨江区,本科,A轮,"移动互联网,医疗健康",120.200109,30.190246,全职,3-5年
392,4091675,技术总监,深圳,2018-04-27 10:01:22,48.0,89305,智达股份,广东智达股份有限公司,150-500人,南山区,本科,不需要融资,"电子商务,O2O",113.9422,22.54878,全职,10年以上
393,4461466,技术总监,北京,2018-04-22 13:23:33,56.0,55855,北京红缨教育,北京红缨时代教育科技有限公司,150-500人,海淀区,本科,上市公司,教育,115.99339,39.99426,全职,5-10年
394,4343746,技术总监,成都,2018-04-20 13:52:41,17.0,257585,小码哥科技,成都小码哥科技有限公司,50-150人,高新区,本科,不需要融资,"移动互联网,数据服务",104.06477,30.585529,全职,5-10年
395,4046244,CTO/技术总监/合伙人,上海,2018-04-27 13:00:08,35.0,46036,龙擎传媒,上海龙擎文化传媒有限公司,15-50人,徐汇区,大专,A轮,"移动互联网,电子商务",121.417147,31.175781,全职,5-10年
396,4145986,技术总监,北京,2018-04-27 10:49:24,29.0,61844,国信优易,国信优易数据有限公司,150-500人,丰台区,本科,B轮,数据服务,116.288308,39.826493,全职,5-10年
397,4451345,技术总监,深圳,2018-04-23 11:40:16,46.0,142239,微启通,湖南微启通网络科技有限公司,150-500人,南山区,本科,不需要融资,移动互联网,113.95309,22.533463,全职,10年以上
398,4268648,技术总监,北京,2018-04-26 17:47:53,33.0,34679,精真估,北京精真估信息技术有限公司,150-500人,海淀区,本科,C轮,"移动互联网,广告营销",115.99339,39.99426,全职,5-10年
399,4170049,技术总监,广州,2018-04-24 18:32:40,44.0,286493,纳财/包公有财,广州纳财电子商务有限公司,150-500人,天河区,本科,B轮,"移动互联网,金融",113.32305,23.119828,全职,5-10年
400,3532771,技术总监,深圳,2018-04-25 09:50:04,28.0,36534,LOHO 眼镜,深圳市乐活电子商务有限公司,500-2000人,宝安区,大专,C轮,"移动互联网,O2O",113.89372,22.56222,全职,5-10年
401,4186373,技术总监,成都,2018-04-28 09:17:46,12.0,219219,成都微时代科技有限公司,成都微时代科技有限公司,50-150人,高新区,本科,A轮,"移动互联网,电子商务",104.06202,30.573059,全职,5-10年
402,3471335,技术总监,深圳,2018-04-26 17:49:51,48.0,34543,FORMAX金融圈,深圳福迈斯科技有限公司,500-2000人,南山区,本科,A轮,"移动互联网,金融",113.953693,22.535813,全职,5-10年
403,4132272,技术总监,成都,2018-04-24 11:22:27,21.0,135720,中美创世,中美创世成都物联科技有限公司,50-150人,高新区,本科,不需要融资,"旅游,教育",104.070779,30.595018,全职,5-10年
404,4462079,技术总监,北京,2018-04-23 08:45:31,56.0,58989,中益德诚,北京中益德诚科技有限公司,50-150人,丰台区,大专,未融资,"电子商务,广告营销",116.39398,39.852587,全职,3-5年
405,1949726,技术总监,西安,2018-04-04 09:07:34,14.6,110009,万里达实业,陕西万里达实业有限公司,15-50人,高新技术产业开发区,大专,不需要融资,电子商务,108.90076754,34.23298851,全职,3-5年
406,4490793,技术总监,北京,2018-04-26 22:47:01,53.0,332653,悦明生物医药,苏州悦明生物医药有限公司,15-50人,朝阳区,本科,未融资,不限,116.462476,39.928154,全职,5-10年
407,3897818,技术总监,杭州,2018-04-25 09:46:59,42.0,254022,中哈建投,霍尔果斯中哈建投供应链有限公司,150-500人,滨江区,本科,A轮,电子商务,120.211816,30.20856,全职,5-10年
408,4461096,技术总监,上海,2018-04-21 21:06:40,34.0,218899,嗨课堂,上海济忆网络科技有限公司,150-500人,闵行区,本科,A轮,教育,121.388979,31.086498,全职,5-10年
409,3171009,大数据技术总监,北京,2018-04-16 13:48:44,35.0,159988,阿拉丁,北京阿拉丁未来科技有限责任公司,50-150人,朝阳区,硕士,A轮,"移动互联网,数据服务",,,全职,3-5年
410,4407124,技术总监,北京,2018-04-11 19:43:12,38.0,72016,移动互联网 广告 SDK,北京盈海益讯科技发展有限公司,50-150人,朝阳区,本科,不需要融资,移动互联网,116.417035,40.031998,全职,5-10年
411,4485374,JAVA高级架构师 / 技术总监,深圳,2018-04-26 10:58:23,35.0,339838,菲凡数据,深圳市菲凡数据科技有限公司,15-50人,福田区,硕士,未融资,"电子商务,数据服务",114.063688,22.542257,全职,5-10年
412,4085369,技术总监,北京,2018-04-26 12:30:58,24.0,107061,钉图互动,北京钉图互动科技有限公司,50-150人,丰台区,本科,天使轮,"移动互联网,社交网络",116.436253,39.855257,全职,5-10年
413,4413713,技术总监,深圳,2018-04-25 14:38:54,28.0,27297,互联在线,深圳市互联在线云计算有限公司,50-150人,龙华新区,大专,B轮,"移动互联网,O2O",113.993578,22.99368,全职,5-10年
414,2947257,技术总监,北京,2018-04-25 13:31:23,34.0,92258,百年爱贝,北京百年爱贝科技有限公司,150-500人,朝阳区,本科,上市公司,"移动互联网,O2O",116.43288,39.92228,全职,10年以上
415,4502169,防水行业技术总监,广州,2018-04-29 14:51:58,9.6,325160,家实多,广东家实多集团有限公司,50-150人,白云区,不限,A轮,其他,113.300123,23.33115,全职,5-10年
416,4245274,技术总监 &amp; 技术合伙人,南京,2018-04-27 17:40:38,22.8,340225,贝优科技,南京贝优教育科技有限公司,15-50人,鼓楼区,不限,天使轮,"移动互联网,教育",118.759391,32.085848,全职,3-5年
417,4338145,技术总监,北京,2018-04-27 09:40:20,42.0,94103,优护家,北京优护创智健康科技有限责任公司,50-150人,朝阳区,本科,A轮,"移动互联网,医疗健康",116.415991,40.004911,全职,5-10年
418,4008164,技术总监,广州,2018-04-11 10:32:17,38.0,30980,云藏科技,广州云藏信息技术有限公司,15-50人,天河区,本科,A轮,"移动互联网,O2O",113.329086,23.139079,全职,5-10年
419,4247784,技术总监,上海,2018-04-27 09:46:10,39.0,210220,钢源城,财拓电子商务有限公司,150-500人,杨浦区,本科,不需要融资,电子商务,121.503212,31.341935,全职,5-10年
420,4131556,技术总监（架构师）,上海,2018-04-25 17:47:53,34.0,132691,高顿教育集团,上海高顿教育培训有限公司,2000人以上,虹口区,本科,B轮,教育,121.47248,31.270257,全职,5-10年
421,3079230,技术总监,北京,2018-04-23 15:19:24,41.0,114248,中体柠檬（天津）网络技术服务有限公司,中体柠檬（天津）网络技术服务有限公司,50-150人,朝阳区,本科,A轮,"O2O,移动互联网",116.470374,39.909843,全职,10年以上
422,4302808,技术总监,广州,2018-04-09 13:57:20,52.0,339889,正大集团万客隆,万客隆（广州）食品有限公司,2000人以上,天河区,本科,上市公司,"移动互联网,其他",113.331793,23.132012,全职,10年以上
423,4335661,技术总监,上海,2018-04-17 13:10:40,28.0,55045,上海高颖,上海高颖信息技术有限公司,少于15人,徐汇区,硕士,未融资,"移动互联网,企业服务",121.416149,31.171114,全职,5-10年
424,3464397,技术总监,北京,2018-04-09 15:20:01,56.0,69128,幸福时代,北京幸福时代人力资源服务有限公司,50-150人,海淀区,硕士,不需要融资,"移动互联网,其他",116.30549,39.98228,全职,5-10年
425,4430104,技术总监（监控方向）,南京,2018-04-28 11:00:48,39.2,53992,苏宁易购,南京苏宁软件技术有限公司,2000人以上,玄武区,本科,上市公司,"O2O,移动互联网",0.0,0.0,全职,5-10年
426,4387279,汽车APP技术总监,北京,2018-04-27 17:06:45,12.0,119945,北京无线动力广告,北京无线动力广告有限公司,50-150人,朝阳区,本科,未融资,"广告营销,移动互联网",116.604496,39.902177,全职,1-3年
427,4443577,技术总监,武汉,2018-04-18 16:17:36,28.0,200404,优信众网,武汉优信众网科技有限公司,15-50人,洪山区,本科,不需要融资,"数据服务,其他",114.410314,30.482621,全职,5-10年
428,4430254,技术总监/CTO,上海,2018-04-16 20:17:37,24.0,169853,淘菜猫,淘菜猫信息发展股份有限公司,150-500人,普陀区,本科,不需要融资,"移动互联网,电子商务",121.389619,31.232807,全职,5-10年
429,2816726,技术总监,北京,2018-04-13 15:18:25,52.0,2422,凡普金科,凡普金科集团有限公司,2000人以上,东城区,不限,不需要融资,金融,116.415486,39.93234,全职,不限
430,4105025,技术总监,成都,2018-04-11 23:51:43,56.8,320325,金阿普网络,成都金阿普网络科技有限公司,2000人以上,青羊区,不限,未融资,电子商务,104.062499,30.674406,全职,不限
431,4440494,技术总监助理,广州,2018-04-27 15:14:47,10.4,120196,广州国开信息科技有限公司,广州国开信息科技有限公司,50-150人,天河区,本科,不需要融资,移动互联网,113.35653,23.135139,全职,3-5年
432,4417239,技术总监,北京,2018-04-13 13:30:19,35.0,71941,通宝图金融,北京通宝图金融信息服务有限公司,15-50人,海淀区,本科,A轮,"移动互联网,金融",116.313459,39.978258,全职,5-10年
433,4394476,技术总监,北京,2018-04-10 11:20:17,52.0,337153,壹点壹滴,壹点壹滴互联（北京）教育科技有限公司,150-500人,海淀区,本科,A轮,移动互联网、教育,,,全职,3-5年
434,4162628,技术总监/技术经理,深圳,2018-04-26 10:16:59,28.0,172435,正易龙,深圳市正易龙科技有限公司,150-500人,南山区,大专,不需要融资,"游戏,移动互联网",113.932899,22.542186,全职,5-10年
435,2495026,技术总监,北京,2018-04-13 15:18:30,48.0,2422,凡普金科,凡普金科集团有限公司,2000人以上,东城区,不限,不需要融资,金融,116.415486,39.93233986,全职,10年以上
436,4268960,技术总监/CTO,北京,2018-04-17 09:35:48,62.0,313704,微壳,北京微光果壳科技有限公司,150-500人,海淀区,本科,不需要融资,"移动互联网,企业服务",116.314526,39.982338,全职,5-10年
437,3780941,CTO/技术总监,上海,2018-04-26 14:34:05,34.0,78491,联明投资,上海联明投资集团有限公司,500-2000人,浦东新区,本科,不需要融资,其他,121.61186,31.20758,全职,3-5年
438,4126380,IT技术总监,杭州,2018-04-24 10:47:25,44.0,101909,通卡联城,通卡联城网络科技有限公司,50-150人,上城区,本科,B轮,"移动互联网,电子商务",119.993591,29.993662,全职,5-10年
439,4363277,技术总监,深圳,2018-04-02 21:01:58,28.0,168416,锦杉金服,深圳市前海锦杉金融服务有限公司,15-50人,福田区,本科,不需要融资,金融,114.063737,22.534231,全职,3-5年
440,4403256,现场技术总监,昆明,2018-04-11 14:10:56,4.4,362849,晨玉智能交通,云南晨玉智能交通系统有限公司,少于15人,盘龙区,不限,未融资,"移动互联网,信息安全",102.738686,25.066404,全职,不限
441,4234620,技术总监,深圳,2018-03-30 10:34:42,28.0,141119,一间科技,一间科技（深圳）有限公司,少于15人,南山区,本科,天使轮,"移动互联网,企业服务",113.939219,22.52393,全职,5-10年
442,3848001,技术总监（架构师）,北京,2018-04-23 08:41:04,41.0,74022,金风易通,北京金风易通科技有限公司,50-150人,朝阳区,本科,不需要融资,医疗健康,116.412081,40.046749,全职,5-10年
443,4491295,技术总监(中国区）,上海,2018-04-27 09:51:55,22.8,192907,房大办公,上海捷办网络技术有限公司,15-50人,静安区,本科,天使轮,"移动互联网,O2O",121.456035,31.23124,全职,3-5年
444,4246998,技术总监,北京,2018-04-02 18:21:25,38.0,156134,吉普利,吉普利（北京）国际文化发展有限公司,15-50人,朝阳区,本科,不需要融资,"旅游,移动互联网",116.415405,40.036374,全职,5-10年
445,3669485,研发技术总监,北京,2018-04-09 13:21:00,28.0,104879,华宏信达,北京华宏信达科技有限公司,50-150人,昌平区,本科,未融资,其他,116.267824,40.099117,全职,5-10年
446,4361627,技术总监,上海,2018-04-02 16:47:22,27.0,354835,虎宝企业联盟,上海虎宝网络科技有限公司,15-50人,松江区,本科,天使轮,"移动互联网,企业服务",121.316001,31.092353,全职,5-10年
447,4399821,技术总监,深圳,2018-04-11 00:09:50,31.0,354353,艾米科技,深圳艾米科技有限公司,150-500人,罗湖区,本科,不需要融资,"移动互联网,旅游",114.127444,22.544123,全职,5-10年
448,4399467,技术总监,北京,2018-04-10 19:12:56,42.0,312959,天互商贸,郑州天互商贸有限公司,2000人以上,朝阳区,不限,B轮,电子商务 移动互联网,116.461676,39.908269,全职,5-10年
449,4264747,技术总监助理/项目申报专员,西安,2018-04-28 17:13:23,4.8,45653,蒜泥科技,西安蒜泥电子科技有限责任公司,150-500人,未央区,本科,A轮,"移动互联网,硬件",108.93729,34.35238,全职,1-3年
450,4096490,技术总监/CTO,北京,2018-04-17 18:12:11,40.0,313704,微壳,北京微光果壳科技有限公司,150-500人,海淀区,本科,不需要融资,"移动互联网,企业服务",116.314526,39.982338,全职,5-10年
451,4317155,技术总监 / 资深架构师 （急聘）,深圳,2018-04-26 16:54:10,31.0,341498,VoiceAI Technologies,深圳市声扬科技有限公司,少于15人,南山区,本科,天使轮,其他,113.94679,22.556374,全职,5-10年
452,4104245,技术总监（架构师）,上海,2018-04-28 16:57:51,24.0,132691,高顿教育集团,上海高顿教育培训有限公司,2000人以上,虹口区,本科,B轮,教育,121.475531,31.27179,全职,5-10年
453,4484375,网站、软件开发经理/技术总监,成都,2018-04-26 09:50:35,9.4,336647,上鱼鲜超,成都上鱼鲜超商贸有限公司,15-50人,武侯区,不限,不需要融资,O2O,104.035711,30.623312,全职,3-5年
454,4482249,CTO/技术总监,深圳,2018-04-25 17:09:34,36.0,96905,海狸科技,海狸科技信息有限公司,少于15人,南山区,本科,天使轮,数据服务,113.949068,22.542863,全职,5-10年
455,4418153,java服务器-技术总监,北京,2018-04-26 18:14:22,31.0,173355,明日世界,明日世界竞技体育发展有限公司北京分公司,150-500人,朝阳区,大专,不需要融资,"社交网络,游戏",116.490632,39.985193,全职,5-10年
456,3881830,技术总监/架构师,广州,2018-04-24 11:49:00,38.0,66008,Mobisummer,广州钛动科技有限公司,50-150人,天河区,本科,A轮,"移动互联网,广告营销",113.362104,23.146741,全职,5-10年
457,4079507,技术总监/CTO,上海,2018-04-06 20:31:06,24.0,110754,滚球信息,上海滚球信息科技有限公司,15-50人,浦东新区,本科,天使轮,"移动互联网,数据服务",121.583487,31.199996,全职,5-10年
458,4095516,技术总监 / 高级技术经理,上海,2018-04-10 17:29:57,19.6,124278,珈闻,珈闻（上海）信息科技有限公司,少于15人,长宁区,本科,天使轮,O2O,0.0,0.0,全职,5-10年
459,3852816,技术总监/JAVA开发高级工程师,成都,2018-04-23 13:41:43,14.0,289155,鸟人信息,成都鸟人信息技术有限公司,50-150人,高新区,大专,A轮,"移动互联网,数据服务",104.05568,30.586697,全职,不限
460,4097375,CTO/技术总监/架构师,北京,2018-04-23 11:07:42,49.0,171474,藕丁科技,藕丁科技（北京）有限公司,50-150人,朝阳区,本科,天使轮,"移动互联网,金融",116.495194,39.914662,全职,5-10年
461,4468201,平台技术总监,北京,2018-04-23 18:23:34,41.0,67404,帮旅行,北京哪乐时代信息咨询有限公司,少于15人,海淀区,本科,天使轮,旅游,116.315603,39.981278,全职,5-10年
462,4376903,架构师，技术总监,上海,2018-04-06 11:27:12,31.0,333584,DP Asia,上海伽亿实业有限公司,少于15人,静安区,本科,未融资,移动互联网 文化娱乐,121.451674,31.247692,全职,5-10年
463,4051939,技术总监/基数高级经理,上海,2018-04-11 16:43:27,24.0,167039,E3,笔易信息技术（上海）有限公司,15-50人,嘉定区,本科,天使轮,"移动互联网,O2O",121.233999,31.271527,全职,5-10年
464,571153,技术合伙人(技术总监),长沙,2018-04-21 10:02:08,14.0,24932,金指王,湖南金指王信息系统有限公司,15-50人,岳麓区,本科,天使轮,移动互联网,,,全职,5-10年
465,4334762,技术总监-真格基金投资企业合作公司（隐逸数字）,北京,2018-04-28 22:35:14,51.0,23702,真格基金,北京真格天成投资管理有限公司,50-150人,东城区,本科,不需要融资,金融,116.431523,39.910745,全职,5-10年
466,4020107,大数据技术总监,北京,2018-04-26 10:47:52,58.0,2422,凡普金科,凡普金科集团有限公司,2000人以上,东城区,本科,不需要融资,金融,116.433286,39.92048,全职,10年以上
467,4276820,技术总监/VP/CTO,上海,2018-04-10 18:40:51,35.0,255033,酷犇,上海酷犇网络科技有限公司,15-50人,浦东新区,本科,天使轮,"移动互联网,金融",121.605557,31.178726,全职,5-10年
468,4347407,技术总监/CTO（公司级技术合伙人）,深圳,2018-04-28 14:22:03,38.0,5580,明源云,深圳市明源云客电子商务有限公司,2000人以上,南山区,本科,上市公司,"移动互联网,企业服务",0.0,0.0,全职,5-10年
469,4417534,技术总监（合伙人）,武汉,2018-04-17 10:53:22,21.0,51402,大思想,武汉大思想信息股份有限公司,50-150人,洪山区,本科,A轮,"移动互联网,数据服务",114.411025,30.483441,全职,10年以上
470,3995883,平台技术总监,广州,2018-04-28 09:07:13,19.0,283630,广州唯美会,广州唯美会科技有限公司,150-500人,花都区,本科,未融资,"O2O,移动互联网",113.245301,23.390911,全职,5-10年
471,4273933,软件开发技术总监,广州,2018-04-08 14:50:00,14.0,211900,金蓝盟,广州金蓝盟企业管理咨询有限公司,500-2000人,天河区,本科,不需要融资,企业服务,113.341682,23.175013,全职,3-5年
472,4383206,信息技术总监/CIO,北京,2018-04-28 16:51:09,38.0,188210,客邻尚品,北京客邻尚品网络技术有限公司,150-500人,东城区,本科,未融资,电子商务,116.444,39.885359,全职,10年以上
473,4226807,产品技术总监,深圳,2018-04-28 16:05:04,38.0,84086,笨鸟社交,厦门笨鸟电子商务有限公司,150-500人,南山区,硕士,B轮,企业服务,0.0,0.0,全职,10年以上
474,4440846,技术总监助理实习生,上海,2018-04-25 16:26:09,3.8,15281,上海晨之科,上海晨之科信息技术有限公司,150-500人,徐汇区,本科,C轮,"移动互联网,游戏",121.417459,31.175027,实习,应届毕业生
475,4376544,软件开发技术总监,北京,2018-04-05 17:38:57,20.8,357727,秦川大业,北京秦川大业科技有限公司,少于15人,房山区,本科,未融资,移动互联网,,,全职,10年以上
476,4490398,技术总监（电商）,深圳,2018-04-26 19:05:20,38.0,372363,盒淘电商,深圳盒淘信息技术有限公司,15-50人,南山区,本科,不需要融资,移动互联网 电子商务,113.937987,22.523392,全职,5-10年
477,4428427,软件开发技术总监,成都,2018-04-23 13:57:29,17.0,348057,成信宏,成都成信宏财税咨询有限公司,50-150人,金牛区,本科,未融资,企业服务,104.073712,30.686228,全职,3-5年
478,4387760,技术总监（兼职/顾问）,广州,2018-04-29 10:48:43,7.0,29983,广州昕康,广州昕康信息科技有限公司,少于15人,番禺区,本科,未融资,医疗健康,113.40768,23.05733,兼职,10年以上
479,4354849,技术总监（技术合伙人）,北京,2018-04-23 13:25:06,19.0,66671,微梦创新,北京微梦创新科技发展有限公司,15-50人,丰台区,本科,未融资,"移动互联网,企业服务",116.284877,39.835344,全职,5-10年
480,4020127,技术总监（支付业务线）,北京,2018-04-26 10:47:52,58.0,2422,凡普金科,凡普金科集团有限公司,2000人以上,东城区,本科,不需要融资,金融,116.433286,39.92048,全职,5-10年
481,4185047,技术总监（真格被投企业-七号空间）,北京,2018-04-23 14:24:55,38.0,23702,真格基金,北京真格天成投资管理有限公司,50-150人,海淀区,本科,不需要融资,金融,116.314526,39.982338,全职,5-10年
482,3620302,服务端技术总监,北京,2018-04-28 12:36:43,51.0,81144,7号电单车,北京百和光信息技术有限公司,150-500人,朝阳区,本科,C轮,"O2O,生活服务",116.387477,40.000236,全职,5-10年
483,4112410,直播技术总监—base新加坡,上海,2018-04-28 09:51:00,48.0,14983,游族网络,上海游族信息技术有限公司,500-2000人,徐汇区,本科,上市公司,"移动互联网,游戏",39.897445,116.331398,全职,3-5年
484,4447018,【深圳】技术总监,深圳,2018-04-23 11:39:13,46.0,142239,微启通,湖南微启通网络科技有限公司,150-500人,南山区,本科,不需要融资,移动互联网,113.95309,22.533463,全职,10年以上
485,4328918,技术总监（点播系统）,北京,2018-04-23 14:47:31,21.0,128455,兰亭数字,北京兰亭数字科技有限公司,50-150人,大兴区,本科,A轮,移动互联网,116.32466,39.785952,全职,5-10年
486,4127598,IT技术总监/经理,广州,2018-04-28 15:54:12,22.8,104370,广州市西美信息科技有限公司,广州市西美信息科技有限公司,50-150人,越秀区,大专,不需要融资,数据服务,113.29539,23.13656,全职,3-5年
487,4372339,移动端开发技术总监,北京,2018-04-04 12:20:24,47.0,110393,诸葛找房,北京诸葛找房信息技术有限公司,150-500人,朝阳区,本科,B轮,"移动互联网,生活服务",116.472375,39.874549,全职,5-10年
488,3406614,技术总监(松果倾诉APP),广州,2018-04-28 10:41:23,24.0,66619,智悅网络,广州智悦网络科技有限公司,50-150人,天河区,本科,A轮,"移动互联网,电子商务",113.371417,23.123497,全职,1-3年
489,3797546,技术总监（仓储）,南京,2018-04-19 10:35:43,38.0,53992,苏宁易购,南京苏宁软件技术有限公司,2000人以上,玄武区,本科,上市公司,"O2O,移动互联网",0.0,0.0,全职,5-10年
490,4195902,技术总监（体育传媒）,北京,2018-04-23 17:22:42,44.0,17291,PPTV聚力,上海聚力传媒技术有限公司,500-2000人,朝阳区,硕士,D轮及以上,文化娱乐,116.494503,39.915824,全职,5-10年
491,4388787,技术总监（平台方向）,北京,2018-04-26 09:45:28,52.0,24561,国美互联网,国美在线电子商务有限公司,2000人以上,朝阳区,本科,上市公司,电子商务,39.897445,116.331398,全职,5-10年
492,4354292,项目技术总监,邢台,2018-03-30 18:26:59,21.0,356070,鑫睿网络,邢台鑫睿网络科技有限公司,15-50人,桥东区,大专,未融资,"移动互联网,游戏",114.55015,37.062409,全职,1-3年
493,3414323,三维动画技术总监,北京,2018-04-27 16:37:07,19.0,142542,聚力维度,北京聚力维度科技有限公司,50-150人,海淀区,本科,天使轮,移动互联网,116.331854,39.992513,全职,5-10年
494,4431264,技术总监（传化智联慧通）,杭州,2018-04-17 10:01:07,35.0,37974,传化智联,传化物流集团有限公司,2000人以上,萧山区,本科,上市公司,"移动互联网,金融",39.897445,116.331398,全职,10年以上
495,4357154,技术总监-真格基金投资企业（罗马车贷）,北京,2018-04-28 22:35:14,44.0,23702,真格基金,北京真格天成投资管理有限公司,50-150人,丰台区,本科,不需要融资,金融,116.3039,39.831812,全职,5-10年
496,4426461,手游技术总监,深圳,2018-04-16 14:27:29,24.0,365896,盘丝游戏,深圳盘丝网络科技有限公司,少于15人,南山区,本科,未融资,"移动互联网,游戏",113.942143,22.527334,全职,5-10年
497,3326110,移动端技术总监,深圳,2018-04-24 00:41:54,26.0,114340,深圳大数据,深圳大数据计算机信息股份有限公司,50-150人,南山区,本科,不需要融资,"信息安全,数据服务",113.943197,22.549193,全职,5-10年
498,4071183,IT技术总监,北京,2018-04-27 11:09:48,24.0,239943,小恒科技,北京小恒科技发展有限公司,150-500人,朝阳区,本科,A轮,其他,116.516899,39.908875,全职,5-10年
499,4144867,手游技术总监,广州,2018-04-24 10:39:10,28.0,256111,猎宝动漫游乐设备,广州市猎宝网络科技有限公司,15-50人,番禺区,本科,不需要融资,"硬件,文化娱乐",113.355235,22.958549,全职,3-5年
500,4193205,手游技术总监,广州,2018-04-04 09:42:36,28.2,2028,岂凡网络,深圳岂凡网络有限公司,150-500人,天河区,本科,A轮,游戏,0.0,0.0,全职,5-10年
501,3564279,地图云产品技术总监,北京,2018-04-11 21:59:19,24.0,141638,图创时代,北京图创时代科技有限公司,15-50人,海淀区,本科,不需要融资,"企业服务,移动互联网",116.330323,40.05667,全职,5-10年
502,4070424,电力技术总监,广州,2018-04-24 09:31:10,35.0,45051,亦云,广州亦云信息技术股份有限公司,150-500人,海珠区,博士,上市公司,数据服务,113.29195398,23.09272099,全职,5-10年
503,4084510,技术总监（O2O门店方向）,南京,2018-04-28 11:00:49,42.0,53992,苏宁易购,南京苏宁软件技术有限公司,2000人以上,玄武区,本科,上市公司,"O2O,移动互联网",0.0,0.0,全职,5-10年
504,4130377,技术总监（保险业务,上海,2018-04-26 09:37:48,48.0,136443,马上金融,马上消费金融股份有限公司,2000人以上,杨浦区,本科,不需要融资,"金融,移动互联网",121.510227,31.307334,全职,5-10年
505,3704946,智能硬件产品技术总监,北京,2018-04-28 12:36:43,41.0,81144,7号电单车,北京百和光信息技术有限公司,150-500人,朝阳区,本科,C轮,"O2O,生活服务",116.387477,40.000236,全职,5-10年
506,3521470,售前技术总监,上海,2018-04-28 13:28:00,21.0,25439,Udesk－企业级智能客服平台,北京沃丰时代数据科技有限公司,150-500人,普陀区,不限,B轮,其他,120.993464,30.994061,全职,3-5年
507,4492555,IT 智能化 系统集成 技术总监,长沙,2018-04-28 14:55:33,10.8,369234,力拓,长沙力拓电子科技有限公司,50-150人,天心区,大专,不需要融资,"数据服务,硬件",112.977578,28.177691,全职,3-5年
508,4489564,技术总监（医疗行业）,深圳,2018-04-27 10:36:43,33.0,7099,健康160（原就医160）,深圳市宁远科技股份有限公司,500-2000人,南山区,本科,上市公司,移动互联网,113.91871,22.50899,全职,5-10年
509,4155907,安全技术总监,合肥,2018-04-23 18:08:17,17.0,21980,科大讯飞,科大讯飞股份有限公司,2000人以上,高新区,本科,上市公司,"移动互联网,数据服务",117.199338,31.840674,全职,不限
510,4084485,技术总监（广告产品方向）,南京,2018-04-28 11:00:48,42.0,53992,苏宁易购,南京苏宁软件技术有限公司,2000人以上,玄武区,本科,上市公司,"O2O,移动互联网",0.0,0.0,全职,5-10年
511,3676645,信息安全技术总监,郑州,2018-04-27 18:07:09,24.0,116333,象聚集团,河南象聚实业有限公司,500-2000人,高新区,本科,不需要融资,"移动互联网,金融",113.566392,34.817257,全职,5-10年
512,4470813,技术总监 Engineering Director,上海,2018-04-28 11:00:28,38.0,146,DerbySoft,德比软件（上海）有限公司,150-500人,浦东新区,本科,C轮,旅游,121.53221,31.21473,全职,10年以上
513,4398395,技术总监/技术合伙人（广告方向）,深圳,2018-04-28 10:00:39,42.0,175988,未来游戏,深圳市三只小熊科技有限公司,150-500人,南山区,本科,不需要融资,"移动互联网,游戏",113.932784,22.540646,全职,5-10年
514,2432222,网络技术总监,深圳,2018-04-28 09:22:54,26.0,22103,Chinatime,时代际客（深圳）软件有限公司,150-500人,福田区,硕士,B轮,"社交网络,数据服务",114.10296,22.5415,全职,5-10年
515,4453971,硬件研发技术总监,成都,2018-04-20 09:49:46,16.2,35011,四方科技,成都四方信息技术有限公司,150-500人,武侯区,大专,未融资,"数据服务,分类信息",104.03862,30.622929,全职,5-10年
516,3381763,网络技术总监/PHP工程师,石家庄,2018-04-11 17:33:38,8.8,83185,卡盟网,卡盟联众信息技术(北京)有限公司,150-500人,裕华区,本科,不需要融资,"电子商务,O2O",114.541766,38.025913,全职,5-10年
517,3947800,技术总监（微信智慧酒店）,上海,2018-04-22 17:55:41,29.0,137812,复创互联网,上海复创互联网科技有限公司,50-150人,杨浦区,不限,A轮,"移动互联网,旅游",121.51506,31.274479,全职,5-10年
518,4085792,区块链技术总监,北京,2018-04-29 15:56:14,24.0,194178,小睿,北京小睿科技有限公司,50-150人,朝阳区,本科,A轮,硬件,116.460733,39.929643,全职,5-10年
519,3836538,SaaS产品技术总监,青岛,2018-04-27 21:02:26,17.6,110524,众联成业,众联成业科技（北京）有限公司,15-50人,市北区,本科,天使轮,"移动互联网,企业服务",120.393398,36.111244,全职,5-10年
520,4163299,医学影像技术总监,上海,2018-04-26 16:55:15,38.0,81455,衡道医学,上海观然投资管理有限公司,15-50人,徐汇区,硕士,天使轮,医疗健康,120.993464,30.994061,全职,3-5年
521,4146002,技术总监（大数据方向）,杭州,2018-04-27 11:07:40,42.0,286791,的蓝科技,杭州的蓝科技有限公司,150-500人,滨江区,本科,不需要融资,移动互联网,120.218929,30.208301,全职,10年以上
522,4263380,技术总监（工业大数据）,杭州,2018-04-26 14:37:28,24.0,52954,鸿程系统,浙江鸿程计算机系统有限公司,500-2000人,滨江区,硕士,不需要融资,"移动互联网,数据服务",120.15989,30.18499,全职,5-10年
523,4221484,售前技术总监,北京,2018-04-04 10:49:23,19.0,331332,和信创天,北京和信创天科技股份有限公司,50-150人,海淀区,本科,A轮,信息安全,116.303292,40.054299,全职,10年以上
524,4056030,AI应用技术总监(银行)-00489,上海,2018-04-28 09:47:35,28.0,6502,同盾科技,同盾科技有限公司,500-2000人,徐汇区,本科,C轮,"信息安全,数据服务",121.457355,31.183824,全职,5-10年
525,4357159,CTO技术总监,杭州,2018-04-27 10:09:30,28.0,113585,食趣,杭州食在有趣科技有限公司,50-150人,余杭区,本科,A轮,"移动互联网,金融",120.001628,30.280829,全职,5-10年
526,3321625,信息安全技术总监,深圳,2018-04-24 09:12:39,34.0,144396,恒大珠三角公司,恒大地产集团珠三角房地产开发有限公司,2000人以上,南山区,本科,上市公司,"移动互联网,生活服务",113.943073,22.518898,全职,10年以上
527,4452559,技术总监CTO,广州,2018-04-23 18:32:08,24.0,335488,三点一,广州三点一科技有限公司,50-150人,天河区,本科,未融资,"移动互联网,电子商务",113.316444,23.126767,全职,5-10年
528,4020431,技术总监（互联网核心初创团队）,上海,2018-04-28 11:24:57,68.0,29929,斐讯通信,上海斐讯数据通信技术有限公司,2000人以上,松江区,本科,未融资,"数据服务,硬件",121.15911049,31.02269989,全职,10年以上
529,3487216,技术总监（垂直行业B2B电商）,北京,2018-04-26 10:14:46,30.2,122296,驰骛科技ChiefClouds,上海驰骛信息科技有限公司,50-150人,海淀区,本科,A轮,"数据服务,移动互联网",116.369184,39.980027,全职,10年以上
530,4375805,大数据计算平台技术总监,北京,2018-04-12 10:39:51,48.0,122289,超对称,超对称（北京）科技有限公司,15-50人,朝阳区,硕士,A轮,"移动互联网,企业服务",116.480792,39.996,全职,3-5年
531,4372361,技术总监 架构师 主管 合伙人,北京,2018-04-04 12:26:25,14.0,113736,上善若水,北京上善若水会计服务有限公司,15-50人,朝阳区,本科,未融资,"企业服务,其他",116.516868,39.999369,全职,3-5年
532,4261121,区块链技术总监,杭州,2018-04-28 10:42:08,28.0,136168,杭州线条科技,杭州线条科技有限公司,少于15人,余杭区,本科,不需要融资,"移动互联网,数据服务",119.993921,29.993843,全职,3-5年
533,3061018,视频业务技术总监（主管或以上级别）,北京,2018-04-27 11:04:11,19.0,6364,新华网,新华网股份有限公司,500-2000人,西城区,本科,上市公司,"移动互联网,文化娱乐",116.359914,39.900372,全职,5-10年
534,3543013,移动广告平台技术总监,北京,2018-04-12 19:15:54,36.0,134707,多分,北京多分科技有限公司,50-150人,东城区,本科,不需要融资,"移动互联网,广告营销",116.421803,39.950555,全职,5-10年
535,4149513,技术总监（平台、IM）,杭州,2018-04-18 14:37:49,34.0,46629,金诚集团,浙江诚泽金开投资管理有限公司,2000人以上,拱墅区,本科,上市公司,金融,120.144599,30.313212,全职,10年以上
536,3736553,全栈技术总监,北京,2018-04-28 08:52:57,35.0,356,捷通华声,北京捷通华声科技股份有限公司,150-500人,海淀区,本科,不需要融资,"移动互联网,数据服务",116.29632768,40.05177651,全职,5-10年
537,4056735,智能化IT技术总监(银行)-上海徐汇-00490,上海,2018-04-28 09:47:35,28.0,6502,同盾科技,同盾科技有限公司,500-2000人,徐汇区,本科,C轮,"信息安全,数据服务",121.457355,31.183824,全职,5-10年
538,4190663,QA技术总监,北京,2018-04-24 09:37:17,42.0,50702,美团点评,北京三快在线科技有限公司,2000人以上,朝阳区,本科,D轮及以上,"移动互联网,O2O",116.48776,40.008007,全职,5-10年
539,4501861,cto技术总监,广州,2018-04-29 08:14:50,14.0,223071,玄道科技,广州玄道科技有限公司,50-150人,番禺区,本科,未融资,"移动互联网,教育",113.268058,22.984318,全职,5-10年
540,4384489,区块链技术总监,北京,2018-04-28 14:32:35,52.0,84708,必连,必连（北京）科技有限公司,50-150人,朝阳区,本科,A轮,"移动互联网,社交网络",0.0,0.0,全职,5-10年
541,4314923,区块链技术总监,广州,2018-03-30 12:44:35,56.0,270379,沃泰控股集团有限公司,沃泰控股集团有限公司,150-500人,天河区,本科,不需要融资,"电子商务,医疗健康",113.321766,23.11644,全职,5-10年
542,4502051,cto技术总监,杭州,2018-04-29 12:04:03,19.0,373664,糖果世界,杭州糖果世界网络科技有限公司,少于15人,滨江区,不限,天使轮,金融、广告营销,120.138031,30.179415,全职,不限
543,4401461,区块链技术总监,上海,2018-04-26 09:26:25,42.0,362655,软众网络,上海软众网络科技有限公司,15-50人,静安区,本科,未融资,移动互联网,121.453462,31.244543,全职,5-10年
544,4434210,手机游戏客户端技术总监,成都,2018-04-17 14:17:50,19.0,366727,成都爱游泳的猫科技有限公司,成都爱游泳的猫科技有限公司,15-50人,武侯区,不限,未融资,"移动互联网,社交网络",104.062752,30.538362,全职,3-5年
545,3319054,技术总监CTO,东莞,2018-04-27 07:24:13,24.0,212225,唯爱科技,东莞市唯爱网络科技有限公司,15-50人,东莞市市辖区,本科,天使轮,移动互联网,,,全职,5-10年
546,4005632,CTO（技术总监）,宁波,2018-04-24 09:22:32,21.0,133212,爱班网,宁波爱班信息技术有限公司,50-150人,鄞州区,本科,不需要融资,移动互联网,0.0,0.0,全职,3-5年
547,3937306,技术总监(CTO),苏州,2018-04-08 10:33:22,17.0,37035,上海牛散网络科技有限公司,上海牛散网络科技有限公司,15-50人,吴中区,本科,A轮,金融,120.669369,31.281843,全职,5-10年
548,4166588,技术总监 项目经理,长沙,2018-04-11 15:16:33,14.0,176102,湖南银数,湖南银数信息技术有限公司,15-50人,开福区,本科,未融资,"硬件,信息安全",112.988412,28.223999,全职,5-10年
549,3695969,大数据基础平台技术总监,上海,2018-04-26 20:26:58,29.0,4832,七牛云,上海七牛信息技术有限公司,150-500人,浦东新区,本科,D轮及以上,"移动互联网,数据服务",121.601722,31.206764,全职,5-10年
550,2762016,CTO（技术总监）,北京,2018-04-28 08:52:57,35.0,356,捷通华声,北京捷通华声科技股份有限公司,150-500人,海淀区,本科,不需要融资,"移动互联网,数据服务",116.29632768,40.05177651,全职,5-10年
551,3758526,PHP技术总监/技术合伙人,南京,2018-04-28 10:08:29,1.4,218102,linkall,上海零氪网络科技有限公司,15-50人,玄武区,大专,未融资,"移动互联网,广告营销",118.884255,32.096225,全职,5-10年
552,4497030,区块链技术总监,北京,2018-04-28 09:45:24,42.0,161981,耀辉蓝石,耀辉蓝石（北京）科技有限公司,少于15人,海淀区,本科,天使轮,移动互联网,116.331252,39.993553,全职,10年以上
553,4152239,技术总监（cto）,杭州,2018-04-20 17:46:08,29.2,327192,炎土科技,杭州炎土科技有限公司,15-50人,西湖区,本科,天使轮,企业服务,120.116641,30.29182,全职,5-10年
554,3610830,python技术总监,北京,2018-04-28 10:40:22,35.0,100164,千锋教育,北京千锋互联科技有限公司,500-2000人,海淀区,大专,A轮,移动互联网,116.370571,40.037093,全职,3-5年
555,4430285,cto技术总监,北京,2018-04-16 20:27:35,17.0,355373,安童医疗,北京安童医疗科技有限公司,少于15人,海淀区,本科,未融资,医疗健康、移动互联网,116.251954,40.076446,全职,5-10年
556,4292752,技术总监（IOT）,深圳,2018-04-25 09:41:53,49.0,94,思必驰科技,苏州思必驰信息科技有限公司,150-500人,南山区,本科,C轮,企业服务,113.93921912,22.52393022,全职,5-10年
557,3990519,区块链技术总监,上海,2018-04-28 13:39:11,42.0,307557,博聚科技,上海博聚信息科技有限公司,50-150人,浦东新区,本科,不需要融资,"信息安全,数据服务",121.60522,31.178281,全职,10年以上
558,3951775,PHP技术总监,郑州,2018-04-27 18:07:10,28.0,116333,象聚集团,河南象聚实业有限公司,500-2000人,高新区,本科,不需要融资,"移动互联网,金融",113.566392,34.817257,全职,5-10年
559,4287823,技术经理/技术总监（财务/内控）（深圳）,深圳,2018-04-26 17:22:18,28.0,24748,平安科技,平安科技（深圳）有限公司,2000人以上,福田区,本科,不需要融资,金融,114.055755,22.533344,全职,不限
560,4377408,PHP技术总监,深圳,2018-04-28 15:57:45,22.0,210962,智物科技,深圳市智物科技有限公司,15-50人,宝安区,本科,天使轮,"生活服务,O2O",113.804258,22.674844,全职,3-5年
561,3973382,Java技术总监,北京,2018-04-27 10:10:42,29.0,53308,妙健康,北京妙医佳信息技术有限公司,50-150人,朝阳区,本科,B轮,移动互联网,116.47384,39.90257,全职,5-10年
562,4319208,CTO 技术总监,杭州,2018-04-27 14:08:13,42.0,326445,千讯智能,杭州千讯智能科技有限公司,15-50人,西湖区,本科,不需要融资,"电子商务,企业服务",120.059036,30.248234,全职,5-10年
563,4104897,技术总监（tech lead）,北京,2018-04-27 14:36:33,56.0,254694,创新工场AI工程院,创新工场（北京）企业管理股份有限公司,50-150人,海淀区,本科,未融资,移动互联网,0.0,0.0,全职,5-10年
564,4385693,前端技术总监,广州,2018-04-26 15:24:04,12.0,132577,霄汉软件,广州霄汉软件有限公司,15-50人,天河区,本科,不需要融资,"移动互联网,电子商务",112.993461,22.994261,全职,3-5年
565,4409063,前端技术总监（武汉）,武汉,2018-04-20 15:18:59,10.8,49444,幸运坐标,武汉市幸运坐标信息技术有限公司,50-150人,东湖新技术开发区,大专,未融资,移动互联网,0.0,0.0,全职,3-5年
566,4192768,JAVA技术总监,北京,2018-04-28 11:52:02,44.0,273030,中金中富,中金中富（北京）文化传媒有限公司,150-500人,朝阳区,本科,A轮,移动互联网,116.463545,39.921316,全职,5-10年
567,2642713,技术总监（C++）,北京,2018-04-28 08:52:57,35.0,356,捷通华声,北京捷通华声科技股份有限公司,150-500人,海淀区,本科,不需要融资,"移动互联网,数据服务",116.29632768,40.05177651,全职,5-10年
568,4113759,技术总监（音视频/算法方向）（龙珠直播）,上海,2018-04-23 17:22:42,52.0,17291,PPTV聚力,上海聚力传媒技术有限公司,500-2000人,浦东新区,本科,D轮及以上,文化娱乐,121.531728,31.216657,全职,5-10年
569,4382211,技术总监CTO,杭州,2018-04-08 15:07:40,46.0,296144,融畅软件,苏州融畅软件科技有限公司,50-150人,江干区,本科,未融资,移动互联网,120.205001,30.257012,全职,5-10年
570,4410638,技术总监CTO（股权合伙人）,西安,2018-04-21 09:41:49,21.0,172588,买单返,西咸新区云数金服信息科技有限公司,50-150人,碑林区,不限,天使轮,"O2O,金融",108.946505,34.233691,全职,5-10年
571,4374724,asp.net 技术总监,长沙,2018-04-14 17:14:44,17.0,224456,湖南南澳,湖南南澳网络科技有限公司,50-150人,岳麓区,大专,不需要融资,移动互联网,112.891976,28.213617,全职,5-10年
572,3772431,JAVA技术总监,北京,2018-04-28 16:57:20,42.0,149208,田米科技,北京田米科技有限公司,2000人以上,海淀区,本科,D轮及以上,移动互联网,116.332861,40.040791,全职,不限
573,4315338,技术总监(CTO),广州,2018-04-27 11:44:02,45.0,250149,哆啦科技,广州哆啦信息科技有限公司,50-150人,海珠区,本科,A轮,"电子商务,移动互联网",113.314738,23.096588,全职,不限
574,4447891,PHP技术总监,北京,2018-04-19 11:08:10,47.0,110393,诸葛找房,北京诸葛找房信息技术有限公司,150-500人,朝阳区,本科,B轮,"移动互联网,生活服务",116.472375,39.874549,全职,5-10年
575,4078146,JAVA技术总监,北京,2018-04-16 11:00:28,34.0,84656,皇包车,北京纯粹旅行有限公司,150-500人,朝阳区,本科,C轮,"移动互联网,旅游",116.474936,39.901442,全职,5-10年
576,3454543,java技术总监,广州,2018-04-28 16:17:02,12.0,241627,发工资网,发工资网（北京）科技股份公司,15-50人,天河区,本科,未融资,"移动互联网,电子商务",113.342082,23.14184,全职,5-10年
577,4480701,C++技术总监,北京,2018-04-25 15:11:43,35.0,357866,咸安区易通陪练,咸安区易通陪练,50-150人,海淀区,本科,未融资,其他,116.296196,40.051616,全职,5-10年
578,4432488,技术总监（大数据产品研发方向）,北京,2018-04-17 11:15:51,28.0,66075,北京奥维云网,北京奥维云网大数据科技股份有限公司,150-500人,朝阳区,本科,上市公司,"移动互联网,电子商务",116.470357,39.90365,全职,5-10年
579,4081433,前端技术总监（端游，懂引擎）,上海,2018-04-28 10:19:13,52.0,121964,上海墨鹍,上海墨鹍数码科技有限公司,150-500人,浦东新区,本科,不需要融资,游戏,121.59978,31.205039,全职,5-10年
580,4394309,JAVA技术总监（负责人）,深圳,2018-04-28 18:06:10,34.0,252932,深圳金夸克数字科技有限公司,深圳金夸克数字科技有限公司,50-150人,罗湖区,本科,未融资,"移动互联网,金融",114.120147,22.581327,全职,3-5年
581,4005834,技术总监（JAVA平台）,北京,2018-04-24 09:11:43,34.0,22391,翼龙贷网,北京同城翼龙网络科技有限公司,500-2000人,海淀区,本科,A轮,金融,116.32164,39.95403007,全职,5-10年
582,2416377,CTO技术总监技术合伙人,杭州,2018-04-16 09:15:29,35.0,128546,杭州九旺,杭州九旺网络技术有限公司,150-500人,拱墅区,大专,不需要融资,"移动互联网,电子商务",120.106154,30.332647,全职,3-5年
583,4462084,风控技术总监,上海,2018-04-23 08:48:45,29.0,22090,杉德支付,杉德巍康企业服务有限公司,50-150人,徐汇区,本科,D轮及以上,金融,121.3947,31.16437,全职,5-10年
584,4000868,技术总监CTO,北京,2018-04-17 11:20:33,28.0,19601,雅乐美森,北京雅乐美森科技有限公司,15-50人,海淀区,硕士,天使轮,"移动互联网,硬件",0.0,0.0,全职,5-10年
585,4369141,后端C++服务器技术总监,上海,2018-04-28 10:19:13,52.0,121964,上海墨鹍,上海墨鹍数码科技有限公司,150-500人,浦东新区,本科,不需要融资,游戏,121.59978,31.205039,全职,5-10年
586,4396651,技术总监（php方向）,北京,2018-04-25 11:26:35,31.0,16949,中企动力,中企动力科技股份有限公司,2000人以上,大兴区,大专,上市公司,"电子商务,移动互联网",116.499713,39.782331,全职,5-10年
587,4361020,java技术总监,北京,2018-04-17 11:13:10,29.0,357450,蚂蚁方程,蚂蚁方程（北京）网络科技有限公司,15-50人,海淀区,大专,天使轮,移动互联网、金融,,,全职,5-10年
588,3200918,技术总监PHP（互联网平台+期权分红）,郑州,2018-04-27 18:07:09,24.0,116333,象聚集团,河南象聚实业有限公司,500-2000人,高新区,大专,不需要融资,"移动互联网,金融",113.566459,34.817847,全职,5-10年
589,4141604,C++技术总监,深圳,2018-04-09 09:21:07,35.0,298068,众游科技,深圳市众游科技有限公司,50-150人,南山区,本科,不需要融资,游戏,0.0,0.0,全职,5-10年
590,3779053,JAVA技术总监,北京,2018-04-26 10:55:38,27.0,272158,阳光益彩,阳光益彩（北京）科技有限责任公司,少于15人,朝阳区,本科,不需要融资,"移动互联网,数据服务",116.40872,39.992015,全职,3-5年
591,4377903,技术总监CTO,大连,2018-04-07 12:58:47,12.0,348767,大连一帆远航,大连一帆远航科技有限公司,少于15人,高新园区,硕士,未融资,"移动互联网,电子商务",121.50965,38.87808,全职,3-5年
592,4304167,JAVA技术总监,深圳,2018-04-27 13:34:38,14.0,344544,佳保安全,深圳市佳保安全股份有限公司,50-150人,南山区,本科,上市公司,"企业服务,硬件",113.91569,22.481399,全职,5-10年
593,4387745,技术总监（CTO）,杭州,2018-04-16 14:02:36,58.0,313059,恒鼎晟保理,厦门市恒鼎晟商业保理有限公司,150-500人,余杭区,本科,未融资,金融,120.009508,30.27745,全职,5-10年
594,4463333,Java软件开发技术总监,成都,2018-04-28 15:00:07,8.4,339782,华睿智联科技公司,华睿智联网络科技（成都）有限公司,少于15人,高新区,大专,天使轮,"移动互联网,电子商务",104.062316,30.54747,全职,3-5年
595,4416567,JAVA技术总监,北京,2018-04-27 10:30:35,38.0,357866,咸安区易通陪练,咸安区易通陪练,50-150人,海淀区,本科,未融资,其他,116.296196,40.051616,全职,5-10年
596,3678511,Java技术总监,天津,2018-04-16 11:02:30,10.8,270450,天为数据,天为数据科技（天津）有限公司,15-50人,南开区,本科,未融资,"数据服务,移动互联网",117.122473,39.091813,全职,3-5年
597,4474277,技术总监（PHP WEB方向）,广州,2018-04-28 14:35:48,20.8,220145,尚山优品,广州尚山信息技术有限公司,15-50人,天河区,大专,未融资,"移动互联网,电子商务",113.37448,23.132579,全职,3-5年
598,3995881,java技术总监,广州,2018-04-28 09:07:13,19.0,283630,广州唯美会,广州唯美会科技有限公司,150-500人,花都区,本科,未融资,"O2O,移动互联网",113.245301,23.390911,全职,5-10年
599,4370108,Android 开发技术总监,深圳,2018-04-03 21:49:01,28.0,355470,中加文化传播,河北中加致谊文化传播有限公司,少于15人,南山区,本科,未融资,教育、移动互联网,113.937987,22.523392,全职,3-5年
600,4430184,技术总监（移动或前端）,深圳,2018-04-16 19:52:34,34.0,316523,辰晟,广州市辰晟电子科技有限公司,50-150人,南山区,本科,未融资,"电子商务,企业服务",113.932925,22.541408,全职,10年以上
601,4442643,JAVA开发技术总监,北京,2018-04-18 15:10:17,22.0,134883,全景腾飞,全景腾飞管理科技（北京）有限公司,少于15人,朝阳区,不限,天使轮,"移动互联网,企业服务",116.510413,39.910791,全职,3-5年
602,4289157,技术总监（高级JAVA开发）,杭州,2018-04-03 09:00:17,22.0,260424,钱路理财,杭州复拓金融信息服务有限公司,50-150人,西湖区,本科,不需要融资,"移动互联网,金融",120.087957,30.280049,全职,5-10年
603,3994142,Java高级开发工程师(技术总监),嘉兴,2018-04-06 12:34:38,14.0,282580,汉佳科技,嘉兴乌镇汉佳科技有限公司,15-50人,桐乡市,不限,未融资,"企业服务,移动互联网",120.496251,30.737038,全职,5-10年
604,4460294,JAVA开发 技术总监,南京,2018-04-21 13:45:11,29.0,369703,基食,南京基食信息技术有限公司,15-50人,雨花台区,硕士,天使轮,"移动互联网,数据服务",118.802762,31.968265,全职,3-5年
605,2629694,UE4 VR技术总监,厦门,2018-04-24 10:34:42,12.0,85875,兰特科技,厦门兰特科技有限公司,15-50人,海沧区,大专,未融资,"电子商务,硬件",118.021198,24.467092,全职,3-5年
606,4117451,技术总监（Java/C#）,杭州,2018-04-26 15:11:22,26.0,83241,浙江华为,浙江华为通信技术有限公司,500-2000人,滨江区,本科,不需要融资,"移动互联网,教育",120.207978,30.182811,全职,5-10年
607,4449102,区块链技术总监（供应链金融）,北京,2018-04-28 11:55:06,49.0,219239,369互娱,三六九全球（北京）网络有限公司,50-150人,朝阳区,本科,不需要融资,游戏,116.443108,39.92147,全职,5-10年
608,4388687,PHP技术总监,成都,2018-04-09 14:29:17,11.2,288560,正正汇互联科技,绵阳正正汇商贸有限公司,15-50人,武侯区,不限,不需要融资,移动互联网,104.083091,30.612157,全职,5-10年
609,4363508,技术总监（ruby）,上海,2018-04-12 16:25:51,38.0,146490,点点橙Pipup,奈良（上海）商务咨询有限公司,15-50人,黄浦区,本科,天使轮,教育,121.470474,31.218858,全职,5-10年
610,4472261,技术总监Java,深圳,2018-04-24 13:53:49,26.0,132284,万盈金融,深圳万盈互联网金融服务有限公司,50-150人,南山区,本科,不需要融资,"移动互联网,金融",113.935095,22.517429,全职,5-10年
611,4393699,CTO/技术总监（.NET）,上海,2018-04-27 16:29:04,34.0,115039,智想新创科技,武汉智想新创科技有限公司,500-2000人,徐汇区,大专,不需要融资,"移动互联网,电子商务",0.0,0.0,全职,10年以上
612,4368521,Java技术总监,深圳,2018-04-25 09:53:41,31.0,358416,斯卡顿科技,深圳斯卡顿科技有限公司,15-50人,南山区,硕士,天使轮,"移动互联网,企业服务",113.927273,22.532571,全职,5-10年
613,4058864,java技术总监,北京,2018-04-26 20:44:53,27.0,6636,携程,携程计算机技术（上海）有限公司,2000人以上,朝阳区,本科,上市公司,"移动互联网,旅游",116.50736,39.985003,全职,5-10年
614,4279650,php工程师技术总监,深圳,2018-04-27 14:44:18,19.0,155366,上方网络,深圳上方网络科技有限公司,15-50人,龙岗区,大专,未融资,"移动互联网,广告营销",114.157346,22.604925,全职,5-10年
615,4056111,PHP技术总监（平台+期权分红+合伙人储备）,郑州,2018-04-16 16:12:54,11.2,238124,锐信,郑州锐信科技有限公司,15-50人,郑东新区,本科,未融资,电子商务,113.773065,34.769075,全职,5-10年
616,4095501,PHP技术总监,深圳,2018-04-03 17:38:27,24.8,256844,阿拉递,深圳市小普信息科技有限公司,15-50人,南山区,大专,A轮,"移动互联网,生活服务",113.937987,22.523392,全职,5-10年
617,4278569,PHP技术总监,惠州,2018-04-10 15:20:40,12.0,308289,深圳市传邦美伦商务有限公司,深圳市传邦美伦商务有限公司,15-50人,惠阳区,不限,不需要融资,"移动互联网,电子商务",114.45187,22.78584,全职,5-10年
618,3434096,全栈技术总监（java&amp;php）,上海,2018-04-26 20:37:34,29.0,208840,高领秀,上海高领秀体育发展有限公司,15-50人,闵行区,本科,天使轮,移动互联网,121.336535,31.151086,全职,5-10年
619,4071852,JAVA技术总监（大数据方向）,西安,2018-04-25 17:57:29,15.2,310457,华表网络,陕西华表网络技术有限公司,15-50人,高新技术产业开发区,本科,未融资,"移动互联网,其他",108.871516,34.191045,全职,5-10年
620,3118084,android广告平台SDK 技术总监,深圳,2018-04-05 20:49:32,21.0,174113,微回收,深圳市兵马科技有限公司,15-50人,南山区,不限,未融资,"O2O,电子商务",113.952514,22.535885,全职,不限
621,4379678,PHP开发技术总监/PHP高级工程师,广州,2018-04-19 15:02:57,24.0,155194,五一易货网,陕西五一易货网络科技有限责任公司,50-150人,海珠区,大专,未融资,"电子商务,企业服务",113.273956,23.095488,全职,3-5年
622,1470505,"技术总监(iOS,java)",北京,2018-04-25 02:01:17,21.0,62845,爱语吧,北京爱语吧科技有限公司,50-150人,海淀区,本科,A轮,"移动互联网,教育",116.329817,39.99302312,全职,3-5年
623,4297884,CTO（偏PHP）/技术总监,北京,2018-04-10 15:57:01,42.0,85493,乐土乐品,北京乐土乐品网络科技有限公司,50-150人,海淀区,本科,B轮,O2O,116.308114,39.978669,全职,5-10年
624,4078798,技术总监（个贷）,南京,2018-04-19 21:14:49,34.0,53992,苏宁易购,南京苏宁软件技术有限公司,2000人以上,玄武区,本科,上市公司,"O2O,移动互联网",118.89213,32.084808,全职,5-10年
625,4078741,技术总监（信贷）,南京,2018-04-19 21:14:40,34.0,53992,苏宁易购,南京苏宁软件技术有限公司,2000人以上,玄武区,本科,上市公司,"O2O,移动互联网",118.89213,32.084808,全职,5-10年
626,4078822,技术总监（金融风控）,南京,2018-04-19 21:15:02,34.0,53992,苏宁易购,南京苏宁软件技术有限公司,2000人以上,玄武区,本科,上市公司,"O2O,移动互联网",118.89213,32.084808,全职,5-10年
