,职位编码,职位名称,所在城市,发布日期,薪资待遇(k),公司编码,公司名称,公司全称,公司规模,所在区域,最低学历,融资状态,公司类型,经度,纬度,全职/实习,工作经验
0,3983135,系统工程师,北京,2018-04-24 16:24:52,14.0,31317,中国金融认证中心,中金金融认证中心有限公司,500-2000人,海淀区,本科,不需要融资,"金融,数据服务",116.287294,40.04867,全职,1-3年
1,4473689,系统工程师,厦门,2018-04-28 15:03:47,14.0,19313,网宿科技,网宿科技股份有限公司北京分公司,2000人以上,思明区,本科,上市公司,移动互联网,117.993493,23.994066,全职,1年以下
2,3656605,系统工程师,杭州,2018-04-27 10:21:53,7.0,83552,沃趣科技,杭州沃趣科技股份有限公司,50-150人,滨江区,本科,上市公司,"企业服务,数据服务",120.17566,30.18501,全职,1-3年
3,4298547,系统工程师,昆明,2018-04-27 15:59:54,9.0,88751,广州中软,广州中软信息技术有限公司,500-2000人,官渡区,本科,不需要融资,"数据服务,硬件",102.72489998,25.03313992,全职,不限
4,3958837,系统工程师,深圳,2018-04-28 18:45:06,10.8,35539,即有分期,深圳前海达飞金融服务有限公司,2000人以上,福田区,大专,C轮,金融,114.063588,22.547376,全职,1-3年
5,4309130,系统工程师,杭州,2018-04-28 09:36:09,21.0,166666,观远数据,杭州观数信息科技有限公司,15-50人,余杭区,本科,A轮,"企业服务,数据服务",120.017969,30.280435,全职,3-5年
6,4498581,系统工程师,杭州,2018-04-28 12:01:35,21.0,719,顺网科技,杭州顺网科技股份有限公司,500-2000人,西湖区,本科,上市公司,"游戏,文化娱乐",120.057035,30.286205,全职,3-5年
7,4297442,系统工程师,上海,2018-04-27 09:50:50,13.6,295333,鲜驰达,上海成龙五谷信息科技有限公司,2000人以上,浦东新区,本科,不需要融资,移动互联网,121.58676,31.211554,全职,3-5年
8,4062816,系统工程师,贵阳,2018-04-28 10:35:26,6.2,128024,创至科技,上海创至计算机科技股份有限公司,150-500人,观山湖区（金阳新区）,大专,未融资,"信息安全,数据服务",106.622863,26.601363,全职,1-3年
9,4493708,系统工程师（上海）,上海,2018-04-28 14:38:56,12.0,42318,安畅网络,上海安畅网络科技股份有限公司,150-500人,宝山区,本科,上市公司,"电子商务,数据服务",121.43412,31.339748,全职,1-3年
10,2998299,系统工程师,杭州,2018-04-27 18:47:59,7.6,26467,思华科技,上海思华科技股份有限公司,150-500人,拱墅区,本科,D轮及以上,移动互联网,120.10848018,30.29329957,全职,不限
11,3522268,系统工程师,上海,2018-04-24 09:52:51,14.0,172297,国泰产险,国泰财产保险有限责任公司,500-2000人,浦东新区,本科,不需要融资,金融,121.522641,31.229847,全职,3-5年
12,4367854,系统工程师,广州,2018-04-27 09:53:32,7.2,166140,鼎捷软件,鼎捷软件股份有限公司,2000人以上,天河区,本科,上市公司,其他,113.347222,23.143984,实习,应届毕业生
13,4019718,系统工程师,上海,2018-04-27 11:31:18,17.0,110347,尚芸飞流,上海尚芸飞流信息技术有限公司,15-50人,浦东新区,大专,不需要融资,"移动互联网,金融",121.550521,31.226037,全职,3-5年
14,4077711,系统工程师,北京,2018-04-28 14:47:12,28.0,67118,达闼科技,达闼科技（北京）有限公司,150-500人,朝阳区,本科,B轮,移动互联网,116.479397,39.995298,全职,3-5年
15,2558798,系统工程师,深圳,2018-04-28 15:03:47,8.4,19313,网宿科技,网宿科技股份有限公司北京分公司,2000人以上,光明新区,大专,上市公司,移动互联网,113.895025,22.805262,全职,1-3年
16,2910411,系统工程师,贵阳,2018-04-27 15:59:55,7.0,88751,广州中软,广州中软信息技术有限公司,500-2000人,南明区,不限,不需要融资,"数据服务,硬件",0.0,0.0,全职,1-3年
17,3955355,系统工程师,上海,2018-04-27 18:47:58,10.8,26467,思华科技,上海思华科技股份有限公司,150-500人,浦东新区,本科,D轮及以上,移动互联网,121.60480567,31.20278946,全职,1-3年
18,4438006,系统工程师,广州,2018-04-27 10:21:54,7.6,83552,沃趣科技,杭州沃趣科技股份有限公司,50-150人,天河区,大专,上市公司,"企业服务,数据服务",113.336738,23.134687,全职,1-3年
19,4471514,系统工程师,惠州,2018-04-24 11:51:37,11.2,221266,德赛西威,惠州市德赛西威汽车电子股份有限公司,2000人以上,惠城区,本科,上市公司,"硬件,其他",114.346003,23.044989,全职,1-3年
20,3990083,系统工程师,西安,2018-04-28 09:11:37,12.0,30648,绿盟科技,北京神州绿盟信息安全科技股份有限公司,500-2000人,雁塔区,本科,上市公司,信息安全,108.86853,34.195473,全职,3-5年
21,4153118,系统工程师,深圳,2018-04-28 18:45:06,9.8,35539,即有分期,深圳前海达飞金融服务有限公司,2000人以上,福田区,大专,C轮,金融,114.063588,22.547376,全职,1-3年
22,4469709,系统工程师,深圳,2018-04-27 11:21:08,17.0,5794,一加手机,深圳市万普拉斯科技有限公司,500-2000人,福田区,大专,未融资,电子商务,113.993578,22.99368,全职,3-5年
23,2384988,系统工程师,杭州,2018-04-28 09:27:31,9.4,95529,云天励飞,深圳云天励飞技术有限公司,150-500人,下沙,本科,A轮,移动互联网,120.38771192,30.29808134,全职,3-5年
24,3965535,系统工程师,上海,2018-04-26 10:14:45,24.0,122296,驰骛科技ChiefClouds,上海驰骛信息科技有限公司,50-150人,徐汇区,本科,A轮,"数据服务,移动互联网",121.40159,31.17231,全职,3-5年
25,4275532,系统工程师,深圳,2018-04-18 08:46:02,25.2,16831,武汉佰钧成技术有限公司,武汉佰钧成技术有限责任公司,2000人以上,龙岗区,本科,不需要融资,移动互联网,,,全职,5-10年
26,4424500,系统工程师,广州,2018-04-23 11:44:58,9.0,522,广电运通,广电运通金融电子股份有限公司,2000人以上,萝岗区,大专,上市公司,"移动互联网,金融",113.446589,23.142801,全职,1-3年
27,4453582,系统工程师,珠海,2018-04-20 08:22:14,6.8,275047,嘉宝华健康药房,珠海市嘉宝华健康药房连锁股份有限公司,500-2000人,香洲区,本科,不需要融资,O2O,113.517752,22.260936,全职,1-3年
28,2512321,系统工程师,广州,2018-04-16 14:34:34,1.4,82664,北大医信-健迅,广州健迅科技有限公司,50-150人,越秀区,大专,不需要融资,医疗健康,113.29051796,23.12467422,实习,应届毕业生
29,4161152,系统工程师,深圳,2018-04-28 16:59:08,11.2,76881,银盛金融,深圳银盛金融集团有限公司,500-2000人,龙华新区,本科,不需要融资,"移动互联网,金融",114.00893,22.63615,全职,3-5年
30,2360976,系统工程师,上海,2018-04-27 18:47:58,7.6,26467,思华科技,上海思华科技股份有限公司,150-500人,浦东新区,本科,D轮及以上,移动互联网,121.60480567,31.20278946,全职,不限
31,4070964,系统工程师,北京,2018-04-27 11:11:30,8.8,30648,绿盟科技,北京神州绿盟信息安全科技股份有限公司,500-2000人,海淀区,本科,上市公司,信息安全,116.30486001,39.94590007,全职,不限
32,4060875,系统工程师,贵阳,2018-04-27 15:59:54,5.8,88751,广州中软,广州中软信息技术有限公司,500-2000人,南明区,本科,不需要融资,"数据服务,硬件",0.0,0.0,全职,1-3年
33,4368353,系统工程师,深圳,2018-04-18 08:45:57,22.0,16831,武汉佰钧成技术有限公司,武汉佰钧成技术有限责任公司,2000人以上,龙岗区,本科,不需要融资,移动互联网,0.0,0.0,全职,5-10年
34,3646836,系统工程师,深圳,2018-04-28 09:27:31,10.8,95529,云天励飞,深圳云天励飞技术有限公司,150-500人,福田区,本科,A轮,移动互联网,114.095061,22.541238,全职,1-3年
35,4258201,系统工程师,北京,2018-04-26 17:46:06,12.0,15871,世纪互联,世纪互联集团有限公司,2000人以上,朝阳区,大专,上市公司,"移动互联网,数据服务",116.499957,39.977505,全职,5-10年
36,329838,系统工程师,北京,2018-04-27 20:45:02,21.0,534,京东金融,京东金融,2000人以上,通州区,本科,上市公司,金融,116.52117756,39.82198934,全职,3-5年
37,4368361,系统工程师,深圳,2018-04-13 09:37:20,14.0,166298,美的中央空调,广东美的暖通设备有限公司,2000人以上,南山区,本科,上市公司,其他,113.940294,22.541236,全职,3-5年
38,3983974,系统工程师,北京,2018-04-27 20:21:47,14.0,1650,联想集团,联想（北京）有限公司,2000人以上,海淀区,本科,上市公司,"移动互联网,数据服务",116.29846,40.0534,全职,1-3年
39,4297557,系统工程师,北京,2018-04-17 09:04:31,17.0,101611,信达泰和,北京信达泰和数据技术有限公司,500-2000人,东城区,大专,A轮,"企业服务,数据服务",116.408554,39.968067,全职,5-10年
40,4099196,系统工程师,深圳,2018-04-28 11:12:57,14.0,242855,哈哈便利,武汉市哈哈便利科技有限公司,50-150人,龙岗区,本科,A轮,"硬件,移动互联网",114.152943,22.624213,全职,不限
41,4450100,系统工程师(J12661),上海,2018-04-19 14:57:42,10.8,27413,宝胜国际,常胜投资有限公司,2000人以上,虹口区,本科,上市公司,"电子商务,O2O",121.488295,31.251271,全职,不限
42,4362095,系统工程师,广州,2018-04-10 14:57:48,15.2,27072,浩瀚深度,北京浩瀚深度信息技术股份有限公司,150-500人,天河区,本科,上市公司,"硬件,数据服务",113.342442,23.136586,全职,3-5年
43,4391051,系统工程师,上海,2018-04-09 17:23:01,10.8,44342,春秋航空股份有限公司,春秋航空股份有限公司,2000人以上,长宁区,本科,上市公司,"电子商务,旅游",39.897445,116.331398,全职,1-3年
44,1502348,系统工程师,成都,2018-04-26 14:04:16,10.8,38932,钛马车联网,钛马信息网络技术有限公司,150-500人,高新区,本科,B轮,"移动互联网,数据服务",104.062535,30.546645,全职,3-5年
45,3294757,系统工程师,重庆,2018-04-27 18:48:00,6.2,26467,思华科技,上海思华科技股份有限公司,150-500人,渝中区,本科,D轮及以上,移动互联网,106.548058,29.558076,全职,不限
46,4368332,系统工程师,广州,2018-04-13 09:37:20,14.0,166298,美的中央空调,广东美的暖通设备有限公司,2000人以上,海珠区,本科,上市公司,其他,113.339142,23.10774,全职,3-5年
47,4411708,系统工程师,北京,2018-04-17 09:04:31,17.0,101611,信达泰和,北京信达泰和数据技术有限公司,500-2000人,东城区,本科,A轮,"企业服务,数据服务",116.408554,39.968067,全职,5-10年
48,4464541,系统工程师(010878),北京,2018-04-23 13:37:25,12.0,12965,神州数码,神州数码（中国）有限公司,2000人以上,海淀区,本科,上市公司,"硬件 ,数据服务",39.897445,116.331398,全职,1-3年
49,3886136,系统工程师,广州,2018-04-04 04:38:08,35.0,293935,景驰,上海景驰汽车科技有限公司,50-150人,黄埔区,硕士,天使轮,移动互联网,113.459749,23.106402,全职,5-10年
50,4119649,助理系统工程师,杭州,2018-04-28 17:25:46,11.4,13759,微策略软件,微策略软件（杭州）有限公司,500-2000人,西湖区,本科,上市公司,数据服务,120.11965304,30.28146505,全职,1-3年
51,4087786,系统工程师,上海,2018-04-27 11:43:46,19.0,15257,美味不用等,美味不用等（上海）信息科技股份有限公司,500-2000人,浦东新区,本科,C轮,"移动互联网,O2O",121.5935,31.207614,全职,3-5年
52,2527179,系统工程师,深圳,2018-04-28 11:59:48,10.8,75134,华昊东方科技,深圳市华昊东方科技有限公司,15-50人,南山区,大专,不需要融资,"数据服务,硬件",113.9156,22.52733999,全职,3-5年
53,3631737,系统工程师,太原,2018-04-27 09:37:37,5.2,177664,云趣科技,广州云趣信息科技有限公司,50-150人,小店区,大专,不需要融资,"移动互联网,数据服务",112.549004,37.781552,全职,不限
54,4117110,系统工程师,上海,2018-04-11 10:44:20,14.0,38432,TutorABC英语,威比网络科技（上海）有限公司,2000人以上,虹口区,本科,C轮,"移动互联网,教育",0.0,0.0,全职,3-5年
55,3454747,系统工程师,上海,2018-04-27 11:46:33,11.2,26597,上海明运,上海明运信息科技有限公司,50-150人,浦东新区,本科,不需要融资,金融,121.58293,31.19332,全职,不限
56,4456514,系统工程师,北京,2018-04-24 16:34:24,14.0,280,畅游,北京畅游天下网络技术有限公司,2000人以上,石景山区,本科,上市公司,"移动互联网,游戏",116.212239,39.907388,全职,1-3年
57,4295155,系统工程师（春之翼）,重庆,2018-04-09 08:48:49,7.6,44342,春秋航空股份有限公司,春秋航空股份有限公司,2000人以上,渝北区,本科,上市公司,"电子商务,旅游",,,全职,3-5年
58,4468906,系统工程师,北京,2018-04-28 18:51:30,17.0,1187,帅车有限公司,帅车（北京）旧机动车经纪有限公司,500-2000人,朝阳区,不限,不需要融资,生活服务,116.529011,39.936701,全职,不限
59,3924005,系统工程师,广州,2018-04-28 14:02:46,9.0,284199,云联国骥,广东云联国骥投资管理有限公司,500-2000人,海珠区,本科,不需要融资,电子商务,113.385147,23.102207,全职,3-5年
60,4057841,系统工程师,上海,2018-04-27 11:43:44,14.0,15257,美味不用等,美味不用等（上海）信息科技股份有限公司,500-2000人,浦东新区,本科,C轮,"移动互联网,O2O",121.5935,31.207614,全职,1-3年
61,4498197,系统工程师,深圳,2018-04-28 11:27:02,24.0,26088,深圳市丰巢科技有限公司,深圳市丰巢科技有限公司,500-2000人,南山区,本科,A轮,"移动互联网,O2O",113.919418,22.509455,全职,5-10年
62,4357099,系统工程师,北京,2018-04-23 18:02:10,24.0,18497,九章云极科技,北京九章云极科技有限公司,150-500人,海淀区,本科,B轮,数据服务,116.31161,40.029535,全职,3-5年
63,3958970,系统工程师,深圳,2018-04-27 14:38:43,16.0,227793,普晟咨询,普晟咨询服务（深圳）有限公司,少于15人,福田区,本科,天使轮,"金融,数据服务",114.11358,22.539147,全职,1-3年
64,4136473,高级系统工程师,北京,2018-04-28 15:34:35,13.6,287849,弘道,北京弘道智慧中医技术有限公司,50-150人,海淀区,本科,不需要融资,"医疗健康,数据服务",116.3075,39.983783,全职,3-5年
65,2728944,系统工程师,深圳,2018-03-30 10:22:46,28.0,19875,vivo,维沃移动通信有限公司,2000人以上,福田区,本科,未融资,移动互联网,113.993578,22.99368,全职,3-5年
66,4053444,高级系统工程师,上海,2018-04-26 09:39:28,24.0,28498,快仓智能仓储,上海快仓智能科技有限公司,150-500人,徐汇区,本科,B轮,"硬件,数据服务",121.4005,31.177834,全职,5-10年
67,4373226,系统工程师（上海）,上海,2018-04-28 11:34:40,9.0,89808,华讯网络,上海华讯网络系统有限公司,500-2000人,长宁区,本科,不需要融资,"企业服务,其他",121.399151,31.198054,全职,1-3年
68,4077822,中级系统工程师,广州,2018-04-26 11:26:33,8.8,28225,方欣科技,方欣科技有限公司,500-2000人,黄埔区,本科,上市公司,移动互联网,113.432284,23.162064,全职,1-3年
69,4444163,高级系统工程师,上海,2018-04-27 10:57:49,19.0,266854,绿地商业集团,上海绿地优鲜投资控股有限公司,500-2000人,黄浦区,本科,上市公司,"电子商务,移动互联网",121.47253,31.192827,全职,3-5年
70,2802975,系统工程师,苏州,2018-04-19 10:23:19,9.8,166140,鼎捷软件,鼎捷软件股份有限公司,2000人以上,工业园区,大专,上市公司,其他,120.773837,31.293241,全职,3-5年
71,3645152,系统工程师,北京,2018-04-24 17:04:31,15.0,15457,中青旅遨游网,中青旅控股股份有限公司,500-2000人,东城区,本科,上市公司,旅游,115.99339,39.99426,全职,3-5年
72,3096599,系统工程师,济南,2018-04-23 13:28:04,5.6,193671,山东广电信通,山东广电信通网络运营有限公司,150-500人,历下区,本科,不需要融资,"信息安全,移动互联网",117.022832,36.649212,全职,不限
73,3797010,系统工程师,中山,2018-04-27 11:22:56,6.6,43613,广东乐心,广东乐心医疗电子股份有限公司,2000人以上,中山市市辖区,大专,上市公司,"移动互联网,电子商务",113.526606,22.560257,全职,1-3年
74,4237259,系统工程师（上海）,上海,2018-04-28 10:34:41,12.0,36376,Ways,广州威尔森信息科技有限公司,150-500人,浦东新区,不限,未融资,"移动互联网,企业服务",0.0,0.0,全职,1-3年
75,4182735,系统工程师（上海）,上海,2018-04-26 17:22:16,21.0,24748,平安科技,平安科技（深圳）有限公司,2000人以上,浦东新区,本科,不需要融资,金融,121.66697,31.237772,全职,不限
76,3124377,高级系统工程师,上海,2018-04-26 14:33:50,21.0,18971,传音控股,深圳传音控股有限公司,2000人以上,浦东新区,本科,不需要融资,移动互联网,39.897445,116.331398,全职,5-10年
77,4239394,系统工程师,武汉,2018-04-11 09:38:04,5.6,336588,武汉市瑞思信息技术有限公司,武汉市瑞思信息技术有限公司,15-50人,东湖新技术开发区,本科,未融资,移动互联网、数据服务,114.356472,30.56052,全职,1年以下
78,4464792,系统工程师,苏州,2018-04-27 08:37:16,7.0,354193,苏州先进院,苏州中科先进技术研究院有限公司,50-150人,工业园区,硕士,未融资,医疗健康,120.772939,31.286739,全职,1-3年
79,3741416,高级系统工程师,深圳,2018-04-24 11:27:02,22.8,16177,掌贝（云移科技）,广州云移信息科技有限公司,500-2000人,福田区,大专,B轮,"移动互联网,O2O",114.02831138,22.53280362,全职,3-5年
80,4464542,中级系统工程师(010879),北京,2018-04-23 13:37:28,12.0,12965,神州数码,神州数码（中国）有限公司,2000人以上,海淀区,本科,上市公司,"硬件 ,数据服务",39.897445,116.331398,全职,3-5年
81,2211966,系统工程师,上海,2018-04-26 15:04:16,19.0,51480,饿了么,拉扎斯网络科技（上海）有限公司,2000人以上,普陀区,本科,D轮及以上,移动互联网,121.38149999,31.23318987,全职,5-10年
82,3080002,系统工程师,杭州,2018-04-26 08:59:04,19.0,169771,八维通科技,八维通科技有限公司,150-500人,滨江区,本科,A轮,移动互联网,120.20068,30.201629,全职,5-10年
83,4448896,系统工程师,南京,2018-04-19 12:35:59,8.6,369195,南京禄科电子工程技术服务有限公司,南京禄科电子工程技术服务有限公司,少于15人,建邺区,大专,不需要融资,"企业服务,数据服务",118.733641,31.977721,全职,5-10年
84,4233900,系统工程师（上海）,上海,2018-04-28 10:34:39,10.8,36376,Ways,广州威尔森信息科技有限公司,150-500人,浦东新区,不限,未融资,"移动互联网,企业服务",0.0,0.0,全职,1-3年
85,4183215,系统工程师 -嘉定,上海,2018-04-27 14:12:39,8.4,301666,云道信息,上海云道信息技术股份有限公司,15-50人,浦东新区,大专,未融资,"企业服务,信息安全",121.587772,31.197437,全职,1-3年
86,4246314,系统工程师,广州,2018-04-24 12:52:05,4.2,95452,广州新一代信息科技有限公司,广东金万邦科技投资有限公司,150-500人,越秀区,大专,未融资,"移动互联网,电子商务",0.0,0.0,全职,不限
87,4207765,系统工程师,深圳,2018-04-11 14:42:47,9.8,301344,招商金融科技,招商局金融科技有限公司,150-500人,南山区,本科,不需要融资,金融,113.91958,22.495554,全职,1-3年
88,3669304,大数据系统工程师,杭州,2018-04-28 10:12:52,24.0,2380,浙江执御信息技术有限公司,浙江执御信息技术有限公司,2000人以上,拱墅区,本科,B轮,"移动互联网,数据服务",120.11375,30.33331,全职,3-5年
89,4298882,资深系统工程师,北京,2018-04-28 09:43:52,24.0,39468,中体骏彩,北京中体骏彩信息技术有限公司,150-500人,朝阳区,本科,不需要融资,移动互联网,0.0,0.0,全职,5-10年
90,2698662,系统工程师,深圳,2018-04-26 14:33:50,19.0,18971,传音控股,深圳传音控股有限公司,2000人以上,南山区,本科,不需要融资,移动互联网,113.954518,22.539456,全职,不限
91,2395046,系统工程师,长沙,2018-04-26 17:20:44,7.0,124815,梯度科技,长沙梯度信息科技有限公司,15-50人,岳麓区,不限,天使轮,"企业服务,数据服务",112.915399,28.203587,全职,不限
92,1538058,系统工程师,上海,2018-04-26 10:08:09,9.4,14693,亿通国际,上海亿通国际股份有限公司,150-500人,浦东新区,本科,不需要融资,"电子商务,数据服务",121.60624974,31.20087005,全职,1-3年
93,1603859,系统工程师,上海,2018-04-24 10:15:24,17.0,146,DerbySoft,德比软件（上海）有限公司,150-500人,浦东新区,本科,C轮,旅游,121.531728,31.216657,全职,3-5年
94,4439800,系统工程师,武汉,2018-04-18 10:45:56,4.8,12731,北京亿信华辰,北京亿信华辰软件有限责任公司,150-500人,东湖新技术开发区,本科,未融资,数据服务,114.426583,30.453894,全职,1-3年
95,1712245,系统工程师,深圳,2018-04-28 09:43:28,14.0,11885,世联行,深圳世联行地产顾问股份有限公司,2000人以上,罗湖区,本科,上市公司,企业服务,114.1271688,22.54500619,全职,5-10年
96,4236140,系统工程师,北京,2018-04-23 18:50:06,6.6,338342,地球山科技,地球山（北京）科技有限公司,50-150人,朝阳区,本科,不需要融资,"文化娱乐,硬件",116.469263,40.013658,全职,1-3年
97,4499458,硬件系统工程师,北京,2018-04-28 14:52:12,21.0,52261,mobike摩拜单车,北京摩拜科技有限公司,150-500人,朝阳区,本科,D轮及以上,移动互联网,39.897445,116.331398,全职,5-10年
98,4458432,系统工程师,北京,2018-04-24 14:24:07,8.8,324928,科华恒盛-云集团,厦门科华恒盛股份有限公司,150-500人,朝阳区,本科,不需要融资,"信息安全,数据服务",116.487455,39.886974,全职,3-5年
99,1857456,系统工程师,无锡,2018-04-12 09:03:25,19.0,130651,XDC,江苏恒云太信息科技有限公司,50-150人,新吴区,本科,不需要融资,数据服务,120.39098003,31.52481414,全职,5-10年
100,3386389,系统工程师,上海,2018-04-24 09:31:46,5.8,76978,云砥信息,上海云砥信息科技有限公司,50-150人,杨浦区,大专,A轮,"移动互联网,数据服务",121.509735,31.308122,全职,1-3年
101,3466288,系统开发员/系统工程师,深圳,2018-04-26 09:36:22,8.4,38600,亚洲保理,亚洲保理（深圳）有限公司,50-150人,南山区,大专,A轮,金融,113.993578,22.99368,全职,1-3年
102,4291613,制冷系统工程师,广州,2018-04-18 11:13:15,12.0,299705,芬尼,广东芬尼科技股份有限公司,500-2000人,南沙区,本科,不需要融资,"硬件,其他",113.391044,22.797858,全职,3-5年
103,4471749,系统工程师,深圳,2018-04-24 12:12:07,17.8,244010,华锐金融技术,深圳华锐金融技术股份有限公司,50-150人,福田区,本科,不需要融资,"移动互联网,金融",114.031237,22.531132,全职,1-3年
104,4192754,系统工程师（上海）,上海,2018-04-28 11:34:12,9.8,313869,华讯网存,上海华讯网络存储系统有限责任公司,150-500人,浦东新区,本科,未融资,"社交网络,企业服务",121.53324,31.214508,全职,1-3年
105,4277559,高级系统工程师,杭州,2018-04-26 17:33:06,17.8,10359,酷家乐,杭州群核信息技术有限公司,500-2000人,拱墅区,不限,D轮及以上,移动互联网,120.108647,30.293154,全职,1-3年
106,4487507,系统工程师,北京,2018-04-26 14:50:41,4.8,69116,ETED,北京锋威通成技术发展有限公司,50-150人,朝阳区,大专,未融资,企业服务,116.458491,39.87295,全职,1年以下
107,3620405,系统工程师,深圳,2018-04-26 11:31:44,7.8,50906,云兴科技,深圳市云兴科技有限公司,15-50人,南山区,大专,未融资,企业服务,0.0,0.0,全职,不限
108,4343183,系统工程师,上海,2018-04-02 09:36:02,10.8,204723,上海联蔚信息科技有限公司,上海联蔚信息科技有限公司,2000人以上,徐汇区,本科,不需要融资,"移动互联网,电子商务",121.44904,31.137471,全职,1-3年
109,4498140,系统工程师,北京,2018-04-28 11:21:48,6.8,76905,方正宽带网络服务有限公司,方正宽带网络服务有限公司,500-2000人,朝阳区,本科,上市公司,"企业服务,数据服务",116.405409,39.964075,全职,不限
110,4164388,资深系统工程师,上海,2018-04-11 10:44:20,19.0,38432,TutorABC英语,威比网络科技（上海）有限公司,2000人以上,虹口区,本科,C轮,"移动互联网,教育",0.0,0.0,全职,5-10年
111,3972525,系统工程师,上海,2018-04-28 09:36:34,21.0,26754,宝尊电商,上海宝尊电子商务有限公司,2000人以上,闸北区,本科,上市公司,电子商务,121.440163,31.294026,全职,1-3年
112,4389305,系统工程师,武汉,2018-04-09 15:08:27,6.6,115066,合力亿捷,武汉合力亿捷科技有限公司,500-2000人,江汉区,大专,上市公司,"移动互联网,企业服务",114.26221,30.60435,全职,3-5年
113,3360519,系统工程师,上海,2018-04-19 10:23:18,6.2,166140,鼎捷软件,鼎捷软件股份有限公司,2000人以上,静安区,本科,上市公司,其他,121.452975,31.298837,全职,应届毕业生
114,4193471,系统工程师,深圳,2018-04-08 14:59:01,8.2,232091,中科世界机器人,深圳市中科世界机器人有限公司,50-150人,宝安区,大专,不需要融资,"移动互联网,数据服务",113.90102,22.563462,全职,3-5年
115,4254214,高级系统工程师,杭州,2018-04-27 14:05:39,28.0,85122,Caicloud,杭州才云科技有限公司,50-150人,滨江区,本科,B轮,"企业服务,数据服务",120.13848,30.18369,全职,不限
116,4485763,系统工程师,深圳,2018-04-26 11:25:05,10.8,371787,华润保险经纪,华润保险经纪有限公司,150-500人,南山区,本科,不需要融资,金融,113.95356,22.541623,全职,1-3年
117,2123671,系统工程师,北京,2018-04-25 17:07:33,10.8,76714,南软,北京南天软件有限公司,500-2000人,丰台区,本科,上市公司,金融,116.373702,39.856446,全职,3-5年
118,2933513,系统工程师,上海,2018-04-27 18:02:08,10.2,65514,上海天正,上海天正软件有限公司,150-500人,徐汇区,大专,不需要融资,金融,121.436525,31.188523,全职,1-3年
119,3713573,大数据系统工程师,杭州,2018-04-27 09:48:37,21.0,2380,浙江执御信息技术有限公司,浙江执御信息技术有限公司,2000人以上,拱墅区,不限,B轮,"移动互联网,数据服务",120.113688,30.332881,全职,3-5年
120,4334534,系统工程师,上海,2018-04-24 09:56:28,10.8,48693,小i机器人,上海智臻智能网络科技股份有限公司,150-500人,嘉定区,大专,上市公司,"企业服务,数据服务",121.327718,31.240134,全职,不限
121,4450754,DBA兼系统工程师,厦门,2018-04-27 11:16:02,9.6,267424,厦门海尼,厦门海尼生物科技有限公司,150-500人,思明区,本科,不需要融资,"电子商务,医疗健康",118.182731,24.485549,全职,1-3年
122,4239424,硬件系统工程师,北京,2018-04-25 08:26:50,12.0,166854,嘉楠捷思,北京嘉楠捷思信息技术有限公司,150-500人,海淀区,本科,A轮,硬件,116.287983,40.046896,全职,3-5年
123,3901802,系统工程师,北京,2018-04-28 11:45:01,29.0,59251,映客,北京蜜莱坞网络科技有限公司,500-2000人,朝阳区,本科,C轮,"移动互联网,文化娱乐",116.486118,40.000637,全职,5-10年
124,2623178,高级系统工程师,北京,2018-04-27 20:45:02,28.0,534,京东金融,京东金融,2000人以上,通州区,本科,上市公司,金融,116.52117756,39.82198934,全职,5-10年
125,2507508,运维工程师/系统工程师,上海,2018-04-24 15:16:18,12.0,26961,蚁城科技,上海蚁城网络科技有限公司,50-150人,徐汇区,本科,未融资,电子商务,0.0,0.0,全职,3-5年
126,4297851,高级系统工程师-SH415-914015,上海,2018-04-23 13:37:42,28.0,23177,点融,上海点融信息科技有限责任公司,150-500人,黄浦区,本科,D轮及以上,金融,120.993464,30.994061,全职,5-10年
127,2717953,系统工程师,武汉,2018-04-18 09:26:22,15.8,72493,比邻科技,武汉波士顿比邻科技有限公司,15-50人,蔡甸区,本科,不需要融资,移动互联网,114.161851,30.478917,全职,3-5年
128,4379785,系统工程师,上海,2018-04-17 10:18:22,14.0,21775,DJI大疆创新,深圳市大疆创新科技有限公司,2000人以上,浦东新区,大专,未融资,"移动互联网,硬件",121.583742,31.197802,全职,不限
129,4350694,首席系统工程师,北京,2018-04-28 15:42:03,39.0,7000,FreeWheel,飞维美地信息技术（北京）有限公司,500-2000人,朝阳区,本科,上市公司,"企业服务,数据服务",116.471469,39.953193,全职,5-10年
130,2483518,网络工程师/系统工程师,杭州,2018-04-28 15:03:37,4.4,152822,东华链条,杭州东华链条集团有限公司,2000人以上,余杭区,大专,不需要融资,企业服务,120.2943,30.456186,全职,1-3年
131,4456492,系统工程师,北京,2018-04-20 14:21:48,17.8,280,畅游,北京畅游天下网络技术有限公司,2000人以上,石景山区,本科,上市公司,"移动互联网,游戏",116.212239,39.907388,全职,3-5年
132,4368962,云计算系统工程师,广州,2018-04-28 18:15:56,14.0,10505,新炬网络,上海新炬网络技术有限公司,500-2000人,天河区,大专,未融资,"移动互联网,数据服务",113.403911,23.173992,全职,1-3年
133,2662936,系统工程师－东区,上海,2018-04-26 11:11:12,16.8,57260,瑞数信息,瑞数信息技术(上海)有限公司,50-150人,徐汇区,本科,A轮,信息安全,121.45128,31.218969,全职,3-5年
134,3748240,高级系统工程师,北京,2018-04-28 15:56:54,26.0,8103,汽车之家,北京车之家信息技术有限公司,2000人以上,海淀区,本科,上市公司,"移动互联网,文化娱乐",116.311989,39.979473,全职,3-5年
135,4350806,资深系统工程师,北京,2018-04-28 15:42:03,39.0,7000,FreeWheel,飞维美地信息技术（北京）有限公司,500-2000人,朝阳区,本科,上市公司,"企业服务,数据服务",116.471469,39.953193,全职,5-10年
136,4076172,系统工程师,上海,2018-04-23 17:29:27,10.8,90313,大泰金石,大泰金石投资管理有限公司,50-150人,浦东新区,本科,未融资,"移动互联网,金融",121.523812,31.214945,全职,1-3年
137,4105840,硬件系统工程师,深圳,2018-04-28 16:23:45,21.0,289076,深圳思力科,思力科（深圳）电子科技有限公司,50-150人,南山区,本科,不需要融资,"数据服务,硬件",113.952696,22.530438,全职,1-3年
138,2920986,阅文集团-资深系统工程师,上海,2018-04-26 09:37:30,19.0,28243,阅文集团,上海阅文信息技术有限公司,500-2000人,浦东新区,本科,上市公司,移动互联网,121.99341,30.994275,全职,3-5年
139,1370321,系统工程师,北京,2018-04-25 16:18:48,17.0,33893,渠道网络,北京市渠道网络技术开发有限公司,500-2000人,丰台区,本科,D轮及以上,"电子商务,O2O",,,全职,不限
140,3516241,高级系统工程师-基础设施研发,北京,2018-04-24 20:08:47,28.0,62,字节跳动,北京字节跳动科技有限公司,2000人以上,海淀区,本科,C轮,"移动互联网,数据服务",116.332602,39.971268,全职,1-3年
141,1100875,系统工程师,北京,2018-04-27 10:56:41,9.8,83725,切尔思科技,北京切尔思科技有限公司,15-50人,海淀区,不限,未融资,"移动互联网,数据服务",,,全职,1-3年
142,2844816,系统工程师,北京,2018-04-23 11:52:17,22.8,30648,绿盟科技,北京神州绿盟信息安全科技股份有限公司,500-2000人,海淀区,本科,上市公司,信息安全,116.30486001,39.94590007,全职,5-10年
143,4466036,高级系统工程师,北京,2018-04-25 11:34:21,18.6,6678,人人贷,人人贷商务顾问（北京）有限公司,500-2000人,海淀区,本科,A轮,金融,116.327094,39.993517,全职,3-5年
144,3589314,高级系统工程师,深圳,2018-04-04 19:43:57,14.0,210218,星河金融,深圳市星河投资有限公司,150-500人,福田区,本科,不需要融资,"移动互联网,金融",114.061546,22.533718,全职,3-5年
145,3395185,系统工程师,深圳,2018-04-22 14:05:40,28.0,153033,英思奇,深圳市英思奇信息咨询有限公司,50-150人,宝安区,本科,未融资,"移动互联网,电子商务",113.86185,22.572015,全职,3-5年
146,3622236,硬件系统工程师,上海,2018-04-26 14:35:02,12.0,1561,Face++,北京旷视科技有限公司,500-2000人,徐汇区,本科,C轮,"移动互联网,硬件",121.40034,31.171626,全职,5-10年
147,4161153,控制系统工程师,深圳,2018-04-10 10:15:46,28.0,199312,Roadstar.ai,深圳星行科技有限公司,15-50人,南山区,硕士,天使轮,"硬件,移动互联网",113.963356,22.597399,全职,1-3年
148,4486211,高级系统工程师,深圳,2018-04-26 11:55:52,12.0,50906,云兴科技,深圳市云兴科技有限公司,15-50人,南山区,大专,未融资,企业服务,0.0,0.0,全职,3-5年
149,4018769,高级系统工程师,北京,2018-04-28 18:23:05,24.0,311084,REDEFINE,北京瑞地科技有限公司,150-500人,朝阳区,本科,不需要融资,移动互联网,116.468327,40.003457,全职,3-5年
150,3763355,资深系统工程师,北京,2018-04-26 17:45:18,27.8,7000,FreeWheel,飞维美地信息技术（北京）有限公司,500-2000人,朝阳区,本科,上市公司,"企业服务,数据服务",116.471469,39.953193,全职,3-5年
151,3608753,高级系统工程师-CDN研发,北京,2018-04-24 20:09:17,28.0,62,字节跳动,北京字节跳动科技有限公司,2000人以上,海淀区,本科,C轮,"移动互联网,数据服务",116.332602,39.971268,全职,3-5年
152,1426788,资深系统工程师,深圳,2018-04-26 09:34:33,10.0,11885,世联行,深圳世联行地产顾问股份有限公司,2000人以上,罗湖区,本科,上市公司,企业服务,114.1271688,22.54500619,全职,5-10年
153,4246038,系统工程师,上海,2018-04-25 10:00:08,13.2,274064,十露盘,上海十露盘科技有限公司,15-50人,浦东新区,本科,天使轮,"数据服务,金融",121.528868,31.223208,全职,3-5年
154,4250637,系统工程师-邮件方向,北京,2018-04-25 09:35:51,21.0,25592,新浪网,新浪网技术（中国）有限公司,2000人以上,海淀区,本科,上市公司,文化娱乐,116.276316,40.041543,全职,3-5年
155,4461383,高级系统工程师,北京,2018-04-22 11:26:56,20.8,6110,北京搜房科技发展有限公司,北京搜房科技发展有限公司,2000人以上,丰台区,本科,未融资,"移动互联网,金融",116.30075,39.814,全职,5-10年
156,4378504,系统工程师--北京,北京,2018-04-07 20:39:03,14.0,23291,美图公司,厦门美图之家科技有限公司,500-2000人,海淀区,不限,上市公司,"移动互联网,硬件",39.897445,116.331398,全职,1-3年
157,3556830,系统工程师,上海,2018-04-02 13:04:35,10.8,161651,蒲甘科技,上海蒲甘智能科技有限公司,50-150人,长宁区,大专,不需要融资,金融,121.415794,31.220116,全职,3-5年
158,4458789,高级系统工程师,北京,2018-04-27 11:24:59,13.2,335848,北京易凯联讯,北京易凯联讯科技有限责任公司,150-500人,海淀区,大专,未融资,其他,116.31097,39.929834,全职,应届毕业生
159,4289206,技术部-系统工程师,北京,2018-04-25 11:01:52,11.2,704,人民网,人民网股份有限公司,2000人以上,朝阳区,本科,上市公司,"移动互联网,文化娱乐",116.47604,39.91717,全职,3-5年
160,4452584,高级系统工程师,成都,2018-04-19 18:17:44,10.8,364016,蜀桑源,四川蜀桑源软件开发有限公司,15-50人,高新区,本科,A轮,"移动互联网,电子商务",104.0685,30.553814,全职,3-5年
161,3828311,高级系统工程师/架构师-AI方向,北京,2018-04-27 20:45:01,36.8,534,京东金融,京东金融,2000人以上,通州区,本科,上市公司,金融,116.52117756,39.82198934,全职,5-10年
162,898273,系统工程师,北京,2018-04-27 10:56:41,9.8,83725,切尔思科技,北京切尔思科技有限公司,15-50人,海淀区,大专,未融资,"移动互联网,数据服务",,,全职,3-5年
163,3592600,高级系统工程师,上海,2018-04-27 09:42:05,14.0,128830,CloudChef,上海骞云信息科技有限公司,50-150人,杨浦区,本科,B轮,"企业服务,数据服务",121.545889,31.276121,全职,1-3年
164,4101486,系统工程师助理,珠海,2018-04-23 09:56:09,3.4,42736,天空网络,珠海天空网络科技有限公司,15-50人,香洲区,大专,不需要融资,移动互联网,113.527292,22.259284,全职,1年以下
165,4355281,音响系统工程师,广州,2018-04-21 16:04:15,5.6,346284,Meridian,广州麦丽迪安科技股份有限公司,15-50人,越秀区,大专,不需要融资,其他,113.287185,23.114484,全职,不限
166,4314391,系统工程师,上海,2018-04-18 15:20:13,15.8,168601,豪康金融,豪康（泉州）金融借贷服务平台有限公司,50-150人,长宁区,大专,不需要融资,"金融,移动互联网",121.403581,31.197748,全职,3-5年
167,4024551,控制系统工程师,北京,2018-04-04 04:35:57,42.0,293935,景驰,上海景驰汽车科技有限公司,50-150人,海淀区,硕士,天使轮,移动互联网,0.0,0.0,全职,3-5年
168,3398610,系统工程师（云方向）,成都,2018-04-26 11:11:12,14.0,57260,瑞数信息,瑞数信息技术(上海)有限公司,50-150人,高新区,本科,A轮,信息安全,104.0634,30.541738,全职,3-5年
169,4359658,系统工程师,北京,2018-04-28 16:02:54,23.6,23373,VIPKID,北京大米未来科技有限公司,2000人以上,东城区,本科,D轮及以上,教育,0.0,0.0,全职,3-5年
170,937028,系统工程师--云计算方向,北京,2018-04-26 17:46:05,14.0,15871,世纪互联,世纪互联集团有限公司,2000人以上,朝阳区,本科,上市公司,"移动互联网,数据服务",116.499721,39.979315,全职,3-5年
171,138544,高级系统工程师,北京,2018-04-18 10:41:29,22.0,6110,北京搜房科技发展有限公司,北京搜房科技发展有限公司,2000人以上,丰台区,本科,未融资,"移动互联网,金融",116.300552,39.814076,全职,5-10年
172,3516237,高级系统工程师-数据库开发,北京,2018-04-24 20:08:47,28.0,62,字节跳动,北京字节跳动科技有限公司,2000人以上,海淀区,本科,C轮,"移动互联网,数据服务",116.332602,39.971268,全职,1-3年
173,4103259,高级系统工程师,北京,2018-04-19 11:38:43,28.0,161143,全盛科技,北京理工全盛科技有限公司,少于15人,海淀区,硕士,A轮,"硬件,其他",116.322262,39.957401,全职,3-5年
174,355120,高级系统工程师,上海,2018-04-16 14:23:07,24.0,45243,外服信,上海外服宝信信息技术有限公司,50-150人,虹口区,本科,未融资,"移动互联网,数据服务",121.491245,31.292678,全职,5-10年
175,4311209,高级系统工程师,上海,2018-04-24 09:56:28,14.0,48693,小i机器人,上海智臻智能网络科技股份有限公司,150-500人,嘉定区,大专,上市公司,"企业服务,数据服务",121.327718,31.240134,全职,5-10年
176,4135820,系统工程师,深圳,2018-03-30 10:43:37,11.2,263975,深圳市爱瑞古德科技有限公司,深圳市爱瑞古德科技有限公司,15-50人,南山区,本科,不需要融资,"企业服务,硬件",113.94633,22.553923,全职,3-5年
177,3577456,系统工程师,广州,2018-04-24 15:47:51,7.0,547,彩讯科技,彩讯科技股份有限公司,500-2000人,天河区,大专,不需要融资,"移动互联网,生活服务",113.403883,23.174265,全职,1-3年
178,898445,助理系统工程师,北京,2018-04-27 10:56:41,6.8,83725,切尔思科技,北京切尔思科技有限公司,15-50人,海淀区,本科,未融资,"移动互联网,数据服务",116.324867,39.964579,全职,应届毕业生
179,3906316,资深系统工程师,北京,2018-04-17 10:55:05,45.4,106303,搜狐集团,北京搜狐新媒体信息技术有限公司,2000人以上,海淀区,本科,上市公司,"移动互联网,广告营销",0.0,0.0,全职,5-10年
180,3885509,控制系统工程师,广州,2018-04-04 04:37:14,42.0,293935,景驰,上海景驰汽车科技有限公司,50-150人,黄埔区,本科,天使轮,移动互联网,113.459749,23.106402,全职,3-5年
181,4343966,Android 蓝牙/wifi 系统工程师,上海,2018-04-27 10:30:20,19.0,103191,微鲸科技,微鲸科技有限公司,500-2000人,浦东新区,本科,不需要融资,移动互联网,121.99341,30.994275,全职,3-5年
182,3655023,系统工程师,西安,2018-04-27 18:26:09,14.0,3472,宏元富成,北京宏元富成科技有限公司,15-50人,高新技术产业开发区,本科,不需要融资,"社交网络,教育",108.87868,34.22549,全职,3-5年
183,1100891,助理系统工程师,北京,2018-04-27 10:56:41,5.6,83725,切尔思科技,北京切尔思科技有限公司,15-50人,海淀区,不限,未融资,"移动互联网,数据服务",,,全职,1年以下
184,3817055,高级系统工程师-运维开发,北京,2018-04-26 13:58:55,28.0,62,字节跳动,北京字节跳动科技有限公司,2000人以上,海淀区,本科,C轮,"移动互联网,数据服务",116.332602,39.971268,全职,1-3年
185,3673066,控制系统工程师,深圳,2018-04-23 15:30:47,19.0,154710,大象机器人,深圳市大象机器人科技有限公司,少于15人,福田区,本科,天使轮,硬件,114.084999,22.541122,全职,3-5年
186,4152201,系统工程师,北京,2018-04-29 23:50:13,22.8,1686,爱奇艺,北京爱奇艺科技有限公司,2000人以上,海淀区,本科,D轮及以上,"广告营销,文化娱乐",116.313228,39.983752,全职,3-5年
187,4254411,虚拟化或系统工程师,广州,2018-04-13 17:15:21,6.8,92564,广州中铁信,广州中铁信息工程有限公司,150-500人,天河区,本科,不需要融资,"硬件,其他",113.339707,23.139607,全职,不限
188,4100925,系统工程师,上海,2018-04-18 16:18:10,12.6,35112,中腾信,中腾信金融信息服务（上海）有限公司,2000人以上,虹口区,本科,不需要融资,金融,121.484128,31.248447,全职,3-5年
189,4271780,运维工程师/系统工程师,广州,2018-04-09 14:24:27,9.6,330577,金锡科技,金锡科技（广州）有限公司,50-150人,越秀区,大专,不需要融资,"移动互联网,旅游",113.258795,23.139474,全职,3-5年
190,4350015,高级系统工程师,广州,2018-03-30 10:24:38,11.2,341839,华胜天成,广州华胜天成信息技术有限公司,2000人以上,天河区,大专,上市公司,移动互联网,113.321868,23.124324,全职,3-5年
191,2691871,控制系统工程师,广州,2018-04-27 15:11:12,5.4,164291,DAS,广州大思自动化设备有限公司,50-150人,增城区,大专,不需要融资,"数据服务,硬件",113.62939,23.15422,全职,不限
192,3544309,系统工程师（实习生）,北京,2018-04-28 07:08:33,2.8,103398,紫龙互娱,易手游科技（天津）有限公司,150-500人,朝阳区,本科,A轮,游戏,116.517267,39.925768,实习,应届毕业生
193,4380237,高级系统工程师,北京,2018-04-08 11:20:20,19.8,97658,融数金服,融数金服（大连）信息服务有限公司北京分工司,150-500人,朝阳区,本科,天使轮,"金融,数据服务",0.0,0.0,全职,5-10年
194,4305504,运维工程师/系统工程师,广州,2018-04-28 15:37:34,6.8,136917,德讯,德讯科技股份有限公司,50-150人,天河区,不限,未融资,"移动互联网,数据服务",0.0,0.0,全职,1-3年
195,4026483,系统工程师,北京,2018-04-27 18:16:26,13.2,6678,人人贷,人人贷商务顾问（北京）有限公司,500-2000人,海淀区,大专,A轮,金融,116.330778,39.994714,全职,3-5年
196,3152825,推送系统工程师,北京,2018-04-24 09:12:59,33.6,50702,美团点评,北京三快在线科技有限公司,2000人以上,朝阳区,本科,D轮及以上,"移动互联网,O2O",116.466554,39.995147,全职,3-5年
197,4499738,对话系统工程师,北京,2018-04-28 15:20:06,35.0,18139,京东集团,北京京东世纪贸易有限公司,2000人以上,朝阳区,本科,上市公司,"电子商务,数据服务",116.387477,40.000236,全职,3-5年
198,4439615,硬件系统工程师,宁波,2018-04-27 13:55:34,7.2,348440,宁波翔羽无人机科技有限公司,宁波翔羽无人机科技有限公司,50-150人,余姚市,本科,未融资,其他,121.185793,30.07128,全职,1-3年
199,4207813,中间件系统工程师,深圳,2018-04-11 14:42:47,21.0,301344,招商金融科技,招商局金融科技有限公司,150-500人,南山区,本科,不需要融资,金融,113.91958,22.495554,全职,3-5年
200,4371719,多媒体系统工程师,深圳,2018-04-04 11:18:17,11.4,30776,MStar晨星软件,晨星软件研发（深圳）有限公司,500-2000人,南山区,本科,上市公司,移动互联网,113.95288,22.541521,全职,1-3年
201,4439727,云平台系统工程师,北京,2018-04-18 10:41:08,17.8,207872,嘉旭福美,河北嘉旭福美科技有限公司,15-50人,海淀区,硕士,B轮,"移动互联网,数据服务",0.0,0.0,全职,3-5年
202,4465549,系统工程师,深圳,2018-04-23 14:59:52,10.8,371758,粮好餐饮集团,深圳市百岁村餐饮连锁有限公司,2000人以上,龙华新区,大专,未融资,生活服务 不限,114.027678,22.606402,全职,1-3年
203,4056469,探测器系统工程师,成都,2018-04-24 09:19:15,19.6,81466,纳米维景,北京纳米维景科技有限公司,50-150人,武侯区,本科,A轮,医疗健康,104.034049,30.632323,全职,5-10年
204,4236415,系统工程师,北京,2018-04-23 12:21:00,2.8,1575,百度,百度在线网络技术（北京）有限公司,2000人以上,海淀区,本科,不需要融资,"移动互联网,数据服务",116.273399,40.043429,实习,应届毕业生
205,4308090,网络和系统工程师,广州,2018-04-13 14:27:40,6.8,349181,瀚华设计,广州瀚华建筑设计有限公司,150-500人,天河区,不限,不需要融资,其他,,,全职,1-3年
206,3499087,平台系统工程师,北京,2018-04-17 10:16:13,14.0,46784,彩彻区明科技,北京彩彻区明科技有限公司,15-50人,海淀区,本科,A轮,"移动互联网,生活服务",116.351887,40.009524,全职,1-3年
207,4494825,系统工程师,上海,2018-04-27 16:14:36,12.0,108324,众人公司,北京青年众人网络安全技术有限公司,50-150人,浦东新区,本科,上市公司,"移动互联网,金融",121.593357,31.214343,全职,3-5年
208,3654621,系统工程师,上海,2018-04-25 14:23:19,21.0,51480,饿了么,拉扎斯网络科技（上海）有限公司,2000人以上,普陀区,本科,D轮及以上,移动互联网,121.38240794,31.23317234,全职,1-3年
209,3970033,大数据系统工程师,福州,2018-04-27 09:04:57,7.6,64988,顶点软件,福建顶点软件股份有限公司,500-2000人,鼓楼区,本科,不需要融资,"移动互联网,企业服务",119.268483,26.110831,全职,不限
210,3796156,V2X系统工程师,北京,2018-04-27 12:02:35,35.0,50702,美团点评,北京三快在线科技有限公司,2000人以上,朝阳区,本科,D轮及以上,"移动互联网,O2O",121.417969,31.217836,全职,3-5年
211,3288775,CT系统工程师,北京,2018-04-24 09:19:16,22.8,81466,纳米维景,北京纳米维景科技有限公司,50-150人,海淀区,本科,A轮,医疗健康,116.233771,40.068259,全职,5-10年
212,4439642,云平台系统工程师,北京,2018-04-18 10:36:21,10.8,207872,嘉旭福美,河北嘉旭福美科技有限公司,15-50人,海淀区,本科,B轮,"移动互联网,数据服务",0.0,0.0,全职,1-3年
213,4322613,系统工程师,北京,2018-04-26 10:23:35,21.0,1575,百度,百度在线网络技术（北京）有限公司,2000人以上,海淀区,本科,不需要融资,"移动互联网,数据服务",116.301396,40.050909,全职,3-5年
214,4281381,系统工程师(校招职位)（上海）,上海,2018-04-28 11:34:42,7.2,89808,华讯网络,上海华讯网络系统有限公司,500-2000人,浦东新区,本科,不需要融资,"企业服务,其他",121.5319,31.21733,全职,应届毕业生
215,4399760,系统工程师J10094,北京,2018-04-25 19:13:23,20.8,165980,包银消费金融,包头市包银消费金融股份有限公司,150-500人,朝阳区,本科,不需要融资,"移动互联网,金融",116.418003,39.989574,全职,1-3年
216,4397167,系统工程师,深圳,2018-04-26 10:00:31,10.2,336018,保胜集团有限公司,保胜集团有限公司,500-2000人,福田区,大专,未融资,数据服务 金融,114.057139,22.534128,全职,3-5年
217,4350261,中级系统工程师,广州,2018-03-30 10:44:49,6.8,341839,华胜天成,广州华胜天成信息技术有限公司,2000人以上,天河区,大专,上市公司,移动互联网,113.321868,23.124324,全职,1-3年
218,4406697,控制系统工程师,北京,2018-04-11 18:31:08,15.2,362594,睿视偕行,北京睿视偕行科技有限公司,15-50人,海淀区,本科,A轮,移动互联网,116.338467,39.972235,全职,1-3年
219,3954634,系统工程师,无锡,2018-04-12 06:39:40,10.8,64216,远东,远东控股集团有限公司,2000人以上,宜兴市,本科,上市公司,"电子商务,金融",119.759817,31.453138,全职,1-3年
220,4138122,PACS系统工程师,武汉,2018-04-26 15:34:02,9.6,141759,睿佳科技,睿佳（武汉）软件科技有限公司,少于15人,洪山区,本科,天使轮,"医疗健康,企业服务",114.425782,30.50896,全职,1-3年
221,4142941,智能对话工程师/对话系统工程师,北京,2018-04-26 16:32:29,35.0,172285,猎户星空,北京猎户星空科技有限公司,150-500人,朝阳区,本科,A轮,"移动互联网,硬件",116.458741,39.932851,全职,3-5年
222,3230457,系统工程师（偏微软）,上海,2018-04-19 16:41:36,8.4,213286,上海益海信息技术有限公司,上海益海信息技术有限公司,15-50人,黄浦区,大专,不需要融资,"数据服务,信息安全",121.484443,31.231763,全职,3-5年
223,4288374,Callcenter 系统工程师-平台事业部J12518,北京,2018-04-28 16:29:00,21.0,1970,去哪儿网,北京趣拿软件科技有限公司,2000人以上,海淀区,本科,不需要融资,移动互联网,116.30572973,39.97727051,全职,3-5年
224,3886148,感知系统工程师,广州,2018-04-04 04:38:01,42.0,293935,景驰,上海景驰汽车科技有限公司,50-150人,黄埔区,硕士,天使轮,移动互联网,113.459749,23.106402,全职,3-5年
225,4290437,系统工程师,北京,2018-04-23 12:21:00,4.8,1575,百度,百度在线网络技术（北京）有限公司,2000人以上,海淀区,本科,不需要融资,"移动互联网,数据服务",116.273399,40.043429,实习,应届毕业生
226,4014935,智能对话工程师/对话系统工程师,北京,2018-04-26 10:37:19,35.0,172285,猎户星空,北京猎户星空科技有限公司,150-500人,朝阳区,不限,A轮,"移动互联网,硬件",116.458741,39.932851,全职,3-5年
227,3419601,系统工程师（中级）,北京,2018-04-27 10:12:54,10.4,9653,北京中视广信,北京中视广信科技有限公司,150-500人,海淀区,本科,未融资,"数据服务,分类信息",116.315297,39.920315,全职,1-3年
228,4209211,数据系统工程师,北京,2018-04-10 14:00:19,14.0,280,畅游,北京畅游天下网络技术有限公司,2000人以上,石景山区,本科,上市公司,"移动互联网,游戏",115.99339,39.99426,全职,1-3年
229,3905208,大数据系统工程师-CDH运维,上海,2018-04-10 10:23:54,28.0,113723,上海拿米金服,上海拿米金融信息服务有限公司,150-500人,徐汇区,大专,不需要融资,"移动互联网,金融",121.41045,31.17033,全职,3-5年
230,4375434,运维工程师/系统工程师,南京,2018-04-28 15:37:34,6.2,136917,德讯,德讯科技股份有限公司,50-150人,雨花台区,不限,未融资,"移动互联网,数据服务",0.0,0.0,全职,不限
231,4397747,系统工程师,广州,2018-04-10 16:23:42,5.2,81424,合晟,广东合晟网络科技有限公司,50-150人,天河区,大专,不需要融资,"信息安全,数据服务",113.329567,23.143522,全职,3-5年
232,4440359,运维安全部-系统工程师,北京,2018-04-28 09:11:30,28.0,3328,好未来,北京世纪好未来教育科技有限公司,2000人以上,海淀区,本科,上市公司,"移动互联网,教育",0.0,0.0,全职,3-5年
233,4186329,高级系统工程师-网络,北京,2018-04-24 20:11:52,28.0,62,字节跳动,北京字节跳动科技有限公司,2000人以上,海淀区,本科,C轮,"移动互联网,数据服务",116.332602,39.971268,全职,1-3年
234,3902386,软件系统工程师,上海,2018-04-28 22:12:38,19.0,295932,诺德软件,上海诺德软件有限公司,15-50人,宝山区,本科,不需要融资,"移动互联网,企业服务",121.437717,31.335462,全职,3-5年
235,3629280,BMS系统工程师,深圳,2018-04-09 08:36:27,10.8,194421,电将军,深圳电将军控股有限公司,500-2000人,龙岗区,本科,不需要融资,"硬件,电子商务",114.112129,22.652544,全职,1-3年
236,3756457,IOV系统工程师,北京,2018-04-25 21:20:30,26.0,87977,车和家,北京车和家信息技术有限责任公司,500-2000人,朝阳区,本科,B轮,其他,116.993595,39.993662,全职,3-5年
237,4104884,Openshift系统工程师,上海,2018-04-27 14:12:39,9.4,301666,云道信息,上海云道信息技术股份有限公司,15-50人,浦东新区,大专,未融资,"企业服务,信息安全",121.587772,31.197437,全职,1-3年
238,3350307,【实习】系统工程师,上海,2018-04-25 20:13:42,2.8,163304,上海宽投,上海宽投资产管理有限公司,15-50人,虹口区,本科,不需要融资,金融,121.486472,31.254228,实习,应届毕业生
239,4482418,BSP/系统工程师-智能产品,北京,2018-04-25 17:22:43,25.2,520,小米,北京小米科技有限责任公司,2000人以上,海淀区,本科,D轮及以上,移动互联网,0.0,0.0,全职,3-5年
240,4305552,运维工程师/系统工程师,成都,2018-04-28 15:37:34,6.8,136917,德讯,德讯科技股份有限公司,50-150人,成华区,不限,未融资,"移动互联网,数据服务",104.10174,30.663059,全职,1-3年
241,3905185,大数据系统工程师-DBA,上海,2018-04-10 10:23:54,28.0,113723,上海拿米金服,上海拿米金融信息服务有限公司,150-500人,徐汇区,大专,不需要融资,"移动互联网,金融",121.41045,31.17033,全职,3-5年
242,4350013,软件系统工程师,深圳,2018-03-30 10:24:20,8.8,179113,子询人工智能研究院,子询（深圳）人工智能研究院有限公司,15-50人,南山区,本科,未融资,"移动互联网,数据服务",113.918972,22.488457,全职,不限
243,4448389,BSP/系统工程师--智能产品,北京,2018-04-25 17:54:16,28.0,520,小米,北京小米科技有限责任公司,2000人以上,海淀区,本科,D轮及以上,移动互联网,0.0,0.0,全职,5-10年
244,4359619,OEM 硬件集成基带与系统工程师,北京,2018-04-02 13:58:02,28.0,1575,百度,百度在线网络技术（北京）有限公司,2000人以上,海淀区,硕士,不需要融资,"移动互联网,数据服务",116.273399,40.043429,全职,5-10年
245,3756498,IVI系统工程师-总线方向,北京,2018-04-25 21:20:31,26.0,87977,车和家,北京车和家信息技术有限责任公司,500-2000人,朝阳区,本科,B轮,其他,116.993595,39.993662,全职,3-5年
246,4457657,初级系统工程师/技术支持工程师,北京,2018-04-27 17:37:47,9.8,369663,高伟达,北京高伟达钽云科技有限公司,2000人以上,朝阳区,大专,上市公司,"移动互联网,电子商务",116.473267,39.956928,全职,1-3年
247,4423020,ROS系统工程师,厦门,2018-04-15 15:10:51,8.4,139430,厦门华蔚,厦门华蔚物联网科技有限公司,少于15人,湖里区,本科,天使轮,硬件,118.126144,24.549509,全职,1-3年
248,2687707,系统工程师(深圳),深圳,2018-04-26 17:22:18,14.0,24748,平安科技,平安科技（深圳）有限公司,2000人以上,福田区,本科,不需要融资,金融,114.09938142,22.55951564,全职,不限
249,237433,后端系统工程师,北京,2018-04-23 11:52:51,19.0,35822,GeneDock,北京聚道科技有限公司,15-50人,海淀区,不限,A轮,"医疗健康,数据服务",0.0,0.0,全职,3-5年
250,4487654,系统工程师（上海驻场）,上海,2018-04-26 15:01:09,16.8,222700,网联,网联清算有限公司,150-500人,静安区,本科,不需要融资,金融,121.440463,31.29501,全职,1-3年
251,3705356,BPC系统工程师J15761,北京,2018-04-10 19:06:01,13.2,68001,BOE,京东方科技集团股份有限公司,2000人以上,大兴区,本科,上市公司,"移动互联网,医疗健康",116.514629,39.775922,全职,3-5年
252,4152362,系统工程师（驻场）,深圳,2018-04-28 10:59:08,12.0,404,傲冠软件,深圳市傲冠软件股份有限公司,150-500人,福田区,本科,上市公司,"移动互联网,企业服务",114.010452,22.538857,全职,3-5年
253,4012171,大数据系统工程师-Spark/Kafaka,北京,2018-04-27 14:33:39,21.0,35996,顺丰科技有限公司,顺丰科技有限公司,500-2000人,海淀区,本科,不需要融资,"移动互联网,电子商务",116.352732,40.014764,全职,3-5年
254,4113466,内部系统工程师,上海,2018-04-28 10:10:58,21.0,9343,百姓网,百姓网股份有限公司,500-2000人,徐汇区,本科,上市公司,移动互联网,120.993464,30.994061,全职,1-3年
255,3756515,IVI系统工程师-多媒体方向,北京,2018-04-25 21:20:31,26.0,87977,车和家,北京车和家信息技术有限责任公司,500-2000人,朝阳区,本科,B轮,其他,116.993595,39.993662,全职,3-5年
256,3906609,大数据系统工程师-DBA,上海,2018-04-04 15:24:05,26.0,113723,上海拿米金服,上海拿米金融信息服务有限公司,150-500人,徐汇区,大专,不需要融资,"移动互联网,金融",121.410559,31.171432,全职,5-10年
257,2871544,运维系统工程师,深圳,2018-04-09 11:11:09,21.0,164,平安证券,平安证券股份有限公司,2000人以上,福田区,本科,上市公司,金融,114.063599,22.548153,全职,3-5年
258,4322376,驻场系统工程师,上海,2018-04-28 11:48:49,6.8,268076,普好企业,上海普好企业发展有限公司,50-150人,黄浦区,大专,不需要融资,"硬件,企业服务",121.478415,31.239324,全职,1-3年
259,3853678,系统工程师（自控方向）,佛山,2018-04-13 09:37:20,14.0,166298,美的中央空调,广东美的暖通设备有限公司,2000人以上,顺德区,本科,上市公司,其他,113.207655,22.909009,全职,3-5年
260,4428719,环境感知系统工程师-上海,上海,2018-04-16 17:03:07,12.0,358008,上汽通用汽车有限公司,上汽通用汽车有限公司,2000人以上,浦东新区,不限,不需要融资,"分类信息,其他",121.634832,31.279751,全职,不限
261,4044444,无人配送-电气系统工程师,北京,2018-04-27 12:02:36,35.0,50702,美团点评,北京三快在线科技有限公司,2000人以上,朝阳区,本科,D轮及以上,"移动互联网,O2O",121.417969,31.217836,全职,3-5年
262,3904621,系统工程师（应届生岗位）,北京,2018-04-27 11:15:52,9.6,18453,中体彩科技发展有限公司,中体彩科技发展有限公司,150-500人,大兴区,本科,不需要融资,"移动互联网,电子商务",116.556697,39.774894,全职,应届毕业生
263,4384214,云计算系统工程师/售前工程师,武汉,2018-04-08 17:50:31,19.0,346363,道客网络科技（武汉）有限公司,道客网络科技（武汉）有限公司,150-500人,武汉经济技术开发区,大专,A轮,移动互联网,114.164671,30.506711,全职,3-5年
264,4463325,应用系统工程师,深圳,2018-04-28 14:47:12,19.0,67118,达闼科技,达闼科技（北京）有限公司,150-500人,南山区,本科,B轮,移动互联网,0.0,0.0,全职,5-10年
265,3929514,人机对话系统工程师,深圳,2018-04-28 14:22:08,24.8,68524,编程猫,深圳点猫科技有限公司,150-500人,南山区,本科,B轮,"移动互联网,教育",113.940851,22.509672,全职,3-5年
266,4466967,信息系统工程师,成都,2018-04-28 16:23:01,9.8,310346,播了么,重庆新想乐文化传媒有限责任公司,500-2000人,高新区,本科,D轮及以上,"移动互联网,广告营销",104.066338,30.589196,全职,1-3年
267,4480238,IT系统工程师,北京,2018-04-25 14:36:44,15.8,52261,mobike摩拜单车,北京摩拜科技有限公司,150-500人,朝阳区,本科,D轮及以上,移动互联网,39.897445,116.331398,全职,3-5年
268,4468243,高级软件系统工程师,广州,2018-04-28 16:53:17,35.0,343783,Pony.ai,广州小马智行科技有限公司,50-150人,南沙区,本科,A轮,其他,113.545763,22.79408,全职,1-3年
269,3463194,应用系统工程师,北京,2018-04-27 10:57:50,28.0,129,陌陌,北京陌陌科技有限公司,500-2000人,朝阳区,本科,上市公司,社交网络,115.99339,39.99426,全职,3-5年
270,3756569,IVI系统工程师-安全功能方向,北京,2018-04-25 21:20:31,26.0,87977,车和家,北京车和家信息技术有限责任公司,500-2000人,朝阳区,本科,B轮,其他,116.993595,39.993662,全职,3-5年
271,2735358,大数据系统工程师,上海,2018-04-10 10:23:54,21.0,113723,上海拿米金服,上海拿米金融信息服务有限公司,150-500人,徐汇区,大专,不需要融资,"移动互联网,金融",121.41045,31.17033,全职,5-10年
272,4044504,电气系统工程师-无人机,北京,2018-04-25 10:16:04,26.0,50702,美团点评,北京三快在线科技有限公司,2000人以上,朝阳区,本科,D轮及以上,"移动互联网,O2O",116.486654,40.007208,全职,3-5年
273,4288238,IT系统工程师,上海,2018-04-27 11:22:01,7.2,40270,名片全能王,上海合合信息科技发展有限公司,150-500人,静安区,本科,C轮,移动互联网,121.439769,31.294568,全职,1-3年
274,4216054,IT系统工程师,上海,2018-04-24 14:09:50,7.8,78029,Charles&amp;Keith,桦洁商贸（上海）有限公司,150-500人,黄浦区,大专,不需要融资,"电子商务,其他",121.461025,31.217279,全职,3-5年
275,3666515,天文软件系统工程师,北京,2018-04-02 15:59:11,14.4,268376,中国科学院国家天文台,中国科学院国家天文台,500-2000人,朝阳区,硕士,不需要融资,其他,116.384302,40.004002,全职,3-5年
276,3706289,ADAS资深系统工程师,上海,2018-04-28 17:18:26,22.0,247880,奇点汽车,智车优行科技（北京）有限公司,150-500人,闵行区,本科,C轮,"移动互联网,硬件",121.508779,31.098735,全职,不限
277,3705561,合并系统工程师J15762,北京,2018-04-10 19:06:01,13.2,68001,BOE,京东方科技集团股份有限公司,2000人以上,大兴区,本科,上市公司,"移动互联网,医疗健康",116.514629,39.775922,全职,3-5年
278,4442969,系统工程师（赴普莱克斯）,上海,2018-04-24 14:06:43,17.6,189022,微创,上海微创软件股份有限公司北京分公司,2000人以上,浦东新区,本科,上市公司,"移动互联网,电子商务",121.563475,31.212603,全职,3-5年
279,2667472,图形系统工程师,深圳,2018-04-27 11:21:07,19.0,5794,一加手机,深圳市万普拉斯科技有限公司,500-2000人,福田区,本科,未融资,电子商务,114.02145,22.530893,全职,3-5年
280,4012297,开源软件系统工程师-Hyperledger,北京,2018-04-27 14:33:37,21.0,35996,顺丰科技有限公司,顺丰科技有限公司,500-2000人,海淀区,本科,不需要融资,"移动互联网,电子商务",116.352732,40.014764,全职,3-5年
281,4033439,应用系统工程师,深圳,2018-04-26 14:43:08,15.2,308188,华润物业科技,华润物业科技服务有限公司,2000人以上,南山区,本科,不需要融资,生活服务,39.897445,116.331398,全职,1-3年
282,4456320,监控系统工程师,上海,2018-04-26 13:58:56,33.0,62,字节跳动,北京字节跳动科技有限公司,2000人以上,徐汇区,本科,C轮,"移动互联网,数据服务",31.190826,31.190826,全职,1-3年
283,4283823,虚拟化系统工程师(云方向),上海,2018-04-28 09:22:56,14.0,85982,东航金融,东航金控有限责任公司,150-500人,闵行区,本科,不需要融资,"移动互联网,金融",121.396504,31.182751,全职,不限
284,4450784,存储 助理系统工程师(010953),北京,2018-04-19 15:50:06,6.8,12965,神州数码,神州数码（中国）有限公司,2000人以上,海淀区,本科,上市公司,"硬件 ,数据服务",39.897445,116.331398,全职,1-3年
285,3904453,大数据系统工程师-CDH运维,上海,2018-04-08 19:11:37,28.0,113723,上海拿米金服,上海拿米金融信息服务有限公司,150-500人,徐汇区,大专,不需要融资,"移动互联网,金融",121.410559,31.171432,全职,3-5年
286,4079852,SAP SD/MM 高级系统工程师,北京,2018-04-26 14:47:39,22.8,1650,联想集团,联想（北京）有限公司,2000人以上,海淀区,本科,上市公司,"移动互联网,数据服务",116.30991,40.04216006,全职,5-10年
287,4337464,信息系统工程师,杭州,2018-04-27 18:43:02,5.6,44123,开始吧,杭州捕翼网络科技有限公司,150-500人,余杭区,大专,C轮,"移动互联网,金融",119.997013,30.276311,全职,1-3年
288,4368476,系统工程师（暖通方向）,深圳,2018-04-13 09:37:20,28.0,166298,美的中央空调,广东美的暖通设备有限公司,2000人以上,南山区,本科,上市公司,其他,113.940294,22.541236,全职,5-10年
289,4488354,电信网资深系统工程师,南京,2018-04-26 15:53:31,15.2,53253,中新赛克,南京中新赛克科技有限责任公司,500-2000人,江宁区,本科,不需要融资,信息安全,118.779051,31.840333,全职,5-10年
290,4035056,系统工程师（驻场）,深圳,2018-04-17 14:57:39,16.8,222700,网联,网联清算有限公司,150-500人,福田区,本科,不需要融资,金融,114.050276,22.504959,全职,1-3年
291,4194392,应用系统工程师2018,北京,2018-04-24 16:13:00,9.6,114603,中国信通院,中国信息通信研究院,2000人以上,海淀区,本科,不需要融资,"信息安全,移动互联网",39.897445,116.331398,全职,3-5年
292,4442051,系统工程师（办公）,北京,2018-04-25 11:34:22,14.6,6678,人人贷,人人贷商务顾问（北京）有限公司,500-2000人,朝阳区,本科,A轮,金融,0.0,0.0,全职,1-3年
293,4373854,高级软件系统工程师,广州,2018-04-23 14:47:33,21.0,343783,Pony.ai,广州小马智行科技有限公司,50-150人,南沙区,本科,A轮,其他,113.545618,22.793219,全职,1-3年
294,4401930,IT系统工程师,广州,2018-04-11 11:18:30,6.2,193321,闻道,广州闻道电子商务有限公司,15-50人,番禺区,大专,未融资,电子商务,113.3345,22.994097,全职,1-3年
295,3013766,应用系统工程师,杭州,2018-04-09 16:47:56,14.4,9417,泰一指尚,杭州泰一指尚科技有限公司,150-500人,滨江区,大专,C轮,"移动互联网,硬件",119.993591,29.993662,全职,1-3年
296,4032538,组合导航系统工程师-NTD,北京,2018-04-23 20:06:51,24.0,31590,四维图新,北京四维图新科技股份有限公司,2000人以上,海淀区,本科,上市公司,"移动互联网,生活服务",116.245368,40.072979,全职,不限
297,2691130,邮件系统工程师(深圳),深圳,2018-04-26 17:22:19,14.0,24748,平安科技,平安科技（深圳）有限公司,2000人以上,福田区,本科,不需要融资,金融,114.09938142,22.55951564,全职,不限
298,4312520,信息系统工程师,沈阳,2018-03-30 08:32:48,3.4,164110,桃李面包,沈阳桃李面包股份有限公司,500-2000人,沈河区,本科,上市公司,其他,123.433382,41.800924,全职,不限
299,4466440,高速公路系统工程师,南京,2018-04-23 16:03:47,14.0,53204,绛门科技,南京绛门科技信息股份有限公司,500-2000人,江宁区,本科,未融资,"移动互联网,数据服务",118.778188,31.838424,全职,1-3年
300,3904446,大数据系统工程师-DBA,上海,2018-04-08 19:11:35,28.0,113723,上海拿米金服,上海拿米金融信息服务有限公司,150-500人,徐汇区,大专,不需要融资,"移动互联网,金融",121.410559,31.171432,全职,3-5年
301,2911691,广告系统工程师,北京,2018-04-24 13:37:28,26.0,70,宝宝树,宝宝树（北京）信息技术有限公司,500-2000人,朝阳区,本科,D轮及以上,社交网络,115.99339,39.99426,全职,3-5年
302,3272145,资深云计算预研系统工程师/技术专家-网易云基础服务,杭州,2018-04-09 11:34:30,42.0,329,网易,网易（杭州）有限公司,2000人以上,滨江区,本科,上市公司,"电子商务,移动互联网",120.190729,30.187795,全职,5-10年
303,4061323,车载娱乐系统工程师,上海,2018-04-26 10:29:51,25.2,313862,上汽云计算中心,上海帆一尚行科技有限公司,50-150人,嘉定区,本科,不需要融资,"企业服务,数据服务",121.189207,31.277545,全职,5-10年
304,3554631,DevOps系统工程师,深圳,2018-04-28 14:51:28,24.0,131846,Shopee,深圳虾皮信息科技有限公司,2000人以上,南山区,本科,上市公司,电子商务,113.945758,22.537062,全职,3-5年
305,4349910,信息系统工程师,上海,2018-04-28 14:26:33,17.0,63922,麦子金服,上海诺诺镑客金融信息服务有限公司,500-2000人,浦东新区,本科,A轮,"移动互联网,金融",121.519043,31.208744,全职,3-5年
306,4487851,系统工程师（北京驻场）,北京,2018-04-26 15:13:48,16.8,222700,网联,网联清算有限公司,150-500人,昌平区,本科,不需要融资,金融,116.231932,40.204981,全职,1-3年
307,2782724,搜狐媒体-集团商业部-商业系统工程师,北京,2018-04-17 10:55:06,28.0,106303,搜狐集团,北京搜狐新媒体信息技术有限公司,2000人以上,海淀区,本科,上市公司,"移动互联网,广告营销",116.325402,39.983335,全职,3-5年
308,4371753,TV显示系统工程师,深圳,2018-04-04 11:20:26,11.4,30776,MStar晨星软件,晨星软件研发（深圳）有限公司,500-2000人,南山区,本科,上市公司,移动互联网,113.95288,22.541521,全职,1-3年
309,4005468,高级系统工程师（开源软件）,北京,2018-04-25 17:07:33,12.0,76714,南软,北京南天软件有限公司,500-2000人,丰台区,本科,上市公司,金融,116.373702,39.856446,全职,5-10年
310,4361894,IT系统工程师,上海,2018-04-27 09:45:13,12.0,29811,关爱通,中智关爱通（上海）科技股份有限公司,150-500人,徐汇区,本科,未融资,"电子商务,企业服务",121.419234,31.175236,全职,1-3年
311,4357491,资深应用系统工程师,东莞,2018-04-13 10:45:32,15.0,47782,虎彩,虎彩印艺股份有限公司,2000人以上,东莞市市辖区,大专,上市公司,"企业服务,分类信息",39.897445,116.331398,全职,5-10年
312,4340122,系统工程师（医疗软件方向）,北京,2018-04-28 10:35:08,19.0,128888,推想科技,北京推想科技有限公司,50-150人,朝阳区,本科,B轮,"医疗健康,数据服务",116.491275,39.913592,全职,3-5年
313,3458750,信息系统工程师,上海,2018-04-10 17:58:16,35.0,21218,通联数据,通联数据股份公司,150-500人,虹口区,本科,不需要融资,金融,121.486219,31.248,全职,5-10年
314,3713486,大数据系统工程师 (大数据与AI部),杭州,2018-04-28 10:12:52,21.0,2380,浙江执御信息技术有限公司,浙江执御信息技术有限公司,2000人以上,拱墅区,本科,B轮,"移动互联网,数据服务",120.11362,30.33344,全职,1-3年
315,3906627,大数据系统工程师-CDH运维,上海,2018-04-04 15:24:04,28.0,113723,上海拿米金服,上海拿米金融信息服务有限公司,150-500人,徐汇区,大专,不需要融资,"移动互联网,金融",121.410559,31.171432,全职,3-5年
316,3127690,广告系统工程师,北京,2018-04-24 13:37:28,31.0,70,宝宝树,宝宝树（北京）信息技术有限公司,500-2000人,朝阳区,硕士,D轮及以上,社交网络,115.99339,39.99426,全职,3-5年
317,4371779,TV软件系统工程师,深圳,2018-04-04 11:22:26,11.4,30776,MStar晨星软件,晨星软件研发（深圳）有限公司,500-2000人,南山区,本科,上市公司,移动互联网,113.95288,22.541521,全职,1-3年
318,3955841,高级硬件系统工程师,深圳,2018-04-27 18:23:19,13.2,149021,奔跑宝,深圳奔跑宝科技有限公司,15-50人,南山区,本科,天使轮,"移动互联网,数据服务",113.92288,22.51942,全职,3-5年
319,4258341,电力系统工程师,上海,2018-04-23 18:38:51,9.4,289239,万骍能源,深圳万骍能源有限公司,15-50人,闵行区,本科,天使轮,"企业服务,数据服务",0.0,0.0,全职,不限
320,4280213,分布式系统工程师,杭州,2018-04-26 18:28:49,17.8,262633,杭州逐影,杭州逐影科技有限公司,15-50人,西湖区,本科,天使轮,移动互联网,120.096992,30.302562,全职,不限
321,4399513,高速公路三大系统工程师,南京,2018-04-24 09:30:32,10.8,173918,中兴软创,中兴软创科技股份有限公司,2000人以上,江宁区,不限,上市公司,"移动互联网,企业服务",118.778188,31.838424,全职,不限
322,4003320,无人车中间件系统工程师,北京,2018-04-28 10:38:30,31.0,108216,图森未来,北京图森智途科技有限公司,150-500人,朝阳区,本科,C轮,移动互联网,115.99339,39.99426,全职,1-3年
323,4494154,高级系统工程师（云平台）,北京,2018-04-27 15:14:13,24.0,18453,中体彩科技发展有限公司,中体彩科技发展有限公司,150-500人,大兴区,本科,不需要融资,"移动互联网,电子商务",116.556697,39.774894,全职,5-10年
324,4249850,ERP系统工程师,北京,2018-04-28 19:13:23,14.0,26557,锤子科技,锤子科技（北京）股份有限公司,500-2000人,朝阳区,本科,B轮,"移动互联网,硬件",116.479423,40.012226,全职,3-5年
325,4059959,系统工程师(虚拟化+似有云方向),北京,2018-04-23 12:00:51,14.0,72106,蛋壳公寓,紫梧桐（北京）资产管理有限公司,2000人以上,朝阳区,本科,B轮,O2O,116.438432,39.922766,全职,不限
326,4487848,高级/资深广告系统工程师,北京,2018-04-26 15:13:28,35.0,72720,茄子快传,北京快乐茄信息技术有限公司,150-500人,海淀区,本科,B轮,移动互联网,116.288106,40.046807,全职,5-10年
327,3981242,推荐系统工程师/Hadoop开发工程师,北京,2018-04-28 15:39:55,19.0,273943,人民网科技,人民网科技（北京）有限公司,150-500人,朝阳区,本科,不需要融资,"移动互联网,企业服务",116.46974,39.92077,全职,3-5年
328,3743952,电力系统工程师,西安,2018-04-12 08:56:33,8.4,216259,兴汇电力,西安兴汇电力科技有限公司,150-500人,雁塔区,本科,不需要融资,其他,108.909007,34.206543,全职,不限
329,4490271,推荐系统工程师-中国-00319,北京,2018-04-27 22:57:21,31.0,5026,唱吧-时尚的手机KTV,北京小唱科技有限公司,150-500人,朝阳区,本科,D轮及以上,"移动互联网,游戏",116.44706,39.97107206,全职,不限
330,4026896,组合导航系统工程师,北京,2018-04-26 09:03:09,21.0,253486,HoloMatic,禾多科技（北京）有限公司,50-150人,朝阳区,本科,天使轮,"移动互联网,硬件",116.51109,40.027319,全职,1-3年
331,4429980,算法平台系统工程师,上海,2018-04-26 10:29:52,28.0,313862,上汽云计算中心,上海帆一尚行科技有限公司,50-150人,浦东新区,硕士,不需要融资,"企业服务,数据服务",121.568359,31.269275,全职,5-10年
332,4280261,汽车电子控制系统工程师,杭州,2018-04-26 18:28:51,24.8,262633,杭州逐影,杭州逐影科技有限公司,15-50人,西湖区,本科,天使轮,移动互联网,120.096992,30.302562,全职,1-3年
333,4474892,高级车载以太网系统工程师,北京,2018-04-24 16:58:06,28.0,169186,Momenta,北京初速度科技有限公司,150-500人,海淀区,不限,B轮,"数据服务,硬件",116.33347,39.994039,全职,不限
334,3776583,人工智能云平台系统工程师,上海,2018-04-26 13:26:40,28.4,83866,华院数据,华院数据技术（上海）有限公司,500-2000人,杨浦区,本科,C轮,"企业服务,数据服务",39.897445,116.331398,全职,3-5年
335,3569039,售前系统工程师,昆明,2018-04-27 15:59:54,9.0,88751,广州中软,广州中软信息技术有限公司,500-2000人,官渡区,本科,不需要融资,"数据服务,硬件",102.72489998,25.03313992,全职,3-5年
336,3917325,IT信息系统工程师,成都,2018-04-28 11:06:03,7.6,297837,银隆新能源,成都市银隆新能源有限公司,2000人以上,新津县,大专,A轮,"企业服务,其他",103.88559,30.379426,全职,1-3年
337,4450428,网络系统工程师,上海,2018-04-26 18:46:47,13.2,38744,微财富,上海微汇金融信息服务有限公司,150-500人,浦东新区,不限,A轮,金融,121.53471,31.21749,全职,3-5年
338,3056876,搜索和推荐系统工程师,上海,2018-04-27 16:20:00,24.0,622,房多多,深圳市房多多网络科技有限公司,2000人以上,闸北区,本科,C轮,"移动互联网,O2O",121.439913,31.277659,全职,3-5年
339,4191707,分布式系统工程师,深圳,2018-04-27 11:40:38,35.0,225377,zilliz,上海赜睿信息科技有限公司,15-50人,南山区,本科,A轮,"企业服务,数据服务",113.943551,22.548179,全职,3-5年
340,4446598,金融系统工程师,上海,2018-04-25 20:13:42,10.8,163304,上海宽投,上海宽投资产管理有限公司,15-50人,虹口区,不限,不需要融资,金融,121.486472,31.254228,全职,不限
341,3829877,大数据软件系统工程师,广州,2018-04-24 11:02:53,9.6,51235,麦图科技,上海麦图信息科技有限公司,15-50人,海珠区,大专,A轮,数据服务,113.323844,23.096432,全职,1-3年
342,3435560,手机硬件系统工程师,北京,2018-04-26 15:57:59,28.0,26557,锤子科技,锤子科技（北京）股份有限公司,500-2000人,朝阳区,本科,B轮,"移动互联网,硬件",116.486846,40.000873,全职,5-10年
343,4007846,高级系统工程师（存储备份）,北京,2018-04-27 11:15:52,24.0,18453,中体彩科技发展有限公司,中体彩科技发展有限公司,150-500人,大兴区,本科,不需要融资,"移动互联网,电子商务",116.556697,39.774894,全职,5-10年
344,4166033,高级推荐系统工程师,北京,2018-04-27 11:06:18,35.0,929,最右,北京小川在线网络技术有限公司,150-500人,海淀区,本科,B轮,移动互联网,116.368056,39.980092,全职,3-5年
345,4190900,分布式系统工程师,北京,2018-04-27 11:40:38,35.0,225377,zilliz,上海赜睿信息科技有限公司,15-50人,海淀区,本科,A轮,"企业服务,数据服务",116.314526,39.982338,全职,3-5年
346,3810074,人工智能云平台系统工程师,杭州,2018-04-26 13:26:39,28.4,83866,华院数据,华院数据技术（上海）有限公司,500-2000人,上城区,本科,C轮,"企业服务,数据服务",39.897445,116.331398,全职,1-3年
347,4490556,高级系统工程师（办公系统）,北京,2018-04-27 18:16:26,22.4,6678,人人贷,人人贷商务顾问（北京）有限公司,500-2000人,朝阳区,本科,A轮,金融,0.0,0.0,全职,3-5年
348,2922075,搜索开发工程师/推荐系统工程师（杭州）,杭州,2018-04-28 17:47:14,26.0,9251,美柚,厦门美柚信息科技有限公司,500-2000人,余杭区,本科,D轮及以上,移动互联网,119.996181,30.275849,全职,3-5年
349,3713518,资深大数据系统工程师 (大数据与AI部),杭州,2018-04-28 10:12:52,21.0,2380,浙江执御信息技术有限公司,浙江执御信息技术有限公司,2000人以上,拱墅区,本科,B轮,"移动互联网,数据服务",120.11362,30.33344,全职,3-5年
350,4452418,高级推荐系统工程师,北京,2018-04-27 10:35:45,36.0,72720,茄子快传,北京快乐茄信息技术有限公司,150-500人,海淀区,本科,B轮,移动互联网,116.288106,40.046807,全职,5-10年
351,3127680,高级推荐系统工程师,北京,2018-04-24 13:37:29,31.0,70,宝宝树,宝宝树（北京）信息技术有限公司,500-2000人,朝阳区,硕士,D轮及以上,社交网络,115.99339,39.99426,全职,3-5年
352,4100870,资深推荐系统工程师,南京,2018-04-27 10:12:34,28.0,32179,南京领添,南京领添信息技术有限公司,500-2000人,雨花台区,本科,C轮,"移动互联网,电子商务",118.75546,31.973879,全职,5-10年
353,4413252,分布式系统工程师,北京,2018-04-12 17:07:13,21.0,418,世纪佳缘,上海花千树信息科技有限公司北京分公司,500-2000人,朝阳区,本科,上市公司,移动互联网,116.400542,39.967978,全职,1-3年
354,4478931,基础架构高级系统工程师/架构师,上海,2018-04-27 16:31:59,28.0,143715,石方科技,珠海市石方科技有限公司,15-50人,普陀区,本科,A轮,信息安全,121.391822,31.234451,全职,5-10年
355,4457029,量化交易系统工程师,深圳,2018-04-26 13:50:34,33.0,25419,广发证券,广发证券股份有限公司,2000人以上,南山区,本科,上市公司,金融,113.93697,22.51828,全职,3-5年
356,4243925,系统工程师（虚拟化平台方向）,北京,2018-04-13 20:19:06,27.0,3564,同程艺龙,同程网络科技股份有限公司,2000人以上,朝阳区,本科,D轮及以上,"旅游,电子商务",116.494359,39.976656,全职,5-10年
357,4371745,ERP系统工程师,广州,2018-04-04 11:19:50,6.4,247742,奔穗服饰,广州奔穗服饰有限公司,150-500人,番禺区,大专,不需要融资,电子商务,113.315629,23.017604,全职,3-5年
358,3481234,高级推荐系统工程师,上海,2018-04-24 10:14:13,35.0,6542,小红书,行吟信息科技（上海）有限公司,500-2000人,黄浦区,本科,C轮,"生活服务,电子商务",121.4744,31.215118,全职,3-5年
359,3685138,ERP系统工程师,杭州,2018-04-24 09:55:12,10.8,250067,杭州甘其食,杭州甘其食餐饮管理有限公司,500-2000人,拱墅区,本科,A轮,其他,120.13109,30.320007,全职,3-5年
360,4190897,分布式系统工程师,杭州,2018-04-27 11:40:38,35.0,225377,zilliz,上海赜睿信息科技有限公司,15-50人,余杭区,本科,A轮,"企业服务,数据服务",120.00536,30.287475,全职,3-5年
361,4488241,高级推荐系统工程师,北京,2018-04-26 15:45:14,35.0,72720,茄子快传,北京快乐茄信息技术有限公司,150-500人,海淀区,本科,B轮,移动互联网,116.288106,40.046807,全职,5-10年
362,4500613,音视频系统工程师,北京,2018-04-28 16:45:28,24.0,62,字节跳动,北京字节跳动科技有限公司,2000人以上,海淀区,本科,C轮,"移动互联网,数据服务",39.977067,39.977067,全职,不限
363,4465542,高级系统工程师（IT）,北京,2018-04-27 18:16:27,19.6,6678,人人贷,人人贷商务顾问（北京）有限公司,500-2000人,朝阳区,本科,A轮,金融,0.0,0.0,全职,3-5年
364,3622443,技术支持工程师（系统工程师）,上海,2018-04-26 09:23:53,10.8,243778,斐讯技术,四川斐讯信息技术有限公司,2000人以上,松江区,本科,不需要融资,"信息安全,硬件",121.158217,31.022781,全职,1-3年
365,4111282,高级系统工程师（工作地点：菲律宾）,深圳,2018-04-13 11:17:11,37.0,70457,驰信达,深圳市驰信达科技有限公司,150-500人,龙岗区,本科,不需要融资,移动互联网,114.061024,22.633343,全职,5-10年
366,2851103,系统工程师（云桌面）（上海）,上海,2018-04-26 17:22:19,14.0,24748,平安科技,平安科技（深圳）有限公司,2000人以上,浦东新区,本科,不需要融资,金融,121.671079,31.23917,全职,不限
367,4461330,舆情系统工程师,郑州,2018-04-22 10:37:48,9.4,64166,大河网,大河网络传媒有限公司,150-500人,中原区,本科,不需要融资,文化娱乐,113.993612,34.993681,全职,3-5年
368,4412356,Camera系统工程师,深圳,2018-04-12 16:01:44,42.0,19875,vivo,维沃移动通信有限公司,2000人以上,福田区,本科,未融资,移动互联网,39.897445,116.331398,全职,5-10年
369,3838508,算法平台高级系统工程师,北京,2018-04-09 19:49:02,28.0,5832,新浪微博,微梦创科网络科技（中国）有限公司,2000人以上,海淀区,硕士,上市公司,移动互联网,0.0,0.0,全职,3-5年
370,4124152,OS/DB系统工程师（长沙）,长沙,2018-04-20 09:39:47,28.0,29872,三一集团有限公司,三一集团有限公司,2000人以上,长沙县,本科,上市公司,"移动互联网,其他",113.09210961,28.23781028,全职,5-10年
371,3886793,数据库系统工程师,长沙,2018-04-12 13:29:45,8.8,252377,星汉数智,湖南星汉数智科技有限公司,50-150人,开福区,本科,未融资,"移动互联网,数据服务",112.985545,28.257269,全职,不限
372,4372094,系统工程师（自动驾驶方向）,上海,2018-04-24 11:38:20,21.0,83580,地平线机器人,北京地平线信息技术有限公司,150-500人,嘉定区,本科,A轮,"移动互联网,硬件",121.196542,31.277751,全职,3-5年
373,4012242,开源软件系统工程师(持续集成持续部署方向),北京,2018-04-27 14:33:43,21.0,35996,顺丰科技有限公司,顺丰科技有限公司,500-2000人,海淀区,硕士,不需要融资,"移动互联网,电子商务",116.352732,40.014764,全职,3-5年
374,3879344,信息安全系统工程师,北京,2018-04-28 14:53:20,31.0,126957,北京算云联科,北京算云联科科技有限公司,150-500人,海淀区,本科,不需要融资,"移动互联网,硬件",116.308144,40.045415,全职,5-10年
375,4105038,数据库系统工程师,上海,2018-04-27 11:40:38,35.0,225377,zilliz,上海赜睿信息科技有限公司,15-50人,徐汇区,本科,A轮,"企业服务,数据服务",121.443059,31.188309,全职,3-5年
376,4109453,高级车辆电控系统工程师-无人车,北京,2018-04-25 10:16:04,35.0,50702,美团点评,北京三快在线科技有限公司,2000人以上,朝阳区,硕士,D轮及以上,"移动互联网,O2O",116.486654,40.007208,全职,3-5年
377,4306665,嵌入式系统工程师,济南,2018-04-24 15:19:04,11.8,232713,山东易华录,山东易华录信息技术有限公司,150-500人,高新区,本科,上市公司,其他,117.141118,36.679848,全职,5-10年
378,3437269,系统工程师（安全方向）,上海,2018-04-12 09:44:40,12.0,80880,百视通,百视通网络电视技术发展有限责任公司,500-2000人,徐汇区,本科,不需要融资,文化娱乐,120.993464,30.994061,全职,不限
379,4501641,基础架构高级系统工程师/架构师,上海,2018-04-28 19:55:01,28.0,104869,思询,上海思询信息科技有限公司,50-150人,普陀区,大专,A轮,"移动互联网,电子商务",121.389999,31.233831,全职,3-5年
380,2049405,电商后端系统工程师,上海,2018-04-26 16:22:57,21.0,6542,小红书,行吟信息科技（上海）有限公司,500-2000人,黄浦区,本科,C轮,"生活服务,电子商务",121.47013999,31.21771986,全职,3-5年
381,3458227,反作弊系统工程师,北京,2018-04-28 11:58:18,35.0,62,字节跳动,北京字节跳动科技有限公司,2000人以上,海淀区,本科,C轮,"移动互联网,数据服务",116.332602,39.971268,全职,3-5年
382,3553205,2018校招-网络系统工程师,北京,2018-04-16 09:42:44,11.0,4148,同程艺龙,艺龙网信息技术（北京）有限公司,2000人以上,朝阳区,本科,上市公司,"移动互联网,旅游",116.49547,39.976679,全职,应届毕业生
383,4178811,Linux系统工程师,广州,2018-04-27 16:28:33,10.8,290905,广州楠天,广州楠天网络科技有限公司,15-50人,天河区,大专,不需要融资,移动互联网,113.398974,23.121974,全职,1-3年
384,2806442,搜狐媒体-集团商业部-BI系统工程师,北京,2018-04-17 10:55:04,21.0,106303,搜狐集团,北京搜狐新媒体信息技术有限公司,2000人以上,海淀区,本科,上市公司,"移动互联网,广告营销",116.325402,39.983335,全职,3-5年
385,4474581,Linux系统工程师,深圳,2018-04-26 16:27:40,13.2,220821,万通顺达,深圳市万通顺达科技股份有限公司,150-500人,福田区,本科,上市公司,"生活服务,硬件",114.07503,22.543917,全职,3-5年
386,4194141,交易及结算系统工程师,深圳,2018-04-28 14:25:05,28.0,9253,富途证券,富途网络科技（深圳）有限公司,150-500人,南山区,本科,C轮,"移动互联网,金融",113.94437,22.547395,全职,不限
387,3736091,推荐系统工程师,北京,2018-04-25 11:19:15,28.0,109,马蜂窝,北京蚂蜂窝网络科技有限公司,500-2000人,朝阳区,本科,D轮及以上,"移动互联网,旅游",39.897445,116.331398,全职,3-5年
388,3321981,windows系统工程师,北京,2018-04-27 10:57:49,18.2,129,陌陌,北京陌陌科技有限公司,500-2000人,朝阳区,本科,上市公司,社交网络,115.99339,39.99426,全职,3-5年
389,4014913,linux系统工程师,杭州,2018-04-09 15:06:33,21.0,171980,Rokid,芋头科技（杭州）有限公司,150-500人,西湖区,本科,B轮,"电子商务,移动互联网",120.067022,30.245942,全职,3-5年
390,3739425,高级自动驾驶仿真系统工程师,北京,2018-04-25 10:16:03,33.0,50702,美团点评,北京三快在线科技有限公司,2000人以上,朝阳区,本科,D轮及以上,"移动互联网,O2O",116.486654,40.007208,全职,3-5年
391,4104903,Vmware系统工程师,上海,2018-04-27 14:12:39,9.4,301666,云道信息,上海云道信息技术股份有限公司,15-50人,浦东新区,大专,未融资,"企业服务,信息安全",121.587772,31.197437,全职,1-3年
392,4275883,SIP系统工程师,深圳,2018-04-10 17:02:03,15.4,16831,武汉佰钧成技术有限公司,武汉佰钧成技术有限责任公司,2000人以上,龙岗区,本科,不需要融资,移动互联网,0.0,0.0,全职,3-5年
393,4434110,IDC系统工程师,北京,2018-04-28 11:45:56,21.0,1880,快手,北京达佳互联信息技术有限公司,500-2000人,海淀区,本科,D轮及以上,移动互联网,116.338727,39.999302,全职,3-5年
394,2423574,windows系统工程师,北京,2018-04-26 17:46:06,10.8,15871,世纪互联,世纪互联集团有限公司,2000人以上,朝阳区,本科,上市公司,"移动互联网,数据服务",116.499957,39.977505,全职,1-3年
395,4066273,PCB系统工程师／主管／经理,上海,2018-04-25 17:45:04,21.0,3430,青声网络,上海青声网络科技有限公司,150-500人,黄浦区,本科,C轮,"移动互联网,文化娱乐",121.474254,31.213007,全职,3-5年
396,4326353,linux系统工程师,佛山,2018-04-28 08:56:59,6.2,145927,广宇科技,广东广宇科技发展有限公司,50-150人,南海区,大专,未融资,"移动互联网,信息安全",113.175039,23.024609,全职,1-3年
397,4468310,实习 - 自动驾驶（软件）系统工程师,广州,2018-04-28 16:53:17,8.8,343783,Pony.ai,广州小马智行科技有限公司,50-150人,南沙区,本科,A轮,其他,113.545763,22.79408,实习,应届毕业生
398,3682894,分布式系统工程师/架构师,北京,2018-04-24 11:23:53,21.0,1575,百度,百度在线网络技术（北京）有限公司,2000人以上,海淀区,本科,不需要融资,"移动互联网,数据服务",116.273399,40.043429,全职,不限
399,4409937,算法/研发工程师-搜索与推荐-推荐系统工程师,北京,2018-04-23 10:05:25,28.0,520,小米,北京小米科技有限责任公司,2000人以上,海淀区,本科,D轮及以上,移动互联网,0.0,0.0,全职,3-5年
400,4366164,高级Linux系统工程师,上海,2018-04-26 18:46:48,14.0,38744,微财富,上海微汇金融信息服务有限公司,150-500人,浦东新区,不限,A轮,金融,121.53471,31.21749,全职,3-5年
401,4476129,视频图像处理系统工程师,深圳,2018-04-24 19:36:27,21.0,101,迅雷,深圳市迅雷网络技术有限公司,500-2000人,南山区,本科,上市公司,移动互联网,113.93851,22.54505,全职,3-5年
402,3778943,windows 系统工程师,广州,2018-04-25 16:35:37,12.0,196957,宝供一站网,广东一站网络科技有限公司,2000人以上,天河区,本科,不需要融资,"电子商务,生活服务",0.0,0.0,全职,3-5年
403,3531122,安卓系统工程师,广州,2018-04-28 15:37:46,17.0,31465,乐源数字,广东乐源数字技术有限公司,150-500人,萝岗区,本科,A轮,"移动互联网 ,电子商务",113.495432,23.154434,全职,3-5年
404,3635688,嵌入式系统工程师,杭州,2018-04-09 15:06:33,17.8,171980,Rokid,芋头科技（杭州）有限公司,150-500人,余杭区,本科,B轮,"电子商务,移动互联网",120.044596,30.254907,全职,3-5年
405,3796079,高级自动驾驶仿真系统工程师,北京,2018-04-27 12:02:36,35.0,50702,美团点评,北京三快在线科技有限公司,2000人以上,朝阳区,本科,D轮及以上,"移动互联网,O2O",121.417969,31.217836,全职,3-5年
406,4287622,SIP系统工程师-深圳-01515,深圳,2018-04-22 19:28:23,14.0,16831,武汉佰钧成技术有限公司,武汉佰钧成技术有限责任公司,2000人以上,龙岗区,本科,不需要融资,移动互联网,0.0,0.0,全职,5-10年
407,3300761,Android系统工程师,广州,2018-04-28 15:37:46,12.0,31465,乐源数字,广东乐源数字技术有限公司,150-500人,萝岗区,本科,A轮,"移动互联网 ,电子商务",113.495432,23.154434,全职,1-3年
408,4387952,自动驾驶系统工程师,杭州,2018-04-09 13:08:19,14.0,253571,安徽云乐,安徽云乐新能源汽车有限公司,15-50人,下沙,本科,B轮,其他,120.371349,30.303375,全职,不限
409,4377581,大数据系统工程师（小米金融）,北京,2018-04-30 08:59:55,35.0,520,小米,北京小米科技有限责任公司,2000人以上,海淀区,本科,D轮及以上,移动互联网,116.333919,40.027557,全职,3-5年
410,2862528,机器人系统工程师,北京,2018-04-19 12:49:48,11.2,150860,梅卡曼德,梅卡曼德（北京）机器人科技有限公司,50-150人,海淀区,本科,A轮,"企业服务,硬件",116.337742,39.992894,全职,3-5年
411,4285010,网络系统工程师,深圳,2018-04-12 17:35:44,21.0,263888,万科商业地产平台总部,印力商用置业有限公司,500-2000人,福田区,本科,不需要融资,"数据服务,电子商务",114.055036,22.52153,全职,5-10年
412,4425965,Linux系统工程师,北京,2018-04-27 11:15:41,14.0,28393,爱云校,北京修齐治平科技有限公司,500-2000人,朝阳区,本科,C轮,"教育,数据服务",116.481459,39.99646,全职,3-5年
413,4000261,高级linux系统工程师,北京,2018-04-28 16:51:12,24.0,53,聚美优品,北京创锐文化传媒有限公司,2000人以上,东城区,本科,上市公司,电子商务,116.43296,39.93482006,全职,1-3年
414,4364781,嵌入式开发系统工程师,苏州,2018-04-25 09:41:54,21.0,94,思必驰科技,苏州思必驰信息科技有限公司,150-500人,工业园区,本科,C轮,企业服务,120.723343,31.324036,全职,3-5年
415,918239,Linux系统工程师,上海,2018-04-28 16:33:40,21.0,42899,小蚁,上海小蚁科技有限公司,150-500人,浦东新区,本科,C轮,"移动互联网,硬件",116.33346224,40.02762128,全职,1-3年
416,4481632,(R2)区块链AI平台系统工程师,杭州,2018-04-27 10:51:43,35.0,83866,华院数据,华院数据技术（上海）有限公司,500-2000人,滨江区,不限,C轮,"企业服务,数据服务",120.138631,30.186537,全职,不限
417,4295248,AIX系统工程师,深圳,2018-04-19 19:11:08,13.6,40458,中亦科技,北京中亦安图科技股份有限公司,150-500人,福田区,本科,不需要融资,"金融,数据服务",114.025497,22.535081,全职,3-5年
418,4014970,推荐系统工程师,北京,2018-04-28 13:26:55,35.0,284128,NewsJet,北京智分科技有限公司,50-150人,海淀区,本科,不需要融资,移动互联网,116.351631,39.977163,全职,3-5年
419,4106527,嵌入式硬件整机系统工程师,深圳,2018-04-28 09:27:31,21.0,95529,云天励飞,深圳云天励飞技术有限公司,150-500人,福田区,本科,A轮,移动互联网,114.094401,22.540685,全职,5-10年
420,3795423,高级自动驾驶仿真系统工程师,北京,2018-04-27 12:02:36,35.0,50702,美团点评,北京三快在线科技有限公司,2000人以上,朝阳区,本科,D轮及以上,"移动互联网,O2O",121.417969,31.217836,全职,3-5年
421,4159137,机器人系统工程师,深圳,2018-04-26 11:16:16,12.0,217708,大寰机器人,深圳市大寰机器人科技有限公司,少于15人,福田区,本科,天使轮,硬件,114.056197,22.563262,全职,1-3年
422,4488238,Android系统工程师,杭州,2018-04-26 15:45:01,8.8,61105,利尔达,利尔达科技集团股份有限公司,500-2000人,余杭区,不限,上市公司,"移动互联网,硬件",119.99215,30.27645,全职,1-3年
423,4247999,CRM资深系统工程师,杭州,2018-04-03 09:49:01,12.4,80387,传化股份,浙江传化股份有限公司,2000人以上,萧山区,本科,上市公司,其他,120.298401,30.219027,全职,5-10年
424,4085378,区块链系统工程师,北京,2018-04-26 12:30:59,35.0,107061,钉图互动,北京钉图互动科技有限公司,50-150人,丰台区,本科,天使轮,"移动互联网,社交网络",116.436253,39.855257,全职,3-5年
425,4066151,PCB系统工程师／主管／经理,杭州,2018-04-25 17:45:03,21.0,3430,青声网络,上海青声网络科技有限公司,150-500人,余杭区,本科,C轮,"移动互联网,文化娱乐",120.021972,30.275323,全职,3-5年
426,3110048,嵌入式系统工程师,深圳,2018-04-26 10:22:18,11.2,202952,未来汽车,未来汽车科技（深圳）有限公司,50-150人,龙岗区,大专,不需要融资,其他,114.216973,22.721999,全职,1-3年
427,4488281,射频系统工程师,南京,2018-04-26 15:47:53,15.2,53253,中新赛克,南京中新赛克科技有限责任公司,500-2000人,江宁区,本科,不需要融资,信息安全,118.779051,31.840333,全职,5-10年
428,4196409,区块链系统工程师,北京,2018-04-23 18:42:16,12.0,214708,联合天成,北京联合天成价值网络科技有限公司,15-50人,海淀区,硕士,A轮,"金融,数据服务",116.31328,39.981516,全职,不限
429,3395110,Linux 系统工程师,深圳,2018-04-22 14:05:40,22.8,153033,英思奇,深圳市英思奇信息咨询有限公司,50-150人,宝安区,本科,未融资,"移动互联网,电子商务",113.86185,22.572015,全职,3-5年
430,4149756,自动驾驶系统工程师,北京,2018-04-26 09:03:09,21.0,253486,HoloMatic,禾多科技（北京）有限公司,50-150人,朝阳区,本科,天使轮,"移动互联网,硬件",116.51109,40.027319,全职,1-3年
431,4103702,系统工程师（存储/虚拟化/备份）,上海,2018-04-25 15:27:58,24.0,40114,浦发银行,上海浦东发展银行股份有限公司,2000人以上,浦东新区,本科,上市公司,金融,121.99341,30.994275,全职,3-5年
432,2482925,推荐系统工程师,杭州,2018-04-12 08:59:58,19.0,26248,丁香园,观澜网络（杭州）有限公司,500-2000人,滨江区,本科,D轮及以上,"医疗健康,企业服务",120.202258,30.188678,全职,不限
433,4183490,嵌入式系统工程师,深圳,2018-04-19 15:12:14,13.2,330195,搜锐网络,深圳市搜锐网络科技有限公司,15-50人,南山区,本科,未融资,"移动互联网,企业服务",113.920791,22.531909,全职,1-3年
434,3376033,高级系统工程师（运维专家）,北京,2018-04-28 15:55:17,29.0,8103,汽车之家,北京车之家信息技术有限公司,2000人以上,海淀区,本科,上市公司,"移动互联网,文化娱乐",116.311989,39.979473,全职,5-10年
435,3750242,高级自动驾驶仿真系统工程师,北京,2018-04-25 10:16:04,33.0,50702,美团点评,北京三快在线科技有限公司,2000人以上,朝阳区,本科,D轮及以上,"移动互联网,O2O",116.486654,40.007208,全职,3-5年
436,2877433,Android系统工程师,北京,2018-04-25 13:51:02,19.0,151386,物灵,北京物灵智能科技有限公司,150-500人,朝阳区,本科,不需要融资,"硬件,移动互联网",116.483231,39.997737,全职,3-5年
437,4196413,区块链系统工程师,北京,2018-04-23 18:42:16,12.0,214708,联合天成,北京联合天成价值网络科技有限公司,15-50人,海淀区,硕士,A轮,"金融,数据服务",116.31328,39.981516,全职,应届毕业生
438,4211414,推荐系统工程师,北京,2018-04-24 14:18:46,49.0,929,最右,北京小川在线网络技术有限公司,150-500人,海淀区,本科,B轮,移动互联网,116.368056,39.980092,全职,3-5年
439,4323236,推荐系统工程师,北京,2018-04-27 19:24:47,24.8,10369,完美世界,完美世界（北京）软件科技发展有限公司,2000人以上,朝阳区,本科,上市公司,"移动互联网,游戏",116.42886,40.005201,全职,1-3年
440,4470372,资深嵌入式系统工程师,深圳,2018-04-24 10:41:31,24.0,38079,GYENNO,深圳市臻络科技有限公司,50-150人,南山区,本科,B轮,医疗健康,113.943777,22.528995,全职,5-10年
441,3601705,OA系统工程师,北京,2018-04-24 09:38:29,14.0,137505,复华控股,北京复华卓越商业管理有限公司,2000人以上,朝阳区,本科,不需要融资,"电子商务,O2O",116.462261,39.92798,全职,1-3年
442,4463655,linux系统工程师,杭州,2018-04-23 11:36:39,4.4,251255,维网科技,杭州维网科技有限公司,50-150人,余杭区,大专,未融资,"企业服务,数据服务",120.027156,30.270572,全职,1-3年
443,4271824,【安卓系统工程师】,武汉,2018-04-27 14:31:46,14.0,277312,微晟,微晟（武汉）技术有限公司,15-50人,洪山区,本科,不需要融资,"移动互联网,硬件",114.412546,30.500298,全职,3-5年
444,4398101,Linux系统工程师,上海,2018-04-10 16:51:54,12.0,362645,罗伯沃茨,罗伯沃茨机器人技术（上海）有限公司,15-50人,浦东新区,本科,未融资,其他,121.912697,30.871928,全职,1-3年
445,4256734,嵌入式系统工程师,北京,2018-04-28 16:45:19,16.8,154089,朗视仪器,北京朗视仪器有限公司,50-150人,海淀区,本科,C轮,医疗健康,116.334454,39.997432,全职,1-3年
446,4498929,Android系统工程师(J11921),北京,2018-04-28 13:49:27,19.0,178037,方正手迹,北京方正手迹数字技术有限公司,150-500人,海淀区,本科,不需要融资,移动互联网,0.0,0.0,全职,1-3年
447,4184240,Linux 系统工程师,西安,2018-03-30 14:54:22,7.2,308987,艾斯普,美奥多软件科技（西安）有限公司,150-500人,高新技术产业开发区,本科,不需要融资,移动互联网,108.842157,34.209447,全职,1-3年
448,4310681,Android系统工程师,福州,2018-04-28 10:43:17,14.0,44913,福州靠谱网络有限公司,福州靠谱网络有限公司,150-500人,鼓楼区,本科,B轮,移动互联网,119.25438,26.08259,全职,1-3年
449,4294333,推荐系统工程师,北京,2018-04-25 20:00:50,21.6,216917,阿里文娱,大鱼快乐有限公司,2000人以上,海淀区,本科,上市公司,"文化娱乐,移动互联网",116.312183,39.981536,全职,3-5年
450,4477003,人工智能推荐系统工程师,深圳,2018-04-25 09:35:17,21.0,319277,贵广网络,贵州省广播电视信息网络股份有限公司,2000人以上,南山区,本科,上市公司,其他,114.00475,22.5945,全职,不限
451,4364794,Android音频系统工程师,苏州,2018-04-25 09:41:54,21.0,94,思必驰科技,苏州思必驰信息科技有限公司,150-500人,工业园区,本科,C轮,企业服务,120.723343,31.324036,全职,3-5年
452,4315961,Linux系统工程师,北京,2018-04-28 09:26:37,14.0,113761,企鹅创新,企鹅创新（北京）科技有限公司,15-50人,朝阳区,本科,天使轮,"硬件,移动互联网",116.480792,39.996,全职,3-5年
453,3042720,嵌入式系统工程师,广州,2018-04-25 10:13:16,5.6,91287,广州卓振,广州卓振智能科技有限公司,50-150人,萝岗区,本科,未融资,移动互联网,113.44985,23.1635,全职,1-3年
454,2458698,嵌入式软硬件系统工程师--无人驾驶(J13284),杭州,2018-04-28 10:26:33,21.0,2474,滴滴出行,北京嘀嘀无限科技发展有限公司,2000人以上,西湖区,本科,不需要融资,移动互联网,120.121008,30.279717,全职,3-5年
455,4139237,Android系统工程师,深圳,2018-04-17 10:15:55,24.0,47928,海能达通信,海能达通信股份有限公司,2000人以上,南山区,本科,上市公司,"数据服务,信息安全",113.946628,22.550455,全职,10年以上
456,4428683,Linux系统工程师实习生,武汉,2018-04-16 16:59:11,4.2,343296,粤嵌科技,广州粤嵌通信科技股份有限公司武汉分公司,150-500人,洪山区,大专,上市公司,企业服务,114.355287,30.526426,全职,应届毕业生
457,4335452,物联网智能家居系统工程师,北京,2018-04-24 16:13:00,12.0,114603,中国信通院,中国信息通信研究院,2000人以上,海淀区,硕士,不需要融资,"信息安全,移动互联网",39.897445,116.331398,全职,不限
458,4258850,系统工程师 /运维开发（POC）,北京,2018-04-08 13:51:46,19.0,18497,九章云极科技,北京九章云极科技有限公司,150-500人,海淀区,本科,B轮,数据服务,116.310434,40.030142,全职,3-5年
459,3880135,Android Multimedia系统工程师,北京,2018-04-28 16:33:40,28.0,42899,小蚁,上海小蚁科技有限公司,150-500人,海淀区,本科,C轮,"移动互联网,硬件",116.283038,40.048633,全职,3-5年
460,4419923,嵌入式系统工程师,苏州,2018-04-13 17:37:04,10.8,365374,微纳自动化研究所,江苏集萃微纳自动化系统与装备技术研究所有限公司,50-150人,相城区,本科,未融资,"信息安全,数据服务",120.645744,31.419115,全职,3-5年
461,2921705,嵌入式系统工程师,上海,2018-04-16 09:20:37,10.8,78748,外资-升宝,升宝节能技术（上海）有限公司,50-150人,浦东新区,本科,B轮,"移动互联网,数据服务",121.62858,31.21046,全职,1-3年
462,4410885,Android系统工程师（蓝牙/WIFI方向）,深圳,2018-04-25 19:56:38,21.0,6927,OPPO,广东欧珀移动通信有限公司,2000人以上,南山区,本科,不需要融资,移动互联网,113.993578,22.99368,全职,3-5年
463,4234991,Java中间件系统工程师,深圳,2018-04-28 13:21:02,19.0,917,极光,深圳市和讯华谷信息技术有限公司,150-500人,南山区,本科,D轮及以上,"移动互联网,数据服务",113.907458,22.550007,全职,3-5年
464,2664150,嵌入式系统工程师,北京,2018-04-26 11:56:35,24.0,148931,睦星科技,睦星科技（北京）有限公司,15-50人,海淀区,本科,天使轮,"移动互联网,其他",116.314568,39.98439,全职,不限
465,1396283,行车记录仪嵌入式系统工程师,上海,2018-04-28 16:33:40,21.0,42899,小蚁,上海小蚁科技有限公司,150-500人,浦东新区,本科,C轮,"移动互联网,硬件",116.33346224,40.02762128,全职,3-5年
466,3855162,Android系统工程师,上海,2018-04-26 09:32:51,14.0,167336,仪电数字,上海仪电数字技术股份有限公司,50-150人,徐汇区,本科,不需要融资,"数据服务,移动互联网",121.408157,31.168709,全职,3-5年
467,3758234,嵌入式系统工程师,上海,2018-04-28 10:51:20,21.0,278296,蜂电科技,上海蜂电网络科技有限公司,50-150人,浦东新区,本科,A轮,"硬件,移动互联网",121.605094,31.180679,全职,5-10年
468,2662556,Android系统工程师,深圳,2018-04-25 19:56:38,21.0,6927,OPPO,广东欧珀移动通信有限公司,2000人以上,南山区,本科,不需要融资,移动互联网,113.943044,22.518792,全职,3-5年
469,4468325,实习 - 自动驾驶（硬件）系统工程师,广州,2018-04-28 16:53:17,8.8,343783,Pony.ai,广州小马智行科技有限公司,50-150人,南沙区,硕士,A轮,其他,113.545763,22.79408,全职,应届毕业生
470,4373913,EHR信息系统工程师,上海,2018-04-28 14:26:33,17.0,63922,麦子金服,上海诺诺镑客金融信息服务有限公司,500-2000人,浦东新区,大专,A轮,"移动互联网,金融",121.519043,31.208744,全职,1-3年
471,4379019,嵌入式视频系统工程师,北京,2018-04-16 12:14:10,14.0,141931,otureo,泓图睿语（北京）科技有限公司,15-50人,海淀区,本科,天使轮,其他,115.99339,39.99426,全职,3-5年
472,4084782,高级嵌入式系统工程师,上海,2018-04-11 19:58:57,11.0,132315,上海普慧,上海普慧信息科技有限公司,少于15人,浦东新区,本科,不需要融资,"移动互联网,其他",121.879622,30.897633,全职,3-5年
473,3844355,高级Windows系统工程师,上海,2018-04-25 17:51:53,21.0,181489,极盛科技,珠海横琴极盛科技有限公司,500-2000人,浦东新区,本科,上市公司,"移动互联网,金融",121.531728,31.216657,全职,3-5年
474,4400827,Linux系统工程师,北京,2018-04-16 12:09:50,14.0,245591,博跃科技,北京博跃科技有限公司,15-50人,海淀区,本科,不需要融资,"企业服务,数据服务",116.301432,40.053191,全职,5-10年
475,4323615,高级Linux系统工程师,上海,2018-04-16 17:06:57,7.0,352068,EXEC,上海精良软件有限公司,少于15人,黄浦区,本科,未融资,"移动互联网,硬件",121.478714,31.224529,全职,1-3年
476,2000435,深度学习系统工程师,广州,2018-04-29 15:36:07,32.8,129877,航仕科技,上海航仕企业管理有限公司,150-500人,天河区,本科,C轮,"移动互联网,O2O",113.36663,23.122032,全职,3-5年
477,3945064,Android Framework系统工程师,北京,2018-04-28 16:45:22,21.0,141309,讯飞幻境,讯飞幻境（北京）科技有限公司,50-150人,海淀区,不限,A轮,教育,116.269931,40.048636,全职,3-5年
478,4093131,ROS机器人系统工程师（无人驾驶）,杭州,2018-04-18 14:14:25,21.0,136597,亿咖通科技,浙江亿咖通科技有限公司,500-2000人,滨江区,硕士,不需要融资,"移动互联网,硬件",,,全职,不限
479,4484087,android系统工程师,深圳,2018-04-26 09:24:56,12.0,67796,fcar,深圳市爱夫卡科技股份有限公司,150-500人,南山区,大专,未融资,其他,113.93084,22.541784,全职,3-5年
480,4455141,Android系统工程师,深圳,2018-04-25 19:56:40,28.0,6927,OPPO,广东欧珀移动通信有限公司,2000人以上,南山区,本科,不需要融资,移动互联网,113.943044,22.518785,全职,3-5年
481,1871559,Android Framework系统工程师,上海,2018-04-28 16:33:40,25.2,42899,小蚁,上海小蚁科技有限公司,150-500人,浦东新区,本科,C轮,"移动互联网,硬件",121.60033681,31.20751133,全职,5-10年
482,4477121,Linux系统工程师,上海,2018-04-25 09:46:03,10.8,242652,上海阳光奥美,北京阳光奥美财务顾问有限公司上海分公司,500-2000人,浦东新区,不限,未融资,企业服务,121.527989,31.224586,全职,不限
483,4467071,推荐系统工程师,北京,2018-04-23 16:49:59,21.0,4602,雪球,北京雪球信息科技有限公司,150-500人,朝阳区,硕士,C轮,"社交网络,金融",116.480939,39.996276,全职,1-3年
484,4276313,IOS系统工程师、逆向工程师,广州,2018-04-16 10:51:47,21.0,178512,熊猫玩,广州锦游科技有限公司,15-50人,天河区,大专,未融资,游戏,113.377313,23.126984,全职,1-3年
485,4157810,Android Multimedia系统工程师,北京,2018-04-28 10:55:48,28.0,520,小米,北京小米科技有限责任公司,2000人以上,海淀区,本科,D轮及以上,移动互联网,116.33376,40.02773,全职,5-10年
486,4447723,Android系统工程师,南京,2018-04-19 10:58:22,14.0,368466,国美通讯,上海爱优威软件开发有限公司,500-2000人,雨花台区,大专,上市公司,"移动互联网,其他",118.758394,31.974204,全职,3-5年
487,3308937,推荐系统工程师,上海,2018-04-24 10:14:13,28.0,6542,小红书,行吟信息科技（上海）有限公司,500-2000人,黄浦区,本科,C轮,"生活服务,电子商务",121.4744,31.215118,全职,不限
488,3592748,Linux系统工程师,杭州,2018-04-18 11:43:02,14.0,50354,百世物流,浙江百世技术有限公司,2000人以上,西湖区,本科,D轮及以上,"移动互联网,O2O",120.12211,30.27455,全职,不限
489,4147680,Android系统工程师,深圳,2018-04-21 11:53:06,14.0,23411,金锐显数码,深圳市金锐显数码科技有限公司,500-2000人,南山区,本科,上市公司,"文化娱乐,硬件",113.940093,22.539954,全职,3-5年
490,4366738,安卓系统工程师/驱动工程师,珠海,2018-04-03 14:40:11,13.2,302489,埼耀科技,珠海市埼耀科技有限公司,50-150人,香洲区,大专,未融资,移动互联网,0.0,0.0,全职,3-5年
491,2737741,Android/Linux系统工程师,深圳,2018-04-28 09:57:54,12.6,125911,兴天实业,兴天实业（深圳）有限公司,50-150人,南山区,大专,不需要融资,硬件,113.993578,22.99368,全职,3-5年
492,4497138,Linux系统工程师,北京,2018-04-28 09:54:14,12.6,305008,盛科天冠,盛科天冠（北京）信息技术有限公司,50-150人,海淀区,本科,不需要融资,移动互联网,116.288397,40.048882,全职,3-5年
493,4221827,自动化测试系统工程师,北京,2018-04-24 16:13:00,12.0,114603,中国信通院,中国信息通信研究院,2000人以上,海淀区,本科,不需要融资,"信息安全,移动互联网",39.897445,116.331398,全职,3-5年
494,4358495,资深Android系统工程师,上海,2018-04-02 11:12:39,19.0,279849,徕尼科技,上海徕尼智能科技有限公司,少于15人,浦东新区,硕士,天使轮,"移动互联网,硬件",121.606666,31.203052,全职,3-5年
495,4483277,Android系统工程师,杭州,2018-04-25 18:47:43,13.2,148345,西纬科技,成都西纬科技有限公司,150-500人,滨江区,本科,不需要融资,"移动互联网,硬件",120.193491,30.188879,全职,1-3年
496,4242985,嵌入式系统工程师,北京,2018-04-25 15:36:12,17.8,112030,翼辉信息,北京翼辉信息技术有限公司,50-150人,海淀区,本科,A轮,移动互联网,116.158791,40.065262,全职,1-3年
497,4248539,系统工程师 (LINUX),广州,2018-04-24 17:21:55,10.8,337046,广州宏朗,广州市宏朗商品信息咨询有限公司,50-150人,番禺区,大专,不需要融资,电子商务,113.365603,22.940624,全职,3-5年
498,4483582,Android系统工程师,杭州,2018-04-25 20:09:31,13.2,340885,杭州西纬,杭州西纬软件科技有限公司,15-50人,滨江区,本科,不需要融资,"移动互联网,其他",120.193491,30.188879,全职,1-3年
499,3056452,嵌入式系统工程师,上海,2018-04-23 15:23:37,11.2,115522,TrustKernel,上海瓶钵信息科技有限公司,少于15人,闵行区,本科,未融资,"移动互联网,信息安全",121.42104,31.02677,全职,不限
500,3944332,Android系统工程师,大连,2018-04-13 15:29:49,5.6,104038,博石世纪,大连博石世纪科技有限公司,50-150人,甘井子区,大专,不需要融资,移动互联网,121.52642,38.859567,全职,不限
501,4034040,android系统工程师,深圳,2018-04-27 09:23:29,14.0,10941,和而泰,深圳和而泰智能控制股份有限公司,2000人以上,南山区,本科,上市公司,移动互联网,113.954321,22.537693,全职,3-5年
502,4455070,实习运维系统工程师,上海,2018-04-25 10:30:27,2.8,331164,塔链,上海塔链网络科技有限公司,15-50人,普陀区,不限,天使轮,"移动互联网,数据服务",121.391394,31.233114,实习,不限
503,3965107,深度学习系统工程师,北京,2018-04-27 12:06:45,35.0,1561,Face++,北京旷视科技有限公司,500-2000人,海淀区,本科,C轮,"移动互联网,硬件",116.325436,39.984273,全职,3-5年
504,4363095,机器学习系统工程师,北京,2018-04-28 18:45:33,14.0,243838,羿娲科技,北京羿娲科技有限公司,15-50人,海淀区,本科,天使轮,"硬件,移动互联网",116.333786,39.988063,全职,3-5年
505,4302680,硬件生态渠道事业部_系统工程师,北京,2018-04-27 18:19:26,14.0,1575,百度,百度在线网络技术（北京）有限公司,2000人以上,海淀区,本科,不需要融资,"移动互联网,数据服务",116.301396,40.050909,全职,3-5年
506,4431148,推荐系统工程师,北京,2018-04-24 14:47:48,28.0,344221,尊嘉金融,尊嘉金融控股有限公司,50-150人,朝阳区,本科,不需要融资,移动互联网、金融,116.447714,39.971234,全职,3-5年
507,4179026,android系统工程师,深圳,2018-04-19 15:12:18,10.8,330195,搜锐网络,深圳市搜锐网络科技有限公司,15-50人,南山区,不限,未融资,"移动互联网,企业服务",113.920791,22.531909,全职,1-3年
508,4040531,Linux 嵌入式系统工程师,武汉,2018-04-29 10:21:10,10.8,145034,智在家,武汉智在家科技有限责任公司,少于15人,东湖新技术开发区,本科,未融资,"硬件,电子商务",,,全职,3-5年
509,3308759,Android系统工程师,北京,2018-04-26 16:02:22,14.0,54788,X.Y.Link,北京轩辕联科技有限公司,15-50人,海淀区,大专,A轮,"移动互联网,硬件",116.301301,40.055095,全职,3-5年
510,3098411,Android系统工程师,深圳,2018-04-28 10:20:36,8.4,184241,潮越互动科技,深圳市潮越互动科技有限公司,50-150人,宝安区,大专,不需要融资,移动互联网,113.864362,22.584097,全职,1-3年
511,4028370,C#系统工程师,成都,2018-04-26 15:36:17,14.0,13571,Intasect,音泰思计算机技术（成都）有限公司,150-500人,锦江区,本科,未融资,"移动互联网,企业服务",104.0896,30.64774,全职,5-10年
512,4468454,Android系统工程师,西安,2018-04-23 18:58:40,15.4,366406,Cvte,广州视琨电子科技有限公司,2000人以上,曲江新区,本科,上市公司,其他、企业服务,108.961465,34.189372,全职,1-3年
513,4205900,Android高级系统工程师,深圳,2018-04-26 17:49:26,16.2,40701,掌酷软件,深圳掌酷软件有限公司,50-150人,南山区,本科,A轮,移动互联网,113.93874,22.5222,全职,5-10年
514,4367626,推荐/精准营销系统工程师（深圳）,深圳,2018-04-20 15:05:34,26.0,451,腾讯,腾讯科技(深圳)有限公司,2000人以上,南山区,本科,上市公司,"移动互联网 ,游戏",0.0,0.0,全职,3-5年
515,4216173,Android系统工程师,深圳,2018-04-20 09:29:32,14.0,247521,鸿合科技,深圳市鸿合创新信息技术有限责任公司,500-2000人,南山区,本科,不需要融资,"教育,硬件",113.938021,22.523898,全职,3-5年
516,2846444,推荐系统工程师,北京,2018-04-25 13:23:54,35.0,520,小米,北京小米科技有限责任公司,2000人以上,海淀区,本科,D轮及以上,移动互联网,116.332762,40.030489,全职,3-5年
517,706176,Android系统工程师,北京,2018-04-23 17:45:36,12.0,73081,讲究 &middot; 全球GO,北京伊系信息技术有限公司,15-50人,朝阳区,本科,天使轮,"移动互联网,电子商务",116.485112,39.989451,全职,3-5年
518,4092764,推荐系统工程师,北京,2018-04-28 11:45:01,24.0,59251,映客,北京蜜莱坞网络科技有限公司,500-2000人,朝阳区,本科,C轮,"移动互联网,文化娱乐",0.0,0.0,全职,3-5年
519,921767,Android高级系统工程师,北京,2018-04-23 15:42:32,21.0,73176,瑞华信通,北京瑞华信通信息技术有限公司,15-50人,海淀区,本科,A轮,移动互联网,116.35556591,39.98805993,全职,1-3年
520,3941048,高级安卓系统工程师,深圳,2018-04-27 16:27:45,17.0,158488,Wisecard，慧卡科技,深圳慧卡科技有限公司,15-50人,南山区,本科,未融资,"信息安全,金融",113.939751,22.545493,全职,1-3年
521,4299529,高级C#系统工程师,北京,2018-04-26 11:50:48,24.0,86456,Baca,五洲万象（北京）科技有限公司,15-50人,海淀区,本科,A轮,移动互联网,116.310129,39.98359,全职,3-5年
522,4255176,Android 系统工程师,深圳,2018-04-21 11:54:43,14.0,134617,智行至美,深圳市智行至美科技有限公司,15-50人,宝安区,本科,A轮,"硬件,生活服务",113.866483,22.567227,全职,3-5年
523,3522215,android系统工程师,西安,2018-04-27 12:02:18,14.0,194932,优克联,深圳优克云联科技有限公司,500-2000人,高新技术产业开发区,本科,A轮,移动互联网,108.879751,34.213613,全职,3-5年
524,4362969,安卓逆向系统工程师,北京,2018-04-02 19:24:03,38.0,253871,天神娱乐北分,大连天神娱乐股份有限公司北京分公司,500-2000人,朝阳区,本科,上市公司,游戏,116.517066,39.937483,全职,3-5年
525,4382495,22989-推荐/精准营销系统工程师（深圳/北京）,北京,2018-04-08 15:30:57,35.0,451,腾讯,腾讯科技(深圳)有限公司,2000人以上,海淀区,本科,上市公司,"移动互联网 ,游戏",116.306337,39.981802,全职,3-5年
526,4158216,Android Framework系统工程师,北京,2018-04-28 10:55:49,26.0,520,小米,北京小米科技有限责任公司,2000人以上,海淀区,本科,D轮及以上,移动互联网,116.33376,40.02773,全职,3-5年
527,4371683,Android系统工程师,深圳,2018-04-04 11:15:42,11.4,30776,MStar晨星软件,晨星软件研发（深圳）有限公司,500-2000人,南山区,本科,上市公司,移动互联网,113.95288,22.541521,全职,1-3年
528,4188646,Android系统工程师,广州,2018-04-17 18:17:36,14.0,157637,robustel,广州鲁邦通物联网科技有限公司,150-500人,天河区,本科,未融资,"硬件,数据服务",113.407289,23.150758,全职,3-5年
529,4360929,机器学习系统工程师,上海,2018-04-30 14:43:01,35.0,133217,乐言科技,上海乐言信息科技有限公司,50-150人,徐汇区,硕士,A轮,企业服务,121.43166,31.19276,全职,3-5年
530,4371697,Android系统工程师(new),深圳,2018-04-28 09:57:54,9.6,125911,兴天实业,兴天实业（深圳）有限公司,50-150人,南山区,本科,不需要融资,硬件,113.993578,22.99368,全职,1-3年
531,3979733,Android系统工程师,深圳,2018-04-18 14:17:14,21.0,17433,新国都,深圳市新国都技术股份有限公司,500-2000人,南山区,本科,上市公司,"金融,硬件",113.935638,22.54855,全职,5-10年
532,4391658,Android系统工程师,长沙,2018-04-09 18:11:41,10.0,73523,创嘉,福建创意嘉和软件有限公司,150-500人,岳麓区,大专,B轮,游戏,112.944665,28.223673,全职,3-5年
533,4218619,安卓系统工程师,北京,2018-04-24 15:50:28,21.0,331061,艾牛科技,艾牛（北京）科技有限公司,50-150人,海淀区,本科,A轮,"移动互联网,教育",116.156815,40.066291,全职,3-5年
534,3955577,安卓系统工程师,成都,2018-04-24 11:39:47,9.6,127411,谛达诺科技,四川谛达诺科技有限公司,15-50人,高新区,本科,天使轮,"医疗健康,移动互联网",103.973956,30.734888,全职,3-5年
535,1199158,java系统工程师,长沙,2018-04-08 22:50:53,10.8,58973,朗通系统,长沙朗通计算机系统服务有限公司,15-50人,岳麓区,本科,未融资,移动互联网,112.885628,28.207881,全职,3-5年
536,4430744,高级安卓系统工程师,深圳,2018-04-17 09:03:41,21.0,110849,普天宜通,深圳市普天宜通技术股份有限公司,150-500人,南山区,本科,上市公司,"其他,移动互联网",113.927179,22.51696,全职,3-5年
537,3225109,反垃圾系统工程师（PHP\JAVA）,北京,2018-04-24 13:37:27,21.0,70,宝宝树,宝宝树（北京）信息技术有限公司,500-2000人,朝阳区,本科,D轮及以上,社交网络,115.99339,39.99426,全职,1-3年
538,4476868,Android系统工程师（智能音箱）,深圳,2018-04-25 09:16:41,14.0,9773,感臻,深圳感臻科技有限公司,50-150人,南山区,本科,未融资,硬件,113.950251,22.550375,全职,1-3年
539,4215147,机器学习系统工程师,上海,2018-04-23 18:35:25,14.0,110641,CreditX,上海氪信信息技术有限公司,50-150人,黄浦区,本科,B轮,"金融,数据服务",121.416106,31.197577,全职,不限
540,4382463,22989-推荐/精准营销系统工程师（深圳/北京）,深圳,2018-04-08 15:28:50,35.0,451,腾讯,腾讯科技(深圳)有限公司,2000人以上,南山区,本科,上市公司,"移动互联网 ,游戏",113.93362,22.540719,全职,3-5年
541,4158060,Android WIFI系统工程师-小米电视,北京,2018-04-28 10:55:49,26.0,520,小米,北京小米科技有限责任公司,2000人以上,海淀区,本科,D轮及以上,移动互联网,116.33376,40.02773,全职,3-5年
542,3786043,深度学习系统工程师,北京,2018-04-12 20:43:11,14.0,279882,中科弘云,中科弘云科技（北京）有限公司,15-50人,海淀区,硕士,天使轮,"数据服务,其他",116.235791,40.076334,全职,应届毕业生
543,3452715,系统工程师,石家庄,2018-04-27 18:47:58,5.6,26467,思华科技,上海思华科技股份有限公司,150-500人,裕华区,不限,D轮及以上,移动互联网,114.541638,38.034752,全职,1-3年
544,3062932,系统工程师（云计算）,北京,2018-04-27 10:56:41,14.0,83725,切尔思科技,北京切尔思科技有限公司,15-50人,海淀区,大专,未融资,"移动互联网,数据服务",116.32494,39.96454,全职,3-5年
545,4024493,感知系统工程师,北京,2018-04-04 04:35:18,42.0,293935,景驰,上海景驰汽车科技有限公司,50-150人,海淀区,硕士,天使轮,移动互联网,0.0,0.0,全职,3-5年
546,3756560,IVI系统工程师-系统管理方向,北京,2018-04-25 21:20:30,26.0,87977,车和家,北京车和家信息技术有限责任公司,500-2000人,朝阳区,本科,B轮,其他,116.993595,39.993662,全职,3-5年
547,3756541,IVI系统工程师-显示及交互方向,北京,2018-04-25 21:20:30,26.0,87977,车和家,北京车和家信息技术有限责任公司,500-2000人,朝阳区,本科,B轮,其他,116.993595,39.993662,全职,3-5年
548,4024469,雷达感知系统工程师,北京,2018-04-04 04:35:10,42.0,293935,景驰,上海景驰汽车科技有限公司,50-150人,海淀区,硕士,天使轮,移动互联网,0.0,0.0,全职,3-5年
549,3886132,雷达感知系统工程师,广州,2018-04-04 04:37:53,42.0,293935,景驰,上海景驰汽车科技有限公司,50-150人,黄埔区,本科,天使轮,移动互联网,113.459749,23.106402,全职,3-5年
550,3853684,系统工程师（暖通方向）,佛山,2018-04-13 09:37:20,28.0,166298,美的中央空调,广东美的暖通设备有限公司,2000人以上,顺德区,本科,上市公司,其他,113.207655,22.909009,全职,5-10年
551,4368464,系统工程师（暖通方向）,广州,2018-04-13 09:37:19,28.0,166298,美的中央空调,广东美的暖通设备有限公司,2000人以上,海珠区,本科,上市公司,其他,113.339142,23.10774,全职,5-10年
552,4224205,高级基础设施研发系统工程师,北京,2018-04-24 20:12:15,28.0,62,字节跳动,北京字节跳动科技有限公司,2000人以上,海淀区,本科,C轮,"移动互联网,数据服务",116.332602,39.971268,全职,1-3年
553,4096874,AI Lab语音系统工程师,北京,2018-04-24 20:11:17,28.0,62,字节跳动,北京字节跳动科技有限公司,2000人以上,海淀区,本科,C轮,"移动互联网,数据服务",116.332602,39.971268,全职,3-5年
554,3756406,零部件系统工程师,北京,2018-04-25 21:20:31,26.0,87977,车和家,北京车和家信息技术有限责任公司,500-2000人,朝阳区,本科,B轮,其他,116.993595,39.993662,全职,3-5年
555,4224203,高级性能优化系统工程师,北京,2018-04-24 20:12:14,28.0,62,字节跳动,北京字节跳动科技有限公司,2000人以上,海淀区,本科,C轮,"移动互联网,数据服务",116.332602,39.971268,全职,1-3年
556,3490768,分布式系统工程师,上海,2018-04-27 11:40:39,35.0,225377,zilliz,上海赜睿信息科技有限公司,15-50人,徐汇区,本科,A轮,"企业服务,数据服务",121.443059,31.188309,全职,3-5年
557,4191721,数据库系统工程师,深圳,2018-04-27 11:40:39,35.0,225377,zilliz,上海赜睿信息科技有限公司,15-50人,南山区,本科,A轮,"企业服务,数据服务",113.943551,22.548179,全职,3-5年
558,2851084,系统工程师（云桌面）（深圳）,深圳,2018-04-26 17:22:18,14.0,24748,平安科技,平安科技（深圳）有限公司,2000人以上,福田区,本科,不需要融资,金融,114.09938142,22.55951564,全职,不限
559,4191728,数据库系统工程师,杭州,2018-04-27 11:40:39,35.0,225377,zilliz,上海赜睿信息科技有限公司,15-50人,余杭区,本科,A轮,"企业服务,数据服务",120.00536,30.287475,全职,3-5年
560,4224208,高级网络系统工程师,北京,2018-04-24 20:12:15,28.0,62,字节跳动,北京字节跳动科技有限公司,2000人以上,海淀区,本科,C轮,"移动互联网,数据服务",116.332602,39.971268,全职,1-3年
561,2727484,资深windows系统工程师（深圳）,深圳,2018-04-26 17:22:19,21.0,24748,平安科技,平安科技（深圳）有限公司,2000人以上,福田区,本科,不需要融资,金融,114.09938142,22.55951564,全职,不限
562,4044437,无人配送-嵌入式系统工程师,北京,2018-04-27 12:02:36,35.0,50702,美团点评,北京三快在线科技有限公司,2000人以上,朝阳区,本科,D轮及以上,"移动互联网,O2O",121.417969,31.217836,全职,3-5年
563,4224207,高级CDN研发系统工程师,北京,2018-04-24 20:12:15,28.0,62,字节跳动,北京字节跳动科技有限公司,2000人以上,海淀区,本科,C轮,"移动互联网,数据服务",116.332602,39.971268,全职,3-5年
564,4105099,数据库系统工程师（北京）,北京,2018-04-27 11:40:38,35.0,225377,zilliz,上海赜睿信息科技有限公司,15-50人,海淀区,本科,A轮,"企业服务,数据服务",116.314526,39.982338,全职,3-5年
565,3974034,高级嵌入式控制系统工程师-无人车,北京,2018-04-25 10:16:04,31.0,50702,美团点评,北京三快在线科技有限公司,2000人以上,朝阳区,本科,D轮及以上,"移动互联网,O2O",116.486654,40.007208,全职,5-10年
566,4044485,嵌入式系统工程师-无人机,北京,2018-04-25 10:16:04,26.0,50702,美团点评,北京三快在线科技有限公司,2000人以上,朝阳区,本科,D轮及以上,"移动互联网,O2O",116.486654,40.007208,全职,3-5年
567,4224204,高级数据库开发系统工程师,北京,2018-04-24 20:12:14,28.0,62,字节跳动,北京字节跳动科技有限公司,2000人以上,海淀区,本科,C轮,"移动互联网,数据服务",116.332602,39.971268,全职,1-3年
568,4224206,高级运维开发系统工程师,北京,2018-04-24 20:12:15,28.0,62,字节跳动,北京字节跳动科技有限公司,2000人以上,海淀区,本科,C轮,"移动互联网,数据服务",116.332602,39.971268,全职,1-3年
