,职位编码,职位名称,所在城市,发布日期,薪资待遇(k),公司编码,公司名称,公司全称,公司规模,所在区域,最低学历,融资状态,公司类型,经度,纬度,全职/实习,工作经验,吸引条件
0,4070140,系统安全工程师,西安,2018-05-02 10:56:48,18.2,20955,Yeahmobi,西安点告网络科技有限公司,150-500人,高新技术产业开发区,本科,上市公司,移动互联网,108.83696,34.207169,全职,3-5年,"['节日礼物', '技能培训', '绩效奖金', '年度旅游']"
1,2583589,系统安全工程师,哈尔滨,2018-05-02 11:18:32,4.8,38414,安天,哈尔滨安天科技股份有限公司,500-2000人,松北区,不限,未融资,信息安全,126.512155,45.798207,全职,3-5年,"['工程师文化', '年底双薪', '专项奖金', '免费班车']"
2,3264878,系统安全工程师,深圳,2018-05-02 09:51:45,17.0,179243,云集,浙江集商优选电子商务有限公司,500-2000人,宝安区,大专,B轮,"电子商务,移动互联网",113.864071,22.584243,全职,3-5年,"['绩效奖金', '股票期权', '五险一金', '午餐补助']"
3,4265450,系统安全工程师,北京,2018-05-03 00:14:29,28.0,36031,一起科技,上海一起作业信息科技有限公司,500-2000人,朝阳区,本科,D轮及以上,"移动互联网,教育",116.48597,40.000355,全职,5-10年,"['节日礼物', '岗位晋升', '扁平管理', '领导好']"
4,4233013,安全工程师（系统安全）-派遣岗J11087,西安,2018-05-02 10:17:04,15.8,30648,绿盟科技,北京神州绿盟信息安全科技股份有限公司,500-2000人,高新技术产业开发区,本科,上市公司,信息安全,108.893552,34.235398,全职,5-10年,"['技能培训', '节日礼物', '股票期权', '带薪年假']"
5,4483038,系统安全工程师,深圳,2018-05-02 09:17:15,24.0,165902,玖富证券,深圳市玖富网络科技有限公司,50-150人,南山区,本科,不需要融资,"移动互联网,金融",113.944775,22.546118,全职,5-10年,[]
6,4024454,系统安全工程师,北京,2018-05-02 10:52:45,24.0,29337,和信贷,和信电子商务有限公司,150-500人,朝阳区,本科,上市公司,金融,116.47094,39.90763,全职,3-5年,"['节日礼物', '专项奖金', '股票期权', '绩效奖金']"
7,4009348,系统安全工程师-无人车,北京,2018-05-02 10:10:43,26.0,50702,美团点评,北京三快在线科技有限公司,2000人以上,朝阳区,本科,D轮及以上,"移动互联网,O2O",116.486654,40.007208,全职,3-5年,"['技能培训', '绩效奖金', '岗位晋升', '领导好']"
8,4014609,系统安全工程师,北京,2018-04-26 15:58:20,21.0,262476,中化能源科技有限公司,中化石油有限公司,2000人以上,海淀区,本科,不需要融资,"移动互联网,电子商务",116.308811,39.983578,全职,5-10年,"['午餐补助', '年终分红']"
9,4181450,系统安全工程师,杭州,2018-05-02 09:07:16,14.0,21236,微医集团,浙江康健绿线网络技术有限公司,500-2000人,萧山区,本科,C轮,"移动互联网,医疗健康",120.247338,30.204082,全职,不限,"['技能培训', '年底双薪', '节日礼物', '绩效奖金']"
10,4389060,系统安全工程师,北京,2018-05-02 18:06:20,24.0,27807,现在支付,现在（北京）支付股份有限公司,150-500人,西城区,本科,上市公司,移动互联网,116.365539,39.940422,全职,3-5年,"['五险一金', '岗位晋升', '美女多', '领导好']"
11,4191639,系统安全工程师,上海,2018-04-17 10:18:22,21.0,21775,DJI大疆创新,深圳市大疆创新科技有限公司,2000人以上,浦东新区,本科,未融资,"移动互联网,硬件",121.583944,31.197664,全职,不限,"['朝阳行业', '丰厚薪资待遇', '年终发车', '扁平管理']"
12,4333722,系统安全工程师,北京,2018-05-02 10:06:53,17.8,3786,宜信,普信恒业科技发展（北京）有限公司,2000人以上,朝阳区,本科,上市公司,金融,0.0,0.0,全职,3-5年,"['管理规范', '技能培训', '扁平管理', '弹性工作']"
13,2233566,系统安全开发工程师,广州,2018-05-02 10:20:59,12.0,92075,大圣科技,大圣科技股份有限公司,150-500人,荔湾区,本科,不需要融资,"移动互联网,O2O",113.241864,23.099835,全职,3-5年,"['五险一金', '扁平管理', '岗位晋升']"
14,4498328,系统安全工程师,西安,2018-04-28 11:37:54,19.6,126890,yeahmobi,西安点告网络科技有限公司,150-500人,高新技术产业开发区,本科,不需要融资,移动互联网,108.90781,34.239272,全职,5-10年,[]
15,4116841,系统安全工程师,哈尔滨,2018-04-23 10:05:51,4.8,38414,安天,哈尔滨安天科技股份有限公司,500-2000人,松北区,本科,未融资,信息安全,126.512372,45.797877,全职,不限,"['工程师文化', '年底双薪', '专项奖金', '免费班车']"
16,4246901,区块链-系统安全工程师,西安,2018-05-02 10:56:47,18.4,20955,Yeahmobi,西安点告网络科技有限公司,150-500人,高新技术产业开发区,本科,上市公司,移动互联网,108.83696,34.207169,全职,5-10年,"['节日礼物', '技能培训', '绩效奖金', '年度旅游']"
17,3992198,高级系统安全工程师,北京,2018-05-02 10:06:51,26.0,3786,宜信,普信恒业科技发展（北京）有限公司,2000人以上,朝阳区,本科,上市公司,金融,0.0,0.0,全职,5-10年,"['管理规范', '技能培训', '扁平管理', '弹性工作']"
18,4149735,系统安全工程师（天津）,天津,2018-05-02 18:42:34,27.0,12189,天弘基金,天弘基金管理有限公司,500-2000人,河西区,本科,不需要融资,金融,117.213902,39.113165,全职,5-10年,"['互联网金融', '带薪年假', '岗位晋升', '扁平管理']"
19,3442675,系统安全工程师,上海,2018-04-20 15:37:14,19.0,146,DerbySoft,德比软件（上海）有限公司,150-500人,浦东新区,本科,C轮,旅游,121.53221,31.21473,全职,3-5年,"['午餐补贴', '期权激励', '技能培训', '弹性工作']"
20,4500584,系统安全负责人,北京,2018-05-02 10:12:36,56.0,62,字节跳动,北京字节跳动科技有限公司,2000人以上,海淀区,本科,C轮,"移动互联网,数据服务",39.971268,39.971268,全职,不限,"['扁平管理', '弹性工作', '大厨定制三餐', '就近租房补贴']"
21,4091031,【高级系统安全工程师】,北京,2018-04-26 10:21:32,26.0,313704,微壳,北京微光果壳科技有限公司,150-500人,海淀区,本科,不需要融资,"移动互联网,企业服务",116.308811,39.983578,全职,3-5年,"['六险一金', '年底双薪', '绩效奖金', '带薪年假']"
22,4398297,系统安全架构师,北京,2018-04-27 18:17:08,43.8,4476,傲游,北京傲游天下科技有限公司,150-500人,东城区,本科,B轮,"移动互联网,数据服务",116.422314,39.951235,全职,5-10年,"['六险一金', '弹性工作', '周末双休', '午餐补助']"
23,3555818,系统安全研究员(二进制方向),北京,2018-05-02 15:54:33,21.0,221192,墨云科技,北京墨云科技有限公司,15-50人,海淀区,本科,A轮,信息安全,116.309199,40.040518,全职,1-3年,"['股票期权', '午餐补助', '交通补助', '领导好']"
24,2626131,系统安全研究员,杭州,2018-05-02 11:02:49,19.0,6462,安恒信息,杭州安恒信息技术有限公司,500-2000人,滨江区,本科,不需要融资,"信息安全 ,数据服务",120.21425,30.209525,全职,1-3年,"['年终分红', '股票期权', '绩效奖金', '五险一金']"
25,4496699,系统安全工程师,北京,2018-05-02 14:00:23,21.6,451,腾讯,腾讯科技(深圳)有限公司,2000人以上,海淀区,本科,上市公司,"移动互联网 ,游戏",116.306337,39.981802,全职,1-3年,"['免费班车', '成长空间', '年度旅游', '岗位晋升']"
26,4046372,系统安全工程师,北京,2018-04-23 16:18:31,28.0,262476,中化能源科技有限公司,中化石油有限公司,2000人以上,海淀区,不限,不需要融资,"移动互联网,电子商务",0.0,0.0,全职,3-5年,"['午餐补助', '年终分红']"
27,3970259,系统安全工程师,广州,2018-04-13 11:24:10,19.0,137090,美至简,广州市美至简网络科技有限公司,15-50人,天河区,大专,未融资,"移动互联网,O2O",113.32349,23.142785,全职,3-5年,[]
28,4389528,系统安全架构师-售前方向,广州,2018-04-09 15:25:52,12.0,144700,南天,广州南天电脑系统有限公司,500-2000人,天河区,不限,上市公司,数据服务,113.37262,23.12415,全职,不限,"['定期体检', '年度旅游', '五险一金', '带薪年假']"
29,3742027,系统安全开发工程师,北京,2018-05-02 15:59:08,23.8,520,小米,北京小米科技有限责任公司,2000人以上,海淀区,本科,D轮及以上,移动互联网,116.332762,40.030489,全职,不限,"['快速成长', '免费班车', '扁平管理', '技能培训']"
30,4149710,系统安全工程师（北京）,北京,2018-05-02 18:42:34,27.0,12189,天弘基金,天弘基金管理有限公司,500-2000人,西城区,本科,不需要融资,金融,116.354083,39.917915,全职,5-10年,"['互联网金融', '带薪年假', '岗位晋升', '扁平管理']"
31,4033899,MIG07-系统安全研究员（北京）,深圳,2018-05-02 09:40:12,25.2,451,腾讯,腾讯科技(深圳)有限公司,2000人以上,南山区,本科,上市公司,"移动互联网 ,游戏",113.935333,22.540406,全职,3-5年,"['免费班车', '成长空间', '年度旅游', '岗位晋升']"
32,3982124,系统安全产品经理,深圳,2018-04-25 19:56:39,21.0,6927,OPPO,广东欧珀移动通信有限公司,2000人以上,南山区,本科,不需要融资,移动互联网,113.943044,22.518792,全职,3-5年,"['丰厚年终', '扁平管理', '追求极致', '本分']"
33,4454828,系统安全运维,上海,2018-04-20 10:57:35,18.2,110473,全民直播,上海脉淼信息科技有限公司,150-500人,浦东新区,本科,A轮,移动互联网,121.628463,31.209182,全职,3-5年,"['年底双薪', '带薪年假', '午餐补助', '定期体检']"
34,4246890,产品系统安全架构师/高级工程师,深圳,2018-05-03 09:21:29,28.0,95529,云天励飞,深圳云天励飞技术有限公司,150-500人,福田区,本科,A轮,移动互联网,114.094401,22.540685,全职,不限,"['节日礼物', '带薪年假', '年度旅游', '开放务实']"
35,3992912,信息系统安全审计工程师(001820),西安,2018-05-02 09:03:14,8.8,57353,中移在线服务有限公司,中移在线服务有限公司,2000人以上,未央区,本科,不需要融资,移动互联网,39.897445,116.331398,全职,3-5年,[]
36,4362693,WAF系统安全开发工程师,杭州,2018-05-03 09:43:36,28.0,534,京东金融,京东金融,2000人以上,拱墅区,本科,上市公司,金融,120.10415,30.332181,全职,3-5年,"['供应链金融', '消费金融', '众筹业务', '支付业务']"
37,4315500,系统安全测试工程师,济南,2018-04-26 20:38:42,21.0,350480,香多多,夏津县香多多食品有限公司,50-150人,高新区,本科,未融资,"电子商务,生活服务",117.121827,36.682887,全职,5-10年,"['""""']"
38,3369996,安全运维工程师（主机系统安全方向）,深圳,2018-05-02 13:38:00,14.0,267,盒子科技,深圳盒子信息科技有限公司,500-2000人,南山区,大专,C轮,"移动互联网,金融",0.0,0.0,全职,1-3年,"['技能培训', '俱乐部', '婚育礼金', '下午茶健身房']"
39,4375933,安卓系统安全工程师,北京,2018-04-04 22:49:38,21.0,436,360,奇虎360科技有限公司,2000人以上,朝阳区,不限,上市公司,"移动互联网,游戏",116.491128,39.983132,全职,3-5年,[]
40,4122392,C++系统安全研发工程师,上海,2018-04-08 19:02:24,12.4,108025,巍擎,上海巍擎信息技术有限责任公司,15-50人,浦东新区,本科,未融资,信息安全,121.626233,31.208366,全职,不限,"['年底双薪', '带薪年假', '定期体检', '节日礼物']"
41,4180604,android系统安全工程师（车机安全方向）,北京,2018-04-04 10:58:04,28.0,87977,车和家,北京车和家信息技术有限责任公司,500-2000人,朝阳区,本科,B轮,其他,116.505042,40.006274,全职,不限,"['年底双薪', '带薪年假', '定期体检', '工作环境优质']"
42,3401465,MIG07-系统安全研究员（北京）,北京,2018-05-02 09:40:09,25.2,451,腾讯,腾讯科技(深圳)有限公司,2000人以上,海淀区,大专,上市公司,"移动互联网 ,游戏",116.307524,39.984207,全职,3-5年,"['免费班车', '成长空间', '年度旅游', '岗位晋升']"
43,1796244,WAF系统安全开发工程师,北京,2018-05-03 09:43:36,21.0,534,京东金融,京东金融,2000人以上,大兴区,本科,上市公司,金融,116.52117756,39.82198934,全职,3-5年,"['供应链金融', '消费金融', '众筹业务', '支付业务']"
