,职位编码,职位名称,所在城市,发布日期,薪资待遇(k),公司编码,公司名称,公司全称,公司规模,所在区域,最低学历,融资状态,公司类型,经度,纬度,全职/实习,工作经验,吸引条件
0,4507083,java,北京,2018-05-02 15:32:29,25.2,147,拉勾网,北京拉勾网络技术有限公司,500-2000人,海淀区,本科,D轮及以上,"企业服务,招聘",115.99339,39.99426,全职,5-10年,"['五险一金', '弹性工作', '带薪年假', '免费两餐']"
1,2153608,Java,上海,2018-05-02 10:27:49,29.0,153849,蚂蚁金服集团,支付宝(杭州)信息技术有限公司,2000人以上,浦东新区,本科,B轮,"金融,移动互联网",121.52692967,31.22884938,全职,3-5年,"['年底双薪', '带薪年假', '股票期权', '绩效奖金']"
2,3493618,Java,北京,2018-05-02 13:43:32,28.0,61921,人人行(借贷宝),人人行科技有限公司,2000人以上,朝阳区,本科,C轮,"移动互联网,金融",116.412888,40.016702,全职,1-3年,"['年底双薪', '节日礼物', '绩效奖金', '岗位晋升']"
3,3320102,Java开发工程师,上海,2018-05-02 16:53:28,21.0,225377,zilliz,上海赜睿信息科技有限公司,15-50人,徐汇区,本科,A轮,"企业服务,数据服务",121.443059,31.188309,全职,3-5年,"['股票期权', '绩效奖金', '带薪年假', '弹性工作']"
4,3880251,JAVA,北京,2018-05-02 12:22:28,29.0,124195,丽兹行,北京丽兹行房地产顾问有限公司,500-2000人,朝阳区,本科,不需要融资,"企业服务,广告营销",116.481647,39.996464,全职,5-10年,"['专项奖金', '绩效奖金', '定期体检', '带薪年假']"
5,4062203,Java工程师,北京,2018-05-02 15:47:18,22.4,190413,云脑科技,杭州云脑科技有限公司,15-50人,朝阳区,本科,A轮,"企业服务,数据服务",116.443108,39.92147,全职,3-5年,"['年底双薪', '股票期权', '扁平管理', '人工智能']"
6,4304596,Java开发工程师,广州,2018-05-02 10:02:48,14.4,37990,一手服装批发APP,广州富米科技有限公司,150-500人,荔湾区,大专,A轮,"移动互联网,电子商务",113.218822,23.133642,全职,3-5年,"['节日礼物', '团队靠谱', '活动多多', '社保']"
7,3155873,实习JAVA/PHP开发,北京,2018-05-02 10:09:14,5.6,41030,小肚皮App,北京九识佳科技有限公司,15-50人,朝阳区,本科,A轮,移动互联网,116.473079,39.91331,实习,应届毕业生,"['年度旅游', '美女CEO', '五险一金', '午餐补助']"
8,3556863,JAVA开发工程师,深圳,2018-05-03 08:50:06,12.0,63500,紫川软件,深圳市紫川软件有限公司,500-2000人,南山区,大专,不需要融资,"电子商务,金融",113.937987,22.523392,全职,3-5年,"['节日礼物', '年底双薪', '绩效奖金', '岗位晋升']"
9,4508424,java开发,上海,2018-05-02 17:22:52,21.0,1738,有鱼金融科技,上海彩亿信息技术有限公司,500-2000人,徐汇区,大专,B轮,"移动互联网,金融",121.403181,31.164654,全职,3-5年,"['股票期权', '年底双薪', '五险一金', '带薪年假']"
10,4508181,Java开发工程师,杭州,2018-05-02 17:01:08,19.0,142419,达摩网络,浙江达摩网络科技有限公司,50-150人,西湖区,本科,A轮,"企业服务,O2O",120.124783,30.277036,全职,3-5年,"['扁平管理', '节日礼物', '岗位晋升', '免费健身']"
11,4506835,JAVA开发工程师,上海,2018-05-02 15:15:06,21.0,46605,VIP陪练,上海妙克信息科技有限公司,150-500人,杨浦区,本科,B轮,"移动互联网,教育",121.532505,31.254204,全职,3-5年,"['年底双薪', '节日礼物', '绩效奖金', '岗位晋升']"
12,4495154,JAVA开发工程师,上海,2018-05-03 09:04:07,12.0,128998,江苏亿科达,上海海万信息科技股份有限公司,500-2000人,浦东新区,大专,不需要融资,"移动互联网,金融",121.629578,31.210622,全职,1-3年,[]
13,3754446,Java工程师,杭州,2018-05-02 09:48:28,17.8,20493,新移传媒,浙江新华移动传媒股份有限公司,50-150人,上城区,本科,不需要融资,移动互联网,120.15424,30.20754,全职,3-5年,"['五险一金', '绩效奖金', '专项奖金', '年度旅游']"
14,4504609,JAVA开发工程师,成都,2018-05-02 10:55:50,14.0,42369,ETCP,北京悦畅科技有限公司,500-2000人,金牛区,本科,B轮,移动互联网,104.056611,30.695955,全职,3-5年,"['技能培训', '节日礼物', '绩效奖金', '岗位晋升']"
15,4383913,Java工程师,北京,2018-05-02 09:39:44,22.0,61921,人人行(借贷宝),人人行科技有限公司,2000人以上,朝阳区,不限,C轮,"移动互联网,金融",39.897445,116.331398,全职,3-5年,"['年底双薪', '节日礼物', '绩效奖金', '岗位晋升']"
16,2351628,Java,杭州,2018-05-02 10:27:49,36.0,153849,蚂蚁金服集团,支付宝(杭州)信息技术有限公司,2000人以上,西湖区,本科,B轮,"金融,移动互联网",120.12574,30.2726,全职,3-5年,"['年底双薪', '带薪年假', '股票期权', '绩效奖金']"
17,4477797,java开发工程师,北京,2018-05-03 09:02:33,19.0,147,拉勾网,北京拉勾网络技术有限公司,500-2000人,海淀区,本科,D轮及以上,"企业服务,招聘",116.307471,39.982184,全职,3-5年,"['五险一金', '弹性工作', '带薪年假', '免费两餐']"
18,3722417,Java工程师,杭州,2018-05-02 16:53:28,21.0,225377,zilliz,上海赜睿信息科技有限公司,15-50人,余杭区,本科,A轮,"企业服务,数据服务",120.00536,30.287475,全职,3-5年,"['股票期权', '绩效奖金', '带薪年假', '弹性工作']"
19,4397410,Java开发工程师,北京,2018-05-02 09:32:03,31.0,29795,罗辑思维,北京思维造物信息科技有限公司,150-500人,朝阳区,本科,B轮,"移动互联网,文化娱乐",115.99339,39.99426,全职,3-5年,"['专项奖金', '扁平管理', '帅哥多', '领导好']"
20,4506837,java开发工程师,杭州,2018-05-02 15:15:29,12.0,213185,滚马网络,杭州滚马网络有限公司,50-150人,余杭区,本科,A轮,移动互联网,120.008494,30.2825,全职,1-3年,"['带薪年假', '定期体检', '晋升无障碍', '年底双薪']"
21,4508620,Java开发工程师,广州,2018-05-02 17:38:57,19.0,16831,武汉佰钧成技术有限公司,武汉佰钧成技术有限责任公司,2000人以上,越秀区,本科,不需要融资,移动互联网,113.311289,23.131808,全职,5-10年,"['带薪年假', '计算机软件', '管理规范', '定期体检']"
22,3882833,Java开发工程师,北京,2018-05-02 09:37:34,19.0,54374,普林科技,北京至信普林科技有限公司,50-150人,海淀区,本科,A轮,数据服务,116.303685,39.985863,全职,3-5年,"['技能培训', '带薪年假', '绩效奖金', '岗位晋升']"
23,4505906,Java工程师,北京,2018-05-02 13:54:15,24.8,110502,洋钱罐,北京瓴岳信息技术有限公司,150-500人,朝阳区,本科,不需要融资,"移动互联网,金融",116.460666,39.929746,全职,1-3年,"['14薪', '弹性工作', '零食水果', '午餐晚餐']"
24,3283731,Java开发工程师,杭州,2018-05-02 10:01:43,21.0,2380,浙江执御信息技术有限公司,浙江执御信息技术有限公司,2000人以上,拱墅区,不限,B轮,"移动互联网,数据服务",120.11362,30.33344,全职,3-5年,"['五险一金', '带薪年假', '节日礼物', '年度旅游']"
25,4509926,Java开发工程师,北京,2018-05-03 08:46:25,17.0,115357,北京国文互联,北京国文互联教育科技有限公司,15-50人,海淀区,本科,不需要融资,"教育,移动互联网",116.338014,39.970767,全职,3-5年,"['带薪年假', '午餐补助', '五险一金', '团结友爱']"
26,4200812,Java开发工程师,南京,2018-05-02 08:47:37,28.0,82347,运满满,北京满运物流信息有限公司,500-2000人,雨花台区,本科,D轮及以上,"移动互联网,O2O",0.0,0.0,全职,不限,"['节日礼物', '年底双薪', '股票期权', '带薪年假']"
27,4438831,JAVA工程师,杭州,2018-05-03 09:00:25,13.6,256558,备胎控股集团,浙江备胎网络科技有限公司,2000人以上,拱墅区,本科,B轮,"移动互联网,金融",120.118342,30.336031,全职,3-5年,"['年底双薪', '股票期权', '绩效奖金', '专项奖金']"
28,4323581,Java工程师,上海,2018-05-03 08:49:58,17.0,78102,网达软件,上海网达软件股份有限公司,500-2000人,浦东新区,本科,上市公司,"移动互联网,电子商务",121.592153,31.244662,全职,3-5年,"['股票期权', '带薪年假', '绩效奖金', '岗位晋升']"
29,3754461,Java研发工程师,杭州,2018-05-02 09:48:27,17.0,20493,新移传媒,浙江新华移动传媒股份有限公司,50-150人,上城区,本科,不需要融资,移动互联网,120.15424,30.20754,全职,3-5年,"['五险一金', '绩效奖金', '专项奖金', '年度旅游']"
30,1520115,Java,杭州,2018-05-02 10:27:49,29.0,153849,蚂蚁金服集团,支付宝(杭州)信息技术有限公司,2000人以上,西湖区,本科,B轮,"金融,移动互联网",120.12573953,30.27259993,全职,3-5年,"['年底双薪', '带薪年假', '股票期权', '绩效奖金']"
31,4000450,JAVA研发工程师,北京,2018-05-02 17:00:08,42.0,61921,人人行(借贷宝),人人行科技有限公司,2000人以上,朝阳区,本科,C轮,"移动互联网,金融",116.41677069,40.0159606,全职,不限,"['年底双薪', '节日礼物', '绩效奖金', '岗位晋升']"
32,4052747,Java开发工程师,北京,2018-05-02 16:53:28,21.0,225377,zilliz,上海赜睿信息科技有限公司,15-50人,海淀区,本科,A轮,"企业服务,数据服务",116.314526,39.982338,全职,3-5年,"['股票期权', '绩效奖金', '带薪年假', '弹性工作']"
33,3562671,Java工程师,北京,2018-05-02 15:48:50,26.0,95651,玩吧,北京默契破冰科技有限公司,50-150人,东城区,本科,B轮,"移动互联网,社交网络",116.436939,39.940498,全职,3-5年,"['去他的考勤', '高手云集', '股票期权', '年底N薪']"
34,3324365,Java工程师,南京,2018-05-02 09:45:22,8.4,225665,惠龙易通,惠龙易通国际物流股份有限公司,150-500人,雨花台区,大专,A轮,"移动互联网,电子商务",118.779073,31.991347,全职,1-3年,"['管理规范', '技能培训', '五险一金', '岗位晋升']"
35,4261628,java工程师,北京,2018-05-02 15:51:54,19.0,78565,知为文化传媒,知为文化传媒（北京）有限公司,15-50人,朝阳区,本科,A轮,"O2O,文化娱乐",116.498098,39.980967,全职,3-5年,"['带薪年假', '扁平管理', '领导好', '帅哥多']"
36,3849004,java开发工程师,北京,2018-05-02 14:05:02,15.2,221672,亿兆华盛,北京亿兆华盛股份有限公司,2000人以上,朝阳区,本科,上市公司,其他,116.447152,39.913478,全职,3-5年,"['绩效奖金', '带薪年假', '交通补助', '通讯津贴']"
37,3589891,Java开发,北京,2018-05-02 09:23:29,19.0,21190,深思数盾,北京深思数盾科技股份有限公司,50-150人,海淀区,本科,不需要融资,"信息安全,移动互联网",116.274018,40.046552,全职,3-5年,"['互联网+', '信息安全', '七险一金', '带薪年假']"
38,4454377,Java,北京,2018-05-03 09:16:54,19.0,25439,Udesk－企业级智能客服平台,北京沃丰时代数据科技有限公司,150-500人,西城区,本科,B轮,其他,116.357353,39.939211,全职,3-5年,"['股票期权', '高成长', '云服务', '高并发']"
39,4231189,Java开发工程师,上海,2018-05-02 19:26:01,19.0,182609,飞饼信息,飞饼信息科技（上海）有限公司,15-50人,浦东新区,本科,A轮,"移动互联网,金融",121.563342,31.205002,全职,3-5年,[]
40,4212798,Java开发工程师,北京,2018-05-02 17:55:11,11.6,132091,小白世纪,北京小白世纪网络科技有限公司,15-50人,海淀区,博士,A轮,移动互联网,116.339673,39.998467,全职,3-5年,"['专项奖金', '股票期权', '弹性工作', '美女多']"
41,3682253,JAVA开发工程师,厦门,2018-05-02 17:15:06,21.0,213786,咪咕,咪咕文化科技有限公司,2000人以上,思明区,本科,不需要融资,"移动互联网,文化娱乐",118.180597,24.489868,全职,3-5年,"['定期体检', '带薪年假', '绩效奖金', '专项奖金']"
42,2866469,java工程师,杭州,2018-05-02 15:47:08,19.0,10359,酷家乐,杭州群核信息技术有限公司,500-2000人,拱墅区,本科,D轮及以上,移动互联网,120.108647,30.293154,全职,不限,"['两次加薪', '弹性工作', '期权丰厚', '两次晋升']"
43,3180467,JAVA开发工程师,成都,2018-05-02 09:36:12,12.6,53310,慧友云商,北京慧友云商科技有限公司,50-150人,武侯区,本科,B轮,移动互联网,104.06843,30.55217,全职,3-5年,"['节日礼物', '岗位晋升', '年度旅游', '定期体检']"
44,3309791,Java,上海,2018-05-02 14:33:25,20.8,23277,微知,上海微知软件科技有限公司,150-500人,静安区,本科,B轮,"企业服务,数据服务",121.428328,31.22863,全职,5-10年,"['技能培训', '专项奖金', '带薪年假', '岗位晋升']"
45,1961576,Java,杭州,2018-05-02 14:00:40,20.0,153849,蚂蚁金服集团,支付宝(杭州)信息技术有限公司,2000人以上,西湖区,不限,B轮,"金融,移动互联网",120.12550491,30.27294466,全职,3-5年,"['年底双薪', '带薪年假', '股票期权', '绩效奖金']"
46,4253689,java工程师,北京,2018-04-22 16:33:35,29.0,61921,人人行(借贷宝),人人行科技有限公司,2000人以上,朝阳区,本科,C轮,"移动互联网,金融",116.416771,40.015961,全职,3-5年,"['年底双薪', '节日礼物', '绩效奖金', '岗位晋升']"
47,3324364,Java工程师,苏州,2018-05-02 09:45:22,8.4,225665,惠龙易通,惠龙易通国际物流股份有限公司,150-500人,,大专,A轮,"移动互联网,电子商务",120.980737,31.385598,全职,1-3年,"['管理规范', '技能培训', '五险一金', '岗位晋升']"
48,4157721,Java开发工程师,上海,2018-05-03 09:14:12,14.0,210683,卧岚科技,上海卧岚网络科技有限公司,15-50人,浦东新区,本科,天使轮,"移动互联网,社交网络",121.491007,31.186222,全职,3-5年,"['年底双薪', '绩效奖金', '带薪年假', '定期体检']"
49,3693035,Java开发工程师,广州,2018-05-02 13:41:59,20.8,54083,翡翠东方TVBC,上海翡翠东方网络信息技术有限公司,15-50人,天河区,本科,不需要融资,文化娱乐,113.321916,23.125234,全职,3-5年,"['午餐补助', '交通补助', '通讯津贴', '定期体检']"
50,4436260,java开发工程师,北京,2018-05-02 09:36:56,28.0,1880,快手,北京达佳互联信息技术有限公司,500-2000人,海淀区,本科,D轮及以上,移动互联网,116.316508,39.984066,全职,3-5年,"['股票期权', '弹性工作', '定期体检', '岗位晋升']"
51,2738872,Java开发工程师,杭州,2018-05-03 09:21:26,26.4,24287,腾展叮咚（Dingtone）,杭州腾展科技股份有限公司,50-150人,西湖区,本科,上市公司,"移动互联网,社交网络",119.993591,29.993662,全职,5-10年,"['出国旅游', '股票期权', '精英团队', '强悍的创始人']"
52,4363886,Java,北京,2018-05-03 09:16:54,29.0,25439,Udesk－企业级智能客服平台,北京沃丰时代数据科技有限公司,150-500人,西城区,本科,B轮,其他,116.357353,39.939211,全职,5-10年,"['股票期权', '高成长', '云服务', '高并发']"
53,1930285,Java开发工程师,杭州,2018-05-03 09:10:01,10.8,35514,纳里健康,纳里健康科技有限公司,150-500人,滨江区,本科,B轮,医疗健康,120.1631,30.1844101,全职,1-3年,"['股票期权', '带薪年假', '弹性工作', '帅哥多']"
54,4487702,java开发工程师,北京,2018-05-02 17:55:40,20.2,343125,聪明牛油果,天津聪明牛油果科技有限公司,15-50人,朝阳区,大专,天使轮,"移动互联网,金融",116.491939,39.974301,全职,3-5年,"['""""']"
55,4116884,JAVA工程师,成都,2018-05-02 14:53:30,10.8,95229,四川长虹电器股份有限公司,四川长虹电器股份有限公司,2000人以上,高新区,本科,上市公司,硬件,104.063426,30.541304,全职,3-5年,"['绩效奖金', '管理规范', '定期体检', '五险一金']"
56,3883846,JAVA,北京,2018-05-02 14:13:11,19.0,41878,商询科技,北京商询科技有限公司,50-150人,朝阳区,本科,A轮,"企业服务,数据服务",116.455703,39.924317,全职,3-5年,"['股票期权', '人脉资源', '办公环境好', '国际化团队']"
57,4112652,JAVA开发工程师,北京,2018-05-02 09:33:26,28.0,4286,竞技世界,竞技世界（北京）网络技术有限公司,500-2000人,海淀区,本科,不需要融资,"移动互联网,游戏",116.312136,40.037381,全职,5-10年,"['节日礼物', '技能培训', '年底双薪', '年度旅游']"
58,4046230,JAVA开发,杭州,2018-05-02 09:28:26,13.2,35166,卖好车,杭州一骑轻尘信息技术有限公司,500-2000人,余杭区,不限,B轮,"移动互联网,电子商务",120.004837,30.287256,全职,1-3年,"['技能培训', '股票期权', '带薪年假', '岗位晋升']"
59,4157461,JAVA开发工程师,深圳,2018-05-02 09:52:33,19.0,7232,亿车科技,深圳市前海亿车科技有限公司,150-500人,宝安区,本科,A轮,"移动互联网,数据服务",113.993578,22.99368,全职,3-5年,"['节日礼物', '年底双薪', '股票期权', '带薪年假']"
60,2528200,Java,杭州,2018-05-02 10:31:06,56.0,153849,蚂蚁金服集团,支付宝(杭州)信息技术有限公司,2000人以上,西湖区,本科,B轮,"金融,移动互联网",120.125505,30.272945,全职,5-10年,"['年底双薪', '带薪年假', '股票期权', '绩效奖金']"
61,2606984,高级Java,北京,2018-05-02 13:43:10,42.0,61921,人人行(借贷宝),人人行科技有限公司,2000人以上,朝阳区,本科,C轮,"移动互联网,金融",116.412888,40.016702,全职,3-5年,"['年底双薪', '节日礼物', '绩效奖金', '岗位晋升']"
62,4369413,Java开发工程师,上海,2018-05-02 09:27:07,22.4,246971,Vechain,上海唯链信息科技有限公司,50-150人,静安区,大专,A轮,"移动互联网,信息安全",121.438506,31.221671,全职,5-10年,"['弹性工作', '五险一金', '老司机驾校', '年底N薪']"
63,3481847,JAVA工程师,杭州,2018-05-02 09:26:29,13.2,33618,微贷网,微贷（杭州）金融信息服务有限公司,2000人以上,江干区,大专,C轮,金融,0.0,0.0,全职,3-5年,"['年底双薪', '专项奖金', '绩效奖金', '岗位晋升']"
64,4467506,JAVA开发工程师,北京,2018-04-30 13:24:03,19.0,310080,金宣地产,北京金宣置地房地产经纪有限公司,500-2000人,西城区,本科,未融资,O2O,0.0,0.0,全职,3-5年,"['绩效奖金', '带薪年假', '年度旅游', '美女多']"
65,3961810,Java开发,北京,2018-05-03 08:24:43,21.0,124192,闲徕互娱,北京闲徕互娱网络科技有限公司,500-2000人,朝阳区,本科,不需要融资,游戏,116.414211,40.032234,全职,5-10年,"['年底双薪', '股票期权', '带薪年假', '专项奖金']"
66,211845,Java 研发,宁波,2018-05-02 09:20:01,8.4,33459,新希望软件,宁波新希望信息技术有限公司,50-150人,,本科,未融资,"企业服务,生活服务",121.56868261,29.89845041,全职,1-3年,"['技能培训', '年底双薪', '专项奖金', '带薪年假']"
67,3436465,Java研发工程师,杭州,2018-05-02 11:17:39,14.6,18655,大搜车,杭州大搜车汽车服务有限公司,500-2000人,余杭区,本科,D轮及以上,"移动互联网,O2O",120.03182,30.24372,全职,3-5年,"['技能培训', 'Geek', '开放', '扁平管理']"
68,2629117,java,杭州,2018-05-02 10:35:46,16.8,20337,会搜股份,杭州会搜科技有限公司,150-500人,江干区,本科,上市公司,移动互联网,120.25935,30.30846,全职,3-5年,"['技能培训', '节日礼物', '股票期权', '带薪年假']"
69,4036765,Java开发工程师,北京,2018-05-02 10:06:27,33.0,195855,转转,北京转转精神科技有限责任公司,500-2000人,海淀区,本科,A轮,"移动互联网,生活服务",116.360315,40.039775,全职,3-5年,"['带薪年假', '定期体检', '交通补助', '年底双薪']"
70,4505223,java开发,杭州,2018-05-02 11:43:57,21.0,16831,武汉佰钧成技术有限公司,武汉佰钧成技术有限责任公司,2000人以上,余杭区,本科,不需要融资,移动互联网,119.991,30.27426,全职,5-10年,"['带薪年假', '计算机软件', '管理规范', '定期体检']"
71,3588901,JAVA开发工程师,上海,2018-05-02 10:45:59,19.0,3038,Gridsum 国双,北京国双科技有限公司,500-2000人,静安区,本科,上市公司,"数据服务,企业服务",121.449682,31.225579,全职,5-10年,"['年度旅游', '节日礼物', '年底双薪', '带薪年假']"
72,3716496,Java开发工程师,北京,2018-05-02 10:10:43,26.0,50702,美团点评,北京三快在线科技有限公司,2000人以上,朝阳区,本科,D轮及以上,"移动互联网,O2O",116.486654,40.007208,全职,3-5年,"['技能培训', '绩效奖金', '岗位晋升', '领导好']"
73,3220446,Java开发工程师,北京,2018-05-02 09:58:25,19.6,19475,疯狂老师,上海享学网络科技有限公司,150-500人,朝阳区,本科,C轮,移动互联网,116.393925,40.004042,全职,3-5年,"['五险一金', '股票期权', '年终分红', '绩效奖金']"
74,3660768,JAVA开发工程师,杭州,2018-05-02 09:42:13,14.0,142419,达摩网络,浙江达摩网络科技有限公司,50-150人,西湖区,本科,A轮,"企业服务,O2O",120.124783,30.277036,全职,3-5年,"['扁平管理', '节日礼物', '岗位晋升', '免费健身']"
75,1534758,Java,杭州,2018-05-02 10:31:06,24.0,153849,蚂蚁金服集团,支付宝(杭州)信息技术有限公司,2000人以上,西湖区,本科,B轮,"金融,移动互联网",120.078953,30.160225,全职,3-5年,"['年底双薪', '带薪年假', '股票期权', '绩效奖金']"
76,4448472,JAVA研发工程师,北京,2018-04-19 11:45:28,4.8,61921,人人行(借贷宝),人人行科技有限公司,2000人以上,朝阳区,本科,C轮,"移动互联网,金融",116.416771,40.015961,实习,应届毕业生,"['年底双薪', '节日礼物', '绩效奖金', '岗位晋升']"
77,4325454,Java开发工程师,杭州,2018-05-02 09:41:13,14.0,98702,力太科技,浙江力太科技有限公司,150-500人,滨江区,本科,C轮,"移动互联网,其他",120.18125,30.185411,全职,3-5年,"['年底双薪', '股票期权', '专项奖金', '带薪年假']"
78,3647427,Java工程师,厦门,2018-05-02 09:37:16,16.2,147118,德医互联,厦门市德医互联科技有限公司,15-50人,集美区,本科,A轮,医疗健康,118.052073,24.607547,全职,3-5年,"['扁平管理', '五险一金', '带薪年假']"
79,3708662,JAVA开发工程师,青岛,2018-05-02 09:03:34,10.8,24873,前隆科技,上海前隆信息科技有限公司,500-2000人,崂山区,本科,B轮,金融,120.486708,36.147065,全职,1-3年,"['绩效奖金', '年终分红', '五险一金', '带薪年假']"
80,2312509,Java,苏州,2018-05-01 20:41:07,10.8,75213,南京思酷通讯科技有限公司,南京思酷通讯科技有限公司,15-50人,吴江区,本科,不需要融资,"移动互联网,电子商务",120.6421,31.143149,全职,1-3年,[]
81,4446534,Java开发,北京,2018-05-03 08:24:43,21.0,124192,闲徕互娱,北京闲徕互娱网络科技有限公司,500-2000人,朝阳区,大专,不需要融资,游戏,116.414211,40.032234,全职,3-5年,"['年底双薪', '股票期权', '带薪年假', '专项奖金']"
82,4381077,Java工程师,北京,2018-05-02 18:53:48,19.0,56698,屏芯科技,北京屏芯科技有限公司,500-2000人,海淀区,本科,B轮,"移动互联网,电子商务",116.330301,39.993134,全职,3-5年,"['技能培训', '节日礼物', '带薪年假', '绩效奖金']"
83,3476321,Java开发工程师,北京,2018-05-02 15:48:50,26.0,95651,玩吧,北京默契破冰科技有限公司,50-150人,东城区,本科,B轮,"移动互联网,社交网络",116.436939,39.940498,全职,3-5年,"['去他的考勤', '高手云集', '股票期权', '年底N薪']"
84,4216560,Java,杭州,2018-05-02 15:18:02,21.0,85335,兰亮网络,杭州兰亮网络科技有限公司,50-150人,江干区,本科,不需要融资,"电子商务,金融",120.21653,30.24743,全职,3-5年,"['节日礼物', '带薪年假', '绩效奖金', '五险一金']"
85,4186861,Java工程师,北京,2018-05-02 10:59:57,19.0,1992,有利网,北京弘合柏基金融信息服务有限责任公司,500-2000人,朝阳区,本科,A轮,金融,116.456076,39.948051,全职,3-5年,"['岗位晋升', '股票期权', '绩效奖金', '定期体检']"
86,3513519,Java开发工程师,杭州,2018-05-02 10:40:49,19.0,113585,食趣,杭州食在有趣科技有限公司,50-150人,余杭区,本科,A轮,"移动互联网,金融",120.001628,30.280829,全职,3-5年,"['绩效奖金', '带薪年假', '弹性工作', '美女多']"
87,3144548,Java工程师,上海,2018-05-02 09:28:19,15.0,29019,大钱信息,上海大钱信息技术有限公司,15-50人,徐汇区,本科,A轮,移动互联网,121.427778,31.194576,全职,3-5年,"['扁平管理', '移动互联网', '头脑风暴', '股票期权']"
88,3765560,java,杭州,2018-05-03 09:21:06,13.2,16831,武汉佰钧成技术有限公司,武汉佰钧成技术有限责任公司,2000人以上,西湖区,大专,不需要融资,移动互联网,,,全职,3-5年,"['带薪年假', '计算机软件', '管理规范', '定期体检']"
89,4270989,java开发工程师,上海,2018-05-03 08:49:57,17.0,78102,网达软件,上海网达软件股份有限公司,500-2000人,浦东新区,本科,上市公司,"移动互联网,电子商务",121.592153,31.244662,全职,3-5年,"['股票期权', '带薪年假', '绩效奖金', '岗位晋升']"
90,4448996,JAVA研发工程师,北京,2018-04-19 13:09:34,4.8,61921,人人行(借贷宝),人人行科技有限公司,2000人以上,朝阳区,本科,C轮,"移动互联网,金融",116.416771,40.015961,实习,应届毕业生,"['年底双薪', '节日礼物', '绩效奖金', '岗位晋升']"
91,4508734,JAVA开发工程师,广州,2018-05-02 17:50:25,4.2,305898,东冰网络,广州东冰网络科技有限公司,15-50人,天河区,不限,不需要融资,"移动互联网,电子商务",113.350062,23.124742,全职,1-3年,"['""""']"
92,4508384,Java开发酷,杭州,2018-05-02 17:19:46,21.0,296144,融畅软件,苏州融畅软件科技有限公司,50-150人,拱墅区,本科,未融资,移动互联网,120.108006,30.29291,全职,1-3年,"['""""']"
93,4334387,Java工程师,北京,2018-05-02 10:38:48,22.8,110502,洋钱罐,北京瓴岳信息技术有限公司,150-500人,朝阳区,本科,不需要融资,"移动互联网,金融",116.460666,39.929746,全职,1-3年,"['14薪', '弹性工作', '零食水果', '午餐晚餐']"
94,3121683,Java开发工程师,北京,2018-05-02 10:10:43,28.0,50702,美团点评,北京三快在线科技有限公司,2000人以上,朝阳区,本科,D轮及以上,"移动互联网,O2O",116.486654,40.007208,全职,3-5年,"['技能培训', '绩效奖金', '岗位晋升', '领导好']"
95,3643994,java开发工程师,广州,2018-05-02 10:07:35,14.0,161886,ImageDT图匠数据,广州图匠数据科技有限公司,50-150人,海珠区,本科,A轮,"企业服务,数据服务",113.369458,23.096879,全职,3-5年,"['股票期权', '弹性工作', '人工智能', '领导好']"
96,4452166,JAVA开发工程师,深圳,2018-05-02 09:40:20,12.4,21666,维恩贝特,维恩贝特科技有限公司,500-2000人,福田区,本科,A轮,"电子商务,金融",114.05668,22.5083,全职,3-5年,"['年底双薪', '五险一金', '通讯津贴', '交通补助']"
97,4387379,Java开发工程师,杭州,2018-05-03 09:23:16,21.0,719,顺网科技,杭州顺网科技股份有限公司,500-2000人,西湖区,大专,上市公司,"游戏,文化娱乐",120.057035,30.286205,全职,3-5年,"['技能培训', '节日礼物', '年度旅游', '岗位晋升']"
98,3883719,Java开发工程师,北京,2018-05-02 14:13:12,19.0,41878,商询科技,北京商询科技有限公司,50-150人,朝阳区,本科,A轮,"企业服务,数据服务",116.455703,39.924317,全职,3-5年,"['股票期权', '人脉资源', '办公环境好', '国际化团队']"
99,3287131,Java开发工程师,上海,2018-05-02 11:07:45,12.0,128998,江苏亿科达,上海海万信息科技股份有限公司,500-2000人,浦东新区,本科,不需要融资,"移动互联网,金融",121.587687,31.201832,全职,3-5年,[]
100,4294479,Java开发工程师,上海,2018-05-02 09:35:56,14.0,37986,世纪超星,北京世纪超星信息技术发展有限责任公司,2000人以上,宝山区,本科,不需要融资,教育、移动互联网,121.488028,31.31258,全职,3-5年,"['年底双薪', '专项奖金', '带薪年假', '绩效奖金']"
101,4293569,Java开发工程师,北京,2018-05-02 19:01:01,17.0,205545,秀吧,金华秀吧信息科技有限公司北京分公司,50-150人,朝阳区,大专,A轮,"社交网络,文化娱乐",116.508993,39.902836,全职,3-5年,"['带薪年假', '定期体检', '弹性工作', '节日礼物']"
102,3909765,Java开发工程师,深圳,2018-05-02 18:30:19,13.4,131999,亿腾,深圳亿腾信息科技有限公司,150-500人,福田区,大专,不需要融资,"企业服务,移动互联网",114.055083,22.546265,全职,3-5年,"['定期体检', '交通补助', '带薪年假', '年度旅游']"
103,4449584,JAVA开发工程师,上海,2018-05-02 17:04:10,21.0,143428,云知声,北京云知声信息技术有限公司,150-500人,徐汇区,本科,C轮,移动互联网,0.0,0.0,全职,3-5年,"['弹性工作', '领导好', '节日礼物', '六险一金']"
104,4380084,Java开发工程师,深圳,2018-05-02 14:36:08,12.0,117543,来电科技,深圳来电科技有限公司,150-500人,南山区,本科,A轮,"移动互联网,O2O",113.952696,22.530438,全职,3-5年,"['五险一金', '岗位晋升', '扁平管理', '带薪年假']"
105,3827042,java开发,北京,2018-05-02 14:13:11,19.0,41878,商询科技,北京商询科技有限公司,50-150人,朝阳区,本科,A轮,"企业服务,数据服务",116.455703,39.924317,全职,3-5年,"['股票期权', '人脉资源', '办公环境好', '国际化团队']"
106,3814511,Java开发工程师,上海,2018-05-02 13:30:41,19.0,144576,杉数科技,杉数科技（北京）有限公司,50-150人,杨浦区,本科,A轮,"数据服务,移动互联网",0.0,0.0,全职,3-5年,"['带薪年假', '午餐补助', '弹性工作', '年度旅游']"
107,3399352,Java工程师,北京,2018-05-02 10:38:48,19.6,110502,洋钱罐,北京瓴岳信息技术有限公司,150-500人,朝阳区,本科,不需要融资,"移动互联网,金融",116.460666,39.929746,全职,1-3年,"['14薪', '弹性工作', '零食水果', '午餐晚餐']"
108,3716464,Java开发工程师,北京,2018-05-02 10:10:43,26.0,50702,美团点评,北京三快在线科技有限公司,2000人以上,,本科,D轮及以上,"移动互联网,O2O",116.486654,40.007208,全职,3-5年,"['技能培训', '绩效奖金', '岗位晋升', '领导好']"
109,3875947,java开发工程师,南京,2018-05-02 09:49:15,15.4,83249,帜讯信息,上海帜讯信息技术股份有限公司,500-2000人,秦淮区,本科,上市公司,"移动互联网,其他",118.793519,32.000937,全职,3-5年,"['节日礼物', '年底双薪', '定期体检', '补充公积金']"
110,4441245,JAVA开发工程师,上海,2018-05-02 09:16:02,19.0,41194,泰为,泰为信息科技（上海）有限公司,150-500人,长宁区,本科,上市公司,移动互联网,121.402636,31.208967,全职,1-3年,"['管理规范', '平等自由', '持续创新', '行业前端']"
111,4248377,Java开发工程师,杭州,2018-05-02 17:30:38,12.0,38306,阿拉丁信息科技,浙江阿拉丁电子商务股份有限公司,150-500人,滨江区,本科,上市公司,移动互联网,120.214164,30.213574,全职,3-5年,"['技能培训', '节日礼物', '带薪年假', '绩效奖金']"
112,3920788,JAVA,广州,2018-05-02 16:14:15,12.0,296888,东怡源,东怡源科技（广州）有限公司,15-50人,南沙区,大专,未融资,"移动互联网,电子商务",113.539812,22.799813,全职,3-5年,"['""""']"
113,4367118,Java开发工程师,北京,2018-05-02 15:37:22,24.8,121,墨迹天气,北京墨迹风云科技股份有限公司,150-500人,朝阳区,本科,C轮,"移动互联网,生活服务",115.99339,39.99426,全职,3-5年,"['五险一金', '弹性工作', '岗位晋升', '帅哥多']"
114,2728779,JAVA开发,上海,2018-05-02 11:50:12,24.0,35384,智慧芽,智慧芽信息科技（苏州）有限公司,150-500人,闸北区,本科,C轮,移动互联网,121.45252,31.24603,全职,3-5年,"['技能培训', '年底双薪', '节日礼物', '绩效奖金']"
115,2928906,Java开发工程师,上海,2018-05-02 10:14:08,19.0,125621,朋数,上海朋数信息科技有限公司,150-500人,虹口区,本科,B轮,移动互联网,121.48175,31.25088,全职,3-5年,"['年底双薪', '绩效奖金', '五险一金', '弹性工作']"
116,4481645,Java开发工程师,北京,2018-05-02 09:42:19,24.0,82069,思源科技,北京思源置地投资有限公司,2000人以上,朝阳区,本科,不需要融资,"移动互联网,社交网络",116.458141,39.996441,全职,5-10年,"['股票期权', '带薪年假', '绩效奖金', '岗位晋升']"
117,4302454,java开发工程师,北京,2018-05-02 09:37:33,12.0,53310,慧友云商,北京慧友云商科技有限公司,50-150人,西城区,本科,B轮,移动互联网,116.354633,39.950966,全职,1-3年,"['节日礼物', '岗位晋升', '年度旅游', '定期体检']"
118,3677771,Java开发工程师,北京,2018-05-02 09:32:19,26.0,114173,所问数据,北京所问数据科技有限公司,50-150人,朝阳区,本科,A轮,"企业服务,数据服务",116.480725,39.995964,全职,5-10年,"['带薪年假', '专项奖金', '绩效奖金', '交通补助']"
119,3161691,Java工程师,厦门,2018-05-02 09:21:57,8.6,5330,齐家网,上海齐家网信息科技股份有限公司,2000人以上,思明区,大专,D轮及以上,"O2O ,生活服务",117.993493,23.994066,全职,3-5年,"['午餐补助', '带薪年假', '绩效奖金', '交通补助']"
120,4264155,Java,杭州,2018-05-03 09:21:27,30.2,24287,腾展叮咚（Dingtone）,杭州腾展科技股份有限公司,50-150人,西湖区,本科,上市公司,"移动互联网,社交网络",120.125596,30.277477,全职,5-10年,"['出国旅游', '股票期权', '精英团队', '强悍的创始人']"
121,4274586,Java开发工程师,上海,2018-05-02 17:59:10,14.0,42418,坤亿科技,上海坤亿信息技术有限公司,50-150人,浦东新区,本科,不需要融资,"电子商务,企业服务",0.0,0.0,全职,3-5年,"['绩效奖金', '管理规范', '五险一金', '交通补助']"
122,4397814,Java工程师,北京,2018-05-02 15:41:07,14.0,110502,洋钱罐,北京瓴岳信息技术有限公司,150-500人,朝阳区,本科,不需要融资,"移动互联网,金融",116.460733,39.929643,全职,1年以下,"['14薪', '弹性工作', '零食水果', '午餐晚餐']"
123,3847293,Java开发工程师,深圳,2018-05-02 14:47:39,16.8,68524,编程猫,深圳点猫科技有限公司,150-500人,南山区,本科,B轮,"移动互联网,教育",113.940851,22.509672,全职,3-5年,"['专项奖金', '股票期权', '岗位晋升', '年度旅游']"
124,4141216,JAVA研发工程师,上海,2018-05-02 13:41:22,24.0,6044,拍拍贷,上海拍拍贷金融信息服务有限公司,2000人以上,浦东新区,本科,上市公司,金融,0.0,0.0,全职,3-5年,"['绩效奖金', '五险一金', '带薪年假', '午餐补助']"
125,3070162,java,上海,2018-05-02 10:12:48,21.0,14229,微盟,上海萌店信息科技有限公司,2000人以上,宝山区,本科,D轮及以上,"移动互联网,电子商务",121.496277,31.349371,全职,3-5年,"['绩效奖金', '年底双薪', '五险一金', '带薪年假']"
126,2763086,JAVA工程师,北京,2018-05-02 09:55:33,19.0,23875,黄金钱包,北京盈衍网络科技有限公司,50-150人,朝阳区,本科,C轮,"移动互联网,金融",115.99339,39.99426,全职,3-5年,"['股票期权', '扁平管理', '十五薪', '定期体检']"
127,3461949,资深java开发,杭州,2018-04-24 20:24:05,35.0,153849,蚂蚁金服集团,支付宝(杭州)信息技术有限公司,2000人以上,西湖区,不限,B轮,"金融,移动互联网",120.125788,30.272627,全职,3-5年,"['年底双薪', '带薪年假', '股票期权', '绩效奖金']"
128,4139476,java开发,上海,2018-05-03 09:15:16,18.2,1738,有鱼金融科技,上海彩亿信息技术有限公司,500-2000人,徐汇区,本科,B轮,"移动互联网,金融",121.40437233,31.16440487,全职,1-3年,"['股票期权', '年底双薪', '五险一金', '带薪年假']"
129,4314825,java开发,上海,2018-05-03 08:49:58,17.0,78102,网达软件,上海网达软件股份有限公司,500-2000人,浦东新区,本科,上市公司,"移动互联网,电子商务",121.592153,31.244662,全职,3-5年,"['股票期权', '带薪年假', '绩效奖金', '岗位晋升']"
130,4293000,Java开发工程师,深圳,2018-05-02 18:11:49,13.4,131999,亿腾,深圳亿腾信息科技有限公司,150-500人,福田区,大专,不需要融资,"企业服务,移动互联网",114.095449,22.560372,全职,3-5年,"['定期体检', '交通补助', '带薪年假', '年度旅游']"
131,4497025,Java开发工程师,杭州,2018-05-02 10:09:24,21.0,44019,氦氪,杭州第九区科技有限公司,50-150人,西湖区,本科,A轮,"移动互联网,硬件",120.127756,30.272298,全职,不限,"['股票期权', '岗位晋升', '人工智能', '扁平管理']"
132,3447821,Java工程师,北京,2018-05-02 09:56:57,17.0,3450,北京捷越联合,北京捷越联合信息咨询有限公司,2000人以上,朝阳区,大专,不需要融资,金融,116.43365539,39.92170932,全职,3-5年,"['技能培训', '节日礼物', '岗位晋升', '扁平管理']"
133,1898359,Java工程师,长沙,2018-05-02 09:04:01,9.6,103897,新航动力,湖南新航动力信息科技有限公司,150-500人,,大专,未融资,移动互联网、企业服务,112.88254039,28.23120008,全职,3-5年,"['五险一金', '绩效奖金', '技能培训', '岗位晋升']"
134,4083088,java工程师,上海,2018-04-27 13:15:11,10.8,128998,江苏亿科达,上海海万信息科技股份有限公司,500-2000人,浦东新区,大专,不需要融资,"移动互联网,金融",121.544379,31.221517,全职,3-5年,[]
135,3399333,Java工程师,北京,2018-05-02 10:38:48,15.2,110502,洋钱罐,北京瓴岳信息技术有限公司,150-500人,朝阳区,本科,不需要融资,"移动互联网,金融",116.460666,39.929746,全职,1年以下,"['14薪', '弹性工作', '零食水果', '午餐晚餐']"
136,3470136,Java工程师,深圳,2018-05-03 08:50:05,12.6,63500,紫川软件,深圳市紫川软件有限公司,500-2000人,南山区,大专,不需要融资,"电子商务,金融",113.937987,22.523392,全职,3-5年,"['节日礼物', '年底双薪', '绩效奖金', '岗位晋升']"
137,3349285,java开发工程师,杭州,2018-05-02 19:41:07,19.6,166666,观远数据,杭州观数信息科技有限公司,15-50人,余杭区,本科,A轮,"企业服务,数据服务",120.017969,30.280435,全职,3-5年,"['股票期权', '绩效奖金', '带薪年假', '弹性工作']"
138,4432174,java开发,上海,2018-05-02 14:46:41,14.4,16831,武汉佰钧成技术有限公司,武汉佰钧成技术有限责任公司,2000人以上,杨浦区,大专,不需要融资,移动互联网,121.548357,31.327473,全职,3-5年,"['带薪年假', '计算机软件', '管理规范', '定期体检']"
139,4504035,Java工程师,上海,2018-05-02 10:07:53,17.0,105777,集享联盟,上海纳客宝信息技术有限公司,50-150人,闵行区,大专,不需要融资,"移动互联网,生活服务",120.993464,30.994061,全职,3-5年,"['节日礼物', '专项奖金', '带薪年假', '绩效奖金']"
140,1690681,Java开发工程师,济南,2018-05-03 09:10:33,8.4,62104,融托金融,聊城融托金融服务有限公司,50-150人,市中区,大专,不需要融资,金融,117.00243671,36.66262667,全职,1-3年,"['节日礼物', '绩效奖金', '岗位晋升', '扁平管理']"
141,3579586,JAVA,杭州,2018-05-03 09:06:22,15.4,153240,杭州亦闲信息,杭州亦闲信息科技有限公司,50-150人,余杭区,本科,不需要融资,教育,120.005372,30.278099,全职,3-5年,"['带薪年假', '午餐补助', '年底双薪', '年度旅游']"
142,4223804,JAVA开发工程师,北京,2018-05-02 17:46:46,16.4,1403,爱回收,上海悦易网络信息技术有限公司,500-2000人,大兴区,本科,D轮及以上,"电子商务,O2O",116.564264,39.789326,全职,3-5年,"['节日礼物', '股票期权', '专项奖金', '带薪年假']"
143,4506943,Java开发工程师,深圳,2018-05-02 15:23:07,25.2,255047,FDTAI,深圳大湾区智慧科技有限公司,50-150人,福田区,本科,不需要融资,金融,114.059935,22.570701,全职,3-5年,"['弹性工作', '领导好', '岗位晋升', '诱人的高薪']"
144,3981238,Java开发工程师,北京,2018-05-02 13:31:01,15.8,273943,人民网科技,人民网科技（北京）有限公司,150-500人,朝阳区,本科,不需要融资,"移动互联网,企业服务",116.46974,39.92077,全职,3-5年,[]
145,2530411,Java开发工程师,北京,2018-05-02 11:32:16,19.0,97399,Trusfort芯盾时代,北京芯盾时代科技有限公司,50-150人,,本科,B轮,"移动互联网,信息安全",115.99339,39.99426,全职,3-5年,"['高薪', '股票期权', '内荐重奖', '餐补话补']"
146,3773922,Java,上海,2018-05-02 11:21:11,19.0,67235,小站教育,上海业霆网络科技有限公司,500-2000人,静安区,本科,C轮,"移动互联网,教育",121.440983,31.228478,全职,3-5年,"['专项奖金', '股票期权', '弹性工作', '年度旅游']"
147,4156007,JAVA开发工程师,广州,2018-05-02 09:56:44,8.2,38655,白云电气,白云电气集团有限公司,2000人以上,白云区,本科,上市公司,企业服务,113.3353,23.29826,全职,1-3年,"['带薪年假', '五险一金', '落户广州', '免费班车']"
148,2040182,Java,深圳,2018-05-02 09:12:36,19.0,57638,风林火山,深圳风林火山电脑技术有限公司,50-150人,南山区,本科,不需要融资,游戏,113.95776043,22.53816993,全职,3-5年,"['四点半下班', '优越工作环境', '购房无息贷款', '马拉松爱好者']"
149,3868059,java,深圳,2018-05-02 09:07:54,14.0,128998,江苏亿科达,上海海万信息科技股份有限公司,500-2000人,福田区,大专,不需要融资,"移动互联网,金融",114.06017,22.548627,全职,3-5年,[]
150,4389475,Java工程师,北京,2018-05-02 15:41:07,19.0,110502,洋钱罐,北京瓴岳信息技术有限公司,150-500人,朝阳区,本科,不需要融资,"移动互联网,金融",116.460733,39.929643,全职,1-3年,"['14薪', '弹性工作', '零食水果', '午餐晚餐']"
151,4419835,Java,上海,2018-05-03 08:49:57,17.0,78102,网达软件,上海网达软件股份有限公司,500-2000人,浦东新区,本科,上市公司,"移动互联网,电子商务",121.592153,31.244662,全职,3-5年,"['股票期权', '带薪年假', '绩效奖金', '岗位晋升']"
152,3486829,JAVA开发工程师,济南,2018-05-03 08:48:47,11.2,67576,车满满,车满满（北京）信息技术有限公司,150-500人,高新区,本科,B轮,移动互联网,117.141711,36.662479,全职,3-5年,"['业内第一', '技能培训', '股票期权', '弹性工作']"
153,4315614,Java开发工程师,深圳,2018-05-02 15:20:34,12.0,8665,金蝶中间件,深圳市金蝶天燕中间件股份有限公司,2000人以上,南山区,本科,C轮,"移动互联网,企业服务",113.993578,22.99368,全职,3-5年,"['岗位晋升', '管理规范', '五险一金', '带薪年假']"
154,3880382,JAVA,北京,2018-05-02 12:22:37,31.0,124195,丽兹行,北京丽兹行房地产顾问有限公司,500-2000人,朝阳区,本科,不需要融资,"企业服务,广告营销",116.481647,39.996464,全职,3-5年,"['专项奖金', '绩效奖金', '定期体检', '带薪年假']"
155,3396100,Java开发工程师,广州,2018-05-02 11:06:21,14.0,16177,掌贝（云移科技）,广州云移信息科技有限公司,500-2000人,天河区,不限,B轮,"移动互联网,O2O",113.354658,23.180165,全职,1-3年,"['股票期权', '岗位晋升', '扁平管理', '领导好']"
156,4402992,java开发工程师,长沙,2018-05-02 11:03:52,9.2,261837,钱多多,湖南省钱多多商务咨询有限公司,500-2000人,开福区,大专,不需要融资,金融,112.970682,28.201783,全职,3-5年,"['年终分红', '绩效奖金', '午餐补助', '专项奖金']"
157,2266609,Java研发工程师,北京,2018-05-02 10:26:50,22.8,57590,七乐康,广州七乐康药业连锁有限公司,500-2000人,朝阳区,大专,C轮,"电子商务,医疗健康",115.99339,39.99426,全职,3-5年,"['节日礼物', '绩效奖金', '岗位晋升', '周末双休']"
158,3598094,Java工程师,济南,2018-05-02 09:35:57,5.6,37986,世纪超星,北京世纪超星信息技术发展有限责任公司,2000人以上,历城区,本科,不需要融资,教育、移动互联网,117.114861,36.651639,全职,3-5年,"['年底双薪', '专项奖金', '带薪年假', '绩效奖金']"
159,2727335,java开发工程师,深圳,2018-05-02 09:30:04,12.0,88059,鹏业软件,成都鹏业软件股份有限公司,150-500人,福田区,大专,未融资,"移动互联网,旅游",114.093521,22.546338,全职,3-5年,"['技能培训', '节日礼物', '带薪年假', '绩效奖金']"
160,696177,Java开发工程师,杭州,2018-05-02 09:12:57,24.0,2380,浙江执御信息技术有限公司,浙江执御信息技术有限公司,2000人以上,拱墅区,本科,B轮,"移动互联网,数据服务",,,全职,3-5年,"['五险一金', '带薪年假', '节日礼物', '年度旅游']"
161,3287644,java开发工程师,上海,2018-04-28 17:31:48,15.0,128998,江苏亿科达,上海海万信息科技股份有限公司,500-2000人,静安区,大专,不需要融资,"移动互联网,金融",121.458959,31.266934,全职,3-5年,[]
162,3875285,Java开发工程师,杭州,2018-05-03 09:22:15,15.2,13163,个推,浙江每日互动网络科技股份有限公司,150-500人,西湖区,本科,D轮及以上,移动互联网,120.114108,30.291951,全职,1-3年,"['绩效奖金', '股票期权', '年底双薪', '专项奖金']"
163,4483153,java开发工程师,深圳,2018-05-03 07:31:11,12.0,16831,武汉佰钧成技术有限公司,武汉佰钧成技术有限责任公司,2000人以上,罗湖区,本科,不需要融资,移动互联网,114.109841,22.540977,全职,3-5年,"['带薪年假', '计算机软件', '管理规范', '定期体检']"
164,4374687,JAVA,北京,2018-05-02 19:01:02,23.2,151678,快成,北京快成物流科技股份公司,50-150人,海淀区,本科,A轮,"其他,移动互联网",116.33396,39.986955,全职,5-10年,"['弹性工作', '年度旅游', '扁平管理', '领导好']"
165,4030427,Java开发工程师,上海,2018-05-02 17:46:45,18.2,1403,爱回收,上海悦易网络信息技术有限公司,500-2000人,杨浦区,本科,D轮及以上,"电子商务,O2O",121.99341,30.994275,全职,3-5年,"['节日礼物', '股票期权', '专项奖金', '带薪年假']"
166,4150830,JAVA工程师,北京,2018-05-02 16:51:20,26.0,172285,猎户星空,北京猎户星空科技有限公司,150-500人,朝阳区,本科,A轮,"移动互联网,硬件",116.458741,39.932851,全职,3-5年,"['年度旅游', '弹性工作', '领导好', '五险一金']"
167,4365318,java开发工程师,青岛,2018-05-02 16:40:45,6.2,19187,友友系统,北京友友天宇系统技术有限公司,50-150人,市北区,大专,D轮及以上,数据服务,120.368904,36.085299,全职,1-3年,"['年终分红', '股票期权', '五险一金', '通讯津贴']"
168,4350004,Java,广州,2018-05-02 11:30:06,14.0,142626,CLPS,上海华钦信息科技股份有限公司,500-2000人,天河区,本科,未融资,"数据服务,金融",113.332464,23.134217,全职,3-5年,"['专项奖金', '带薪年假', '定期体检', '交通补助']"
169,4187090,JAVA工程师,南京,2018-05-02 11:16:04,12.0,34683,买单侠,上海秦苍信息科技有限公司,500-2000人,雨花台区,本科,C轮,移动互联网、金融,118.77774,31.974265,全职,1-3年,"['美式企业文化', '节日礼物', '股票期权', '岗位晋升']"
170,4438757,Java,北京,2018-05-02 10:03:49,23.2,701,亿玛在线-互联网营销领航者,北京亿玛创新网络科技有限公司,500-2000人,朝阳区,本科,上市公司,"移动互联网,电子商务",116.580188,39.908772,全职,3-5年,"['技能培训', '绩效奖金', '年度旅游', '岗位晋升']"
171,3982765,JAVA开发工程师,西安,2018-05-02 09:26:32,10.8,70634,彩视,迅捷联动（北京）科技有限公司,15-50人,雁塔区,本科,A轮,移动互联网,108.860814,34.195448,全职,1-3年,"['技能培训', '年底双薪', '股票期权', '带薪年假']"
172,3308572,JAVA工程师,深圳,2018-05-02 09:23:19,14.0,112144,爱问医联,爱问医联科技（深圳）有限公司,50-150人,南山区,本科,A轮,"医疗健康,移动互联网",113.946293,22.53343,全职,3-5年,"['股票期权', '带薪年假', '午餐补助', '专项奖金']"
173,4139819,Java开发工程师,上海,2018-05-02 09:16:35,17.0,110631,上海畅采,上海畅采电子商务有限公司,50-150人,徐汇区,本科,A轮,电子商务,121.40022,31.17751,全职,3-5年,"['绩效奖金', '股票期权', '通讯津贴', '交通补助']"
174,4472885,JAVA开发工程师,济南,2018-05-02 09:13:11,10.8,24574,赛意,广州赛意信息科技股份有限公司,2000人以上,高新区,大专,上市公司,"硬件,企业服务",117.13565,36.670587,全职,3-5年,"['技能培训', '带薪年假', '绩效奖金', '岗位晋升']"
175,3571239,JAVA开发工程师,杭州,2018-05-03 09:19:56,15.2,100241,阿里体育,阿里体育（上海）有限公司,150-500人,余杭区,本科,A轮,"文化娱乐,其他",120.026208,30.279212,全职,3-5年,"['股票期权', '岗位晋升', '领导好', '美女多']"
176,4295631,Java开发,上海,2018-05-03 09:15:16,18.2,1738,有鱼金融科技,上海彩亿信息技术有限公司,500-2000人,徐汇区,本科,B轮,"移动互联网,金融",121.40391012,31.1640189,全职,1-3年,"['股票期权', '年底双薪', '五险一金', '带薪年假']"
177,2751893,JAVA开发工程师,深圳,2018-05-03 08:50:05,11.4,63500,紫川软件,深圳市紫川软件有限公司,500-2000人,福田区,大专,不需要融资,"电子商务,金融",0.0,0.0,全职,3-5年,"['节日礼物', '年底双薪', '绩效奖金', '岗位晋升']"
178,3445818,JAVA开发工程师,杭州,2018-05-03 08:43:45,21.0,123591,方得智能,杭州方得智能科技有限公司,15-50人,余杭区,本科,天使轮,移动互联网,120.005217,30.29305,全职,5-10年,"['股票期权', '午餐补助', '带薪年假', '绩效奖金']"
179,3311853,Java开发工程师,上海,2018-05-02 15:00:45,11.2,7988,海鼎,上海海鼎信息工程股份有限公司,500-2000人,闵行区,本科,不需要融资,企业服务,121.51732,31.07684,全职,1-3年,"['节日礼物', '带薪年假', '绩效奖金', '岗位晋升']"
180,3676204,java开发工程师,广州,2018-05-02 13:43:46,12.0,35283,广州惠侨,广州惠侨计算机科技有限公司,150-500人,越秀区,本科,上市公司,移动互联网,113.314638,23.126929,全职,3-5年,"['技能培训', '节日礼物', '绩效奖金', '岗位晋升']"
181,4489880,JAVA开发工程师,深圳,2018-05-02 12:17:35,21.0,98800,竹间智能科技(上海)有限公司,竹间智能科技（上海）有限公司,150-500人,南山区,本科,B轮,"移动互联网,其他",113.952696,22.530438,全职,3-5年,"['年底双薪', '股票期权', '带薪年假', '绩效奖金']"
182,4246898,Java工程师,北京,2018-05-02 10:59:56,25.2,1992,有利网,北京弘合柏基金融信息服务有限责任公司,500-2000人,朝阳区,本科,A轮,金融,116.456076,39.948051,全职,5-10年,"['岗位晋升', '股票期权', '绩效奖金', '定期体检']"
183,4069300,java开发工程师,合肥,2018-05-02 10:04:06,6.6,164634,百得思维,安徽百得思维信息科技有限公司,500-2000人,高新区,本科,未融资,其他,117.144594,31.831305,全职,1-3年,[]
184,4217214,Java开发工程师,深圳,2018-05-03 09:06:47,14.0,113576,三代人科技,深圳三代人科技有限公司,150-500人,南山区,本科,不需要融资,"移动互联网,医疗健康",113.94404,22.528443,全职,3-5年,"['股票期权', '一年14薪', '绩效奖金', '扁平管理']"
185,4497590,JAVA开发工程师,上海,2018-05-03 09:04:06,14.4,128998,江苏亿科达,上海海万信息科技股份有限公司,500-2000人,徐汇区,本科,不需要融资,"移动互联网,金融",121.456116,31.183131,全职,3-5年,[]
186,4050127,Java开发工程师,深圳,2018-05-03 08:56:19,12.0,119788,汇金智融,汇金智融（北京）科技有限公司,150-500人,南山区,本科,上市公司,"移动互联网,电子商务",113.943551,22.548179,全职,3-5年,"['年底双薪', '绩效奖金', '带薪年假', '弹性工作']"
187,4374700,JAVA开发,北京,2018-05-02 19:01:02,27.8,151678,快成,北京快成物流科技股份公司,50-150人,海淀区,本科,A轮,"其他,移动互联网",116.33396,39.986955,全职,5-10年,"['弹性工作', '年度旅游', '扁平管理', '领导好']"
188,3381579,JAVA开发工程师,北京,2018-05-02 17:28:01,21.0,206560,比链科技,北京比链科技有限公司,150-500人,海淀区,本科,A轮,"金融,电子商务",116.37609,40.032213,全职,3-5年,"['午餐补助', '下午茶', '互联网金融', '领导nice']"
189,4335873,JAVA,北京,2018-05-02 17:21:53,28.0,111139,NIO蔚来,上海蔚来汽车有限公司,2000人以上,朝阳区,本科,D轮及以上,"移动互联网,硬件",116.465947,40.021473,全职,3-5年,"['年底双薪', '带薪年假', '通讯津贴', '交通补助']"
190,4404241,Java工程师,北京,2018-05-02 17:13:46,21.0,56698,屏芯科技,北京屏芯科技有限公司,500-2000人,海淀区,本科,B轮,"移动互联网,电子商务",116.330301,39.993134,全职,5-10年,"['技能培训', '节日礼物', '带薪年假', '绩效奖金']"
191,4481379,Java开发工程师,北京,2018-05-02 16:34:33,19.0,303429,汇联金科,汇联金科信息技术（北京 )有限公司,50-150人,朝阳区,本科,A轮,金融,0.0,0.0,全职,3-5年,"['带薪年假', '弹性工作', '扁平管理', '五险一金']"
192,4397804,Java工程师,北京,2018-05-02 15:41:07,19.0,110502,洋钱罐,北京瓴岳信息技术有限公司,150-500人,朝阳区,硕士,不需要融资,"移动互联网,金融",116.460733,39.929643,全职,1-3年,"['14薪', '弹性工作', '零食水果', '午餐晚餐']"
193,2435383,Java研发工程师,北京,2018-05-02 12:09:12,21.0,104715,信美相互,信美人寿相互保险社,150-500人,西城区,本科,不需要融资,"移动互联网,金融",115.99339,39.99426,全职,3-5年,"['扁平管理', '技能培训', '六险一金', '定期体检']"
194,4335922,Java,北京,2018-05-02 10:45:31,31.0,34573,省钱快报,北京九州云动科技有限公司,50-150人,东城区,本科,B轮,"移动互联网,电子商务",116.4119,39.947795,全职,3-5年,"['技能培训', '专项奖金', '带薪年假', '绩效奖金']"
195,4117774,java,西安,2018-05-02 10:30:22,10.8,309113,西点信息,西安西点信息技术有限公司,50-150人,雁塔区,本科,不需要融资,企业服务,108.910357,34.213808,全职,5-10年,"['周末双休', '社保公积金', '带薪年假', '生日福利']"
196,3584076,java,杭州,2018-05-02 10:29:24,16.8,185979,风数,杭州风数信息科技有限公司,50-150人,余杭区,本科,A轮,移动互联网,120.006319,30.277877,全职,1-3年,"['午餐补助', '带薪年假', '股票期权']"
197,2219459,Java工程师,杭州,2018-05-02 10:25:50,14.0,65155,海拍客,杭州洋驼网络科技有限公司,500-2000人,西湖区,不限,C轮,电子商务,120.07009983,30.27794053,全职,3-5年,"['股票期权', '带薪年假', '绩效奖金', '年终分红']"
198,3155864,初级JAVA/PHP开发,北京,2018-05-02 10:09:14,7.0,41030,小肚皮App,北京九识佳科技有限公司,15-50人,朝阳区,本科,A轮,移动互联网,116.473079,39.91331,全职,1年以下,"['年度旅游', '美女CEO', '五险一金', '午餐补助']"
199,4072595,JAVA开发工程师,佛山,2018-05-02 09:11:51,12.0,29157,联塑集团,广东联塑科技实业有限公司,2000人以上,顺德区,本科,上市公司,生活服务,113.090662,22.868845,全职,3-5年,"['技能培训', '岗位晋升', '管理规范', '上市公司']"
200,3363377,JAVA开发,深圳,2018-05-02 09:07:55,14.0,128998,江苏亿科达,上海海万信息科技股份有限公司,500-2000人,福田区,本科,不需要融资,"移动互联网,金融",0.0,0.0,全职,5-10年,[]
201,4204194,java工程师,深圳,2018-05-02 09:00:44,12.0,16831,武汉佰钧成技术有限公司,武汉佰钧成技术有限责任公司,2000人以上,龙岗区,大专,不需要融资,移动互联网,114.063328,22.643058,全职,3-5年,"['带薪年假', '计算机软件', '管理规范', '定期体检']"
202,3173112,Java工程师,武汉,2018-05-02 08:44:04,10.8,101746,财人汇,杭州财人汇网络股份有限公司,150-500人,江汉区,本科,上市公司,"移动互联网,金融",114.26381,30.593388,全职,3-5年,"['节日礼物', '股票期权', '带薪年假', '绩效奖金']"
203,4327300,Java高级,北京,2018-05-03 09:03:35,24.2,141803,高思教育集团,北京高思博乐教育科技股份有限公司,2000人以上,海淀区,本科,上市公司,"教育,移动互联网",116.335936,39.994197,全职,5-10年,"['绩效奖金', '带薪年假', '专项奖金', '六险一金']"
204,4324940,java开发工程师,杭州,2018-05-02 16:55:10,14.0,350663,盛世创富,北京盛世创富证券投资顾问有限公司,500-2000人,滨江区,本科,未融资,金融,120.179643,30.18819,全职,3-5年,"['""""']"
205,4399388,java开发工程师,广州,2018-05-02 16:03:19,17.0,200499,一智通,广州一智通供应链管理有限公司,150-500人,天河区,本科,B轮,企业服务,113.320471,23.162406,全职,3-5年,"['通讯津贴', '带薪年假', '股票期权', '住宿补贴']"
206,4310482,Java工程师,深圳,2018-05-02 15:19:15,21.0,180468,星炫科技,深圳市星炫科技有限公司,15-50人,南山区,本科,A轮,移动互联网,113.946882,22.546157,全职,3-5年,"['年底双薪', '交通补助', '弹性工作', '领导好']"
207,4446821,Java研发工程师,杭州,2018-05-02 10:51:54,21.0,59928,盈盈理财,杭州盈纳控股集团有限公司,500-2000人,下城区,不限,A轮,移动互联网,120.165783,30.315415,全职,不限,"['带薪年假', '绩效奖金', '扁平管理', '股票期权']"
208,1508406,Java开发工程师,成都,2018-05-02 10:28:43,7.0,19763,金铠甲科技,成都金铠甲科技有限公司,50-150人,高新区,本科,不需要融资,移动互联网,104.06836858,30.53876099,全职,1-3年,"['五险一金', '午餐补助', '岗位晋升', '领导好']"
209,4496502,Java开发工程师,北京,2018-05-02 09:46:32,18.2,129720,DataHunter,北京数猎天下科技有限公司,50-150人,海淀区,本科,A轮,"数据服务,企业服务",116.33384,39.988101,全职,3-5年,"['年底双薪', '交通补助', '带薪年假', '帅哥多']"
210,3329921,java工程师,上海,2018-05-02 10:47:19,12.6,128998,江苏亿科达,上海海万信息科技股份有限公司,500-2000人,徐汇区,大专,不需要融资,"移动互联网,金融",121.456306,31.18335,全职,5-10年,[]
211,4500950,Java开发工程师,北京,2018-05-02 09:39:18,19.0,272321,知学云,深圳市知学云科技有限公司,150-500人,东城区,大专,不需要融资,"移动互联网,教育",116.424346,39.948702,全职,3-5年,"['责任', '创新', '分享', '激情']"
212,3856922,Java开发工程师,北京,2018-05-02 09:23:02,19.0,33059,健客网,广东健客医药有限公司,500-2000人,朝阳区,本科,A轮,"电子商务,医疗健康",116.406994,39.975185,全职,3-5年,"['节日礼物', '技能培训', '绩效奖金', '年度旅游']"
213,4139891,JAVA开发工程师,广州,2018-05-02 09:22:44,9.8,171364,以大供应链,广东以大供应链管理有限公司,50-150人,天河区,本科,A轮,"移动互联网,医疗健康",113.341186,23.175308,全职,3-5年,"['弹性工作', '领导好', '美女多', '帅哥多']"
214,3944535,Java工程师,上海,2018-05-02 09:13:20,19.0,243708,木子木网络,昆山木子木网络科技有限公司,15-50人,嘉定区,大专,未融资,游戏,121.227007,31.273282,全职,5-10年,[]
215,3523831,JAVA开发工程师,北京,2018-05-02 08:57:21,28.0,139755,京东商城,北京京东世纪贸易有限公司,2000人以上,大兴区,本科,上市公司,电子商务,116.50601,39.793232,全职,5-10年,"['免费班车', '子女教育计划', '安居计划', '救助基金']"
216,4334265,java开发,苏州,2018-05-02 17:11:23,12.4,156327,金螳螂.家,金螳螂家装电子商务（苏州）有限公司,2000人以上,工业园区,本科,不需要融资,"移动互联网,电子商务",120.769916,31.277888,全职,3-5年,[]
217,3980858,Java开发工程师,上海,2018-05-02 14:18:27,19.0,131324,多赋信息,上海多赋信息科技有限公司,50-150人,浦东新区,大专,不需要融资,"移动互联网,硬件",,,全职,5-10年,"['带薪年假', '定期体检', '年终分红', '股票期权']"
218,3827020,java,北京,2018-05-02 14:13:11,19.0,41878,商询科技,北京商询科技有限公司,50-150人,朝阳区,本科,A轮,"企业服务,数据服务",116.455703,39.924317,全职,3-5年,"['股票期权', '人脉资源', '办公环境好', '国际化团队']"
219,4419965,Java,广州,2018-05-02 11:30:06,16.8,142626,CLPS,上海华钦信息科技股份有限公司,500-2000人,天河区,本科,未融资,"数据服务,金融",113.332464,23.134217,全职,3-5年,"['专项奖金', '带薪年假', '定期体检', '交通补助']"
220,3681615,Java开发工程师,北京,2018-05-02 10:53:30,21.0,107423,瓜子二手车直卖网,车好多旧机动车经纪(北京)有限公司,2000人以上,海淀区,本科,C轮,O2O,116.29993611,40.04311563,全职,3-5年,"['带薪年假', '弹性工作', '免费班车', '美女多']"
221,3335959,Java开发工程师,西安,2018-05-02 10:13:35,15.2,20955,Yeahmobi,西安点告网络科技有限公司,150-500人,雁塔区,本科,上市公司,移动互联网,108.837196,34.210026,全职,3-5年,"['节日礼物', '技能培训', '绩效奖金', '年度旅游']"
222,4411262,java开发,北京,2018-05-02 09:49:15,16.2,68758,泰康之家,泰康之家（北京）投资有限公司,2000人以上,昌平区,本科,不需要融资,"金融,医疗健康",116.274811,40.099107,全职,3-5年,"['年底双薪', '带薪年假', '绩效奖金', '年度旅游']"
223,1736555,Java,杭州,2018-05-02 09:44:31,14.2,101909,通卡联城,通卡联城网络科技有限公司,50-150人,上城区,本科,B轮,"移动互联网,电子商务",120.19710714,30.23098756,全职,3-5年,"['年底双薪', '管理规范', '定期体检', '五险一金']"
224,3067379,Java开发工程师,北京,2018-05-02 09:22:48,14.0,181493,开拓天际,北京开拓天际科技有限公司,50-150人,海淀区,本科,A轮,"数据服务,信息安全",116.353207,39.977309,全职,3-5年,"['年底双薪', '股票期权', '年终分红', '节日礼物']"
225,3958147,java工程师,上海,2018-05-02 10:47:19,10.8,128998,江苏亿科达,上海海万信息科技股份有限公司,500-2000人,浦东新区,大专,不需要融资,"移动互联网,金融",121.5025,31.237015,全职,3-5年,[]
226,4498661,Java开发工程师,深圳,2018-05-02 09:19:49,19.0,69152,博奥特科技,深圳市博奥特科技有限公司,150-500人,福田区,本科,未融资,"移动互联网,金融",114.04831,22.542762,全职,3-5年,"['绩效奖金', '领导好', '帅哥多', '美女多']"
227,4378740,Java工程师,深圳,2018-05-02 08:50:49,19.0,103077,智慧享联,深圳市智慧享联网络技术有限公司,150-500人,南山区,本科,不需要融资,"移动互联网,O2O",0.0,0.0,全职,3-5年,"['绩效奖金', '带薪年假', '年度旅游', '年终分红']"
228,4458688,java开发工程师,北京,2018-05-02 08:47:04,35.0,138254,唐冠福合,北京唐冠福合数字技术有限公司,15-50人,丰台区,大专,不需要融资,企业服务,116.339549,39.847403,全职,3-5年,"['扁平管理', '领导好', '年终分红', '年底双薪']"
229,4129163,java开发工程师,北京,2018-05-01 20:55:00,22.8,321827,NextFintech,北京未来之翼科技有限公司,15-50人,朝阳区,本科,不需要融资,"移动互联网,金融",116.414631,40.040364,全职,3-5年,"['""""']"
230,2974259,JAVA,上海,2018-05-03 08:53:52,17.8,128244,上海普泽大药房有限公司,上海普泽大药房有限公司,500-2000人,普陀区,本科,未融资,移动互联网,121.379066,31.233005,全职,3-5年,"['带薪年假', '绩效奖金', '午餐补助', '带薪病假']"
231,3979983,Java开发工程师,上海,2018-05-02 16:12:14,28.0,82635,上海华瑞银行,上海华瑞银行股份有限公司,150-500人,浦东新区,本科,不需要融资,金融,121.531673,31.216762,全职,3-5年,"['绩效奖金', '扁平管理', '领导好', '美女多']"
232,4504827,JAVA开发工程师,北京,2018-05-02 11:13:12,14.4,280397,中煤信息,中煤信息技术（北京）有限公司,50-150人,朝阳区,大专,不需要融资,"企业服务,电子商务",116.396572,39.96315,全职,5-10年,[]
233,4141035,java开发工程师,北京,2018-05-02 10:55:48,21.0,968,有品 PICOOC,缤刻普锐（北京）科技有限责任公司,50-150人,西城区,本科,B轮,移动互联网,116.373732,39.953782,全职,3-5年,"['年底双薪', '股票期权', '绩效奖金', '带薪年假']"
234,4489354,Java,上海,2018-05-02 10:43:45,25.2,56741,红星美凯龙互联网集团,红星美凯龙家居集团股份有限公司,2000人以上,普陀区,本科,上市公司,"移动互联网,O2O",121.38534,31.237414,全职,3-5年,"['技能培训', '节日礼物', '年底双薪', '年度旅游']"
235,2600780,Java工程师,广州,2018-05-02 10:00:05,8.2,158926,阳光康众,广东天泽阳光康众医疗投资管理有限公司,50-150人,海珠区,大专,A轮,"移动互联网,医疗健康",113.3724,23.102768,全职,1-3年,"['带薪年假', '专项奖金', '弹性工作', '节日礼物']"
236,3355786,java开发工程师,广州,2018-05-02 09:48:55,10.8,30162,公瑾,北京公瑾科技有限公司广州分公司,500-2000人,天河区,本科,B轮,移动互联网,0.0,0.0,全职,3-5年,"['年底双薪', '带薪年假', '年度旅游', '五险一金']"
237,3832183,java开发工程师,南京,2018-05-02 09:41:56,11.0,86307,先安科技,江苏先安科技有限公司,15-50人,雨花台区,本科,未融资,信息安全,118.776011,32.040521,全职,3-5年,"['专项奖金', '扁平管理', '定期体检', '交通补助']"
238,4303679,JAVA研发工程师,北京,2018-05-02 09:32:45,15.2,134645,中国东信,中国—东盟信息港股份有限公司,150-500人,海淀区,硕士,不需要融资,"数据服务,金融",116.314526,39.982338,全职,3-5年,"['股票期权', '绩效奖金', '通讯津贴', '交通补助']"
239,3944544,Java工程师,苏州,2018-05-02 09:13:21,19.0,243708,木子木网络,昆山木子木网络科技有限公司,15-50人,昆山市,大专,未融资,游戏,121.148172,31.288881,全职,5-10年,[]
240,4359906,java工程师,上海,2018-05-02 10:47:17,11.2,128998,江苏亿科达,上海海万信息科技股份有限公司,500-2000人,徐汇区,大专,不需要融资,"移动互联网,金融",121.457162,31.183764,全职,3-5年,[]
241,3932890,java,南京,2018-05-02 08:59:40,19.0,110239,徐工信息,江苏徐工信息技术股份有限公司,50-150人,雨花台区,本科,未融资,"移动互联网,电子商务",118.780402,32.040704,全职,3-5年,"['股票期权', '华为大牛带队', '氛围轻松', '国家级实验室']"
242,4128020,JAVA开发工程师,杭州,2018-04-24 17:45:43,14.0,719,顺网科技,杭州顺网科技股份有限公司,500-2000人,西湖区,本科,上市公司,"游戏,文化娱乐",120.057035,30.286205,全职,3-5年,"['技能培训', '节日礼物', '年度旅游', '岗位晋升']"
243,4043124,Java开发,上海,2018-05-03 09:20:13,14.4,61875,设计院,广东省电信规划设计院有限公司,2000人以上,虹口区,本科,上市公司,"移动互联网,金融",121.486394,31.248034,全职,3-5年,"['绩效奖金', '带薪年假', '通讯津贴', '年底双薪']"
244,4030671,Java,深圳,2018-05-02 15:19:16,16.8,180468,星炫科技,深圳市星炫科技有限公司,15-50人,南山区,本科,A轮,移动互联网,113.946882,22.546157,全职,1-3年,"['年底双薪', '交通补助', '弹性工作', '领导好']"
245,4496828,java,上海,2018-05-02 13:06:51,26.0,1738,有鱼金融科技,上海彩亿信息技术有限公司,500-2000人,徐汇区,大专,B轮,"移动互联网,金融",121.40391,31.164019,全职,5-10年,"['股票期权', '年底双薪', '五险一金', '带薪年假']"
246,3030377,Java工程师,杭州,2018-05-02 11:17:41,14.0,18655,大搜车,杭州大搜车汽车服务有限公司,500-2000人,余杭区,本科,D轮及以上,"移动互联网,O2O",120.03182,30.24372,全职,3-5年,"['技能培训', 'Geek', '开放', '扁平管理']"
247,4448572,java开发工程师,杭州,2018-05-02 11:16:11,9.6,119788,汇金智融,汇金智融（北京）科技有限公司,150-500人,滨江区,本科,上市公司,"移动互联网,电子商务",120.171562,30.188196,全职,1-3年,"['年底双薪', '绩效奖金', '带薪年假', '弹性工作']"
248,3595544,Java开发工程师,广州,2018-05-02 10:59:22,10.8,109910,凝新,广州市凝新信息科技有限公司,15-50人,荔湾区,本科,不需要融资,"其他,企业服务",113.239861,23.125198,全职,3-5年,"['专项奖金', '带薪年假', '年度旅游', '五险一金']"
249,4504475,Java开发工程师,重庆,2018-05-02 10:46:41,9.4,164634,百得思维,安徽百得思维信息科技有限公司,500-2000人,南岸区,本科,未融资,其他,106.637338,29.480069,全职,3-5年,[]
250,4157559,JAVA开发工程师,北京,2018-05-02 09:05:58,19.0,151381,中诚信征信,中诚信征信有限公司,150-500人,东城区,本科,不需要融资,"移动互联网,金融",116.420489,39.921853,全职,3-5年,[]
251,3936275,Java开发工程师,北京,2018-04-23 18:26:56,17.8,1337,北京智慧图,北京智慧图科技有限责任公司,150-500人,海淀区,本科,C轮,"移动互联网,数据服务",116.351596,39.977242,全职,3-5年,"['股票期权', '绩效奖金', '岗位晋升', '扁平管理']"
252,4262481,Java开发,重庆,2018-05-03 08:50:27,8.4,31076,重庆融特通信技术有限公司,重庆融特通信技术有限公司,50-150人,九龙坡区,本科,未融资,"移动互联网,文化娱乐",106.48575,29.53096,全职,1-3年,"['技能培训', '年底双薪', '节日礼物', '绩效奖金']"
253,2452865,Java研发工程师,北京,2018-05-02 22:25:40,28.0,534,京东金融,京东金融,2000人以上,大兴区,本科,上市公司,金融,116.56784934,39.79105081,全职,3-5年,"['供应链金融', '消费金融', '众筹业务', '支付业务']"
254,4337962,Java开发工程师,广州,2018-05-02 17:30:22,9.6,24348,中大凯旋,广州中大凯旋电子科技有限公司,150-500人,番禺区,大专,不需要融资,电子商务,113.386275,23.057,全职,3-5年,"['年终分红', '绩效奖金', '专项奖金', '五险一金']"
255,3886946,java工程师,上海,2018-04-28 14:47:13,10.8,128998,江苏亿科达,上海海万信息科技股份有限公司,500-2000人,徐汇区,本科,不需要融资,"移动互联网,金融",121.462683,31.1871,全职,3-5年,[]
256,4103952,JAVA工程师,深圳,2018-05-02 14:08:32,21.0,130397,小步网络,深圳小步网络科技有限公司,15-50人,宝安区,本科,B轮,移动互联网,113.868533,22.560019,全职,3-5年,"['股票期权', '定期体检', '下午茶', '年度旅游']"
257,676160,Java,北京,2018-05-02 11:35:23,19.0,7835,金山办公软件,北京金山软件有限公司,2000人以上,海淀区,本科,上市公司,移动互联网,,,全职,3-5年,"['年底双薪', '节日礼物', '技能培训', '绩效奖金']"
258,3541829,Java开发工程师,广州,2018-05-02 11:34:29,17.8,50241,Symbio-Freeborders,信必优(深圳)信息技术有限公司,2000人以上,天河区,本科,未融资,"移动互联网,电子商务",113.332464,23.134217,全职,3-5年,"['节日礼物', '年底双薪', '带薪年假', '年度旅游']"
259,3717133,Java开发工程师,武汉,2018-05-02 11:32:16,14.0,97399,Trusfort芯盾时代,北京芯盾时代科技有限公司,50-150人,洪山区,本科,B轮,"移动互联网,信息安全",0.0,0.0,全职,3-5年,"['高薪', '股票期权', '内荐重奖', '餐补话补']"
260,3955946,java开发工程师,北京,2018-05-02 11:30:59,33.0,50702,美团点评,北京三快在线科技有限公司,2000人以上,长宁区,本科,D轮及以上,"移动互联网,O2O",121.417969,31.217836,全职,3-5年,"['技能培训', '绩效奖金', '岗位晋升', '领导好']"
261,4379658,JAVA开发工程师,北京,2018-05-02 10:57:41,19.0,310080,金宣地产,北京金宣置地房地产经纪有限公司,500-2000人,西城区,本科,未融资,O2O,0.0,0.0,全职,3-5年,"['绩效奖金', '带薪年假', '年度旅游', '美女多']"
262,675725,Java开发工程师,武汉,2018-05-02 10:25:36,12.4,67300,ThoughtWorks,思特沃克软件技术（成都）有限公司,2000人以上,洪山区,本科,不需要融资,企业服务,114.408425,30.491178,全职,3-5年,"['技能培训', '节日礼物', '带薪年假', '全球化视野']"
263,3648034,JAVA开发,杭州,2018-05-02 10:04:14,14.0,141397,浙江腾保网络科技有限公司,浙江腾保网络科技有限公司,50-150人,西湖区,不限,A轮,"移动互联网,金融",120.095142,30.307737,全职,3-5年,"['年底双薪', '带薪年假', '绩效奖金', '年度旅游']"
264,4380176,java开发工程师,深圳,2018-05-02 09:39:19,19.0,272321,知学云,深圳市知学云科技有限公司,150-500人,南山区,大专,不需要融资,"移动互联网,教育",113.952696,22.530438,全职,3-5年,"['责任', '创新', '分享', '激情']"
265,4217308,JAVA工程师,上海,2018-05-02 09:31:01,15.2,2380,浙江执御信息技术有限公司,浙江执御信息技术有限公司,2000人以上,长宁区,本科,B轮,"移动互联网,数据服务",121.35308,31.221759,全职,3-5年,"['五险一金', '带薪年假', '节日礼物', '年度旅游']"
266,3128599,Java开发工程师,深圳,2018-05-02 09:28:50,12.0,119788,汇金智融,汇金智融（北京）科技有限公司,150-500人,南山区,本科,上市公司,"移动互联网,电子商务",0.0,0.0,全职,3-5年,"['年底双薪', '绩效奖金', '带薪年假', '弹性工作']"
267,3857033,Java,上海,2018-05-02 09:13:21,20.2,243708,木子木网络,昆山木子木网络科技有限公司,15-50人,嘉定区,大专,未融资,游戏,121.227007,31.273282,全职,3-5年,[]
268,4231317,Java工程师,深圳,2018-05-02 08:47:48,28.0,21406,Coding,深圳市扣钉网络科技有限公司,50-150人,南山区,本科,B轮,数据服务,113.956462,22.537911,全职,3-5年,"['股票期权', '专项奖金', '五险一金', '带薪年假']"
269,2275463,Java,苏州,2018-05-01 20:41:03,6.8,75213,南京思酷通讯科技有限公司,南京思酷通讯科技有限公司,15-50人,吴江区,本科,不需要融资,"移动互联网,电子商务",120.6421,31.143149,全职,不限,[]
270,3292448,java开发工程师,上海,2018-05-03 09:08:33,14.0,128998,江苏亿科达,上海海万信息科技股份有限公司,500-2000人,静安区,大专,不需要融资,"移动互联网,金融",121.458959,31.266934,全职,3-5年,[]
271,3121715,Java开发工程师,北京,2018-05-02 10:10:43,28.0,50702,美团点评,北京三快在线科技有限公司,2000人以上,朝阳区,本科,D轮及以上,"移动互联网,O2O",116.486654,40.007208,全职,3-5年,"['技能培训', '绩效奖金', '岗位晋升', '领导好']"
272,1678918,Java开发工程师,上海,2018-05-03 09:19:56,14.0,100241,阿里体育,阿里体育（上海）有限公司,150-500人,杨浦区,本科,A轮,"文化娱乐,其他",121.54216297,31.27885833,全职,3-5年,"['股票期权', '岗位晋升', '领导好', '美女多']"
273,3464984,Java开发工程师,北京,2018-05-03 09:12:23,17.0,243729,众智同心,北京众智同心科技有限责任公司,15-50人,朝阳区,本科,天使轮,移动互联网,116.460435,39.882853,全职,3-5年,[]
274,3026416,java开发工程师,杭州,2018-05-03 08:50:06,15.4,16831,武汉佰钧成技术有限公司,武汉佰钧成技术有限责任公司,2000人以上,余杭区,大专,不需要融资,移动互联网,,,全职,3-5年,"['带薪年假', '计算机软件', '管理规范', '定期体检']"
275,3529606,高级JAVA工程师,北京,2018-05-02 22:44:01,19.6,68719,安心医生,北京惠福康信息咨询有限公司,50-150人,朝阳区,本科,B轮,移动互联网,116.442184,39.923132,全职,3-5年,"['技能培训', '股票期权', '带薪年假', '绩效奖金']"
276,3485823,资深JAVA开发,杭州,2018-05-02 16:25:43,20.2,223237,淘股神,杭州韦恩网络技术有限公司,15-50人,下城区,大专,A轮,"移动互联网,金融",120.162897,30.277435,全职,5-10年,"['股票期权', '绩效奖金', '弹性工作', '扁平管理']"
277,3264841,java开发工程师,广州,2018-05-02 15:49:49,10.8,212954,米美科技,广州米美科技有限公司,15-50人,天河区,本科,未融资,"数据服务,企业服务",113.316337,23.123687,全职,1-3年,"['岗位晋升', '扁平管理', '专项奖金', '带薪年假']"
278,4018492,JAVA开发工程师,上海,2018-05-02 13:54:07,11.2,153969,阔盈科技,上海阔盈网络科技股份有限公司,15-50人,虹口区,大专,不需要融资,移动互联网,121.491574,31.254616,全职,3-5年,[]
279,3817171,Java,杭州,2018-05-02 10:03:46,15.2,56234,小泰科技,浙江小泰科技有限公司,150-500人,滨江区,本科,不需要融资,金融,120.20162523,30.18886428,全职,3-5年,"['全员持股', '技能培训', '互联网氛围', '五险一金']"
280,3746687,java开发工程师,杭州,2018-05-02 10:03:17,17.8,2380,浙江执御信息技术有限公司,浙江执御信息技术有限公司,2000人以上,拱墅区,本科,B轮,"移动互联网,数据服务",120.11362,30.33344,全职,3-5年,"['五险一金', '带薪年假', '节日礼物', '年度旅游']"
281,4298104,Java工程师,北京,2018-05-02 09:52:50,19.0,18165,新东方教育行业研究院,北京点石经纬科技有限公司,150-500人,海淀区,大专,B轮,"移动互联网,教育",116.312091,39.980906,全职,3-5年,"['五险一金', '带薪年假', '节日礼物', '年度旅游']"
282,2885009,JAVA开发工程师,广州,2018-05-02 09:13:48,12.6,171993,数夫软件,广州数夫软件科技有限公司,150-500人,天河区,本科,未融资,移动互联网,113.372471,23.126201,全职,3-5年,[]
283,2073704,Java研发工程师,北京,2018-05-01 20:00:04,20.8,136978,玖富集团,玖富金科控股集团有限责任公司,2000人以上,,本科,C轮,金融,116.48079159,39.99612958,全职,3-5年,"['绩效奖金', '免费班车', '五险一金', '部门旅游']"
284,4434235,Java,北京,2018-04-25 12:42:04,28.0,111139,NIO蔚来,上海蔚来汽车有限公司,2000人以上,朝阳区,本科,D轮及以上,"移动互联网,硬件",116.465947,40.021473,全职,3-5年,"['年底双薪', '带薪年假', '通讯津贴', '交通补助']"
285,4210469,JAVA开发工程师,上海,2018-05-03 09:04:07,13.2,128998,江苏亿科达,上海海万信息科技股份有限公司,500-2000人,徐汇区,大专,不需要融资,"移动互联网,金融",121.456116,31.183131,全职,1-3年,[]
286,4387328,Java,北京,2018-05-02 17:30:26,28.0,50702,美团点评,北京三快在线科技有限公司,2000人以上,朝阳区,本科,D轮及以上,"移动互联网,O2O",121.417969,31.217836,全职,3-5年,"['技能培训', '绩效奖金', '岗位晋升', '领导好']"
287,1952950,Java,广州,2018-05-02 14:15:20,20.8,16831,武汉佰钧成技术有限公司,武汉佰钧成技术有限责任公司,2000人以上,天河区,本科,不需要融资,移动互联网,113.377816,23.13053,全职,5-10年,"['带薪年假', '计算机软件', '管理规范', '定期体检']"
288,3891864,java开发工程师,厦门,2018-05-03 09:23:05,9.4,19313,网宿科技,网宿科技股份有限公司北京分公司,2000人以上,思明区,本科,上市公司,移动互联网,118.183532,24.484451,全职,不限,"['年底双薪', '五险一金', '交通补助', '带薪年假']"
289,4304433,java研发,上海,2018-05-03 09:15:16,19.6,1738,有鱼金融科技,上海彩亿信息技术有限公司,500-2000人,徐汇区,本科,B轮,"移动互联网,金融",121.40391012,31.1640189,全职,1-3年,"['股票期权', '年底双薪', '五险一金', '带薪年假']"
290,4461775,Java工程师,杭州,2018-05-02 18:25:13,14.0,68417,卡咪网络,卡咪网络服务有限公司,50-150人,西湖区,本科,不需要融资,移动互联网,120.074832,30.288679,全职,3-5年,"['股票期权', '不定期腐败', '美女多', '领导好']"
291,4472296,java开发工程师,珠海,2018-05-02 16:51:17,11.4,21666,维恩贝特,维恩贝特科技有限公司,500-2000人,香洲区,本科,A轮,"电子商务,金融",113.578107,22.246695,全职,3-5年,"['年底双薪', '五险一金', '通讯津贴', '交通补助']"
292,4311088,Java开发工程师,北京,2018-05-02 11:54:54,19.0,54448,云像数字,云像（上海）数字技术有限公司,150-500人,朝阳区,本科,B轮,"数据服务,广告营销",116.494172,39.974093,全职,3-5年,"['技能培训', '节日礼物', '绩效奖金', '年度旅游']"
293,3897263,Java研发工程师,杭州,2018-05-02 11:17:41,14.0,18655,大搜车,杭州大搜车汽车服务有限公司,500-2000人,余杭区,本科,D轮及以上,"移动互联网,O2O",120.03182,30.24372,全职,3-5年,"['技能培训', 'Geek', '开放', '扁平管理']"
294,4232636,java开发工程师,杭州,2018-05-02 11:07:53,22.2,202323,阿里巴巴-B类事业群,阿里巴巴（中国）网络技术有限公司,2000人以上,滨江区,本科,上市公司,"移动互联网,电子商务",120.190216,30.18963,全职,3-5年,"['年底双薪', '绩效奖金', '带薪年假', '股票期权']"
295,4238536,Java开发工程师,南京,2018-05-02 10:57:04,12.0,24780,诚迈科技,诚迈科技（南京）股份有限公司,2000人以上,雨花台区,大专,上市公司,移动互联网,0.0,0.0,全职,3-5年,"['年底双薪', '专项奖金', '交通补助', '午餐补助']"
296,3760186,Java开发工程师,上海,2018-05-02 10:03:58,26.0,142041,奇虎360金融,上海淇毓信息科技有限公司,500-2000人,浦东新区,本科,未融资,"移动互联网,金融",121.536228,31.224342,全职,3-5年,"['年底双薪', '股票期权', '带薪年假', '定期体检']"
297,2748573,Java开发工程师,杭州,2018-05-02 09:49:48,14.0,14093,瞬联软件科技（北京）有限公司,瞬联软件科技（北京）有限公司,500-2000人,西湖区,本科,不需要融资,"移动互联网 ,企业服务",120.074402,30.290911,全职,3-5年,"['高薪', '节日礼物', '弹性工作', '带薪年假']"
298,4013459,Java开发工程师,哈尔滨,2018-05-02 09:27:33,8.4,201059,致学教育,成都致学教育科技有限公司,50-150人,南岗区,本科,A轮,教育,126.689233,45.742514,全职,3-5年,"['股票期权', '绩效奖金', '带薪年假', '定期体检']"
299,1075700,Java开发工程师,南京,2018-05-02 08:58:45,12.0,68822,广电猫猫,南京广电猫猫新媒体有限公司,150-500人,秦淮区,大专,不需要融资,"移动互联网,电子商务",118.78511,32.007923,全职,3-5年,"['年底双薪', '带薪年假', '绩效奖金', '岗位晋升']"
300,3637000,java开发,深圳,2018-05-02 09:07:55,13.2,128998,江苏亿科达,上海海万信息科技股份有限公司,500-2000人,福田区,本科,不需要融资,"移动互联网,金融",114.059297,22.568264,全职,3-5年,[]
301,3573865,Java研发工程师,上海,2018-05-02 11:17:40,14.0,18655,大搜车,杭州大搜车汽车服务有限公司,500-2000人,长宁区,本科,D轮及以上,"移动互联网,O2O",121.406652,31.196973,全职,3-5年,"['技能培训', 'Geek', '开放', '扁平管理']"
302,4238612,Java开发工程师,台州,2018-05-02 10:56:56,10.8,24780,诚迈科技,诚迈科技（南京）股份有限公司,2000人以上,椒江区,大专,上市公司,移动互联网,121.437386,28.634376,全职,1-3年,"['年底双薪', '专项奖金', '交通补助', '午餐补助']"
303,4466243,Java开发工程师,杭州,2018-04-30 20:08:31,15.8,18889,知米英语,杭州蓝脑教育科技有限公司,15-50人,西湖区,本科,A轮,"移动互联网,教育",120.146629,30.278751,全职,1-3年,"['股票期权', '五险一金', '通讯津贴', '交通补助']"
304,4489546,JAVA开发工程师,广州,2018-05-03 09:20:12,10.0,61875,设计院,广东省电信规划设计院有限公司,2000人以上,天河区,大专,上市公司,"移动互联网,金融",113.357338,23.135136,全职,3-5年,"['绩效奖金', '带薪年假', '通讯津贴', '年底双薪']"
305,3458070,JAVA开发工程师,嘉兴,2018-05-03 08:48:32,11.2,11527,蓝鸽集团,蓝鸽集团有限公司,500-2000人,南湖区,本科,不需要融资,"移动互联网,企业服务",0.0,0.0,全职,不限,"['专项奖金', '加班费', '两房一厅公寓', '博士后工作站']"
306,4447813,Java工程师,北京,2018-05-02 19:13:05,21.0,124192,闲徕互娱,北京闲徕互娱网络科技有限公司,500-2000人,朝阳区,大专,不需要融资,游戏,116.414211,40.032234,全职,3-5年,"['年底双薪', '股票期权', '带薪年假', '专项奖金']"
307,4448732,Java开发工程师,北京,2018-05-02 18:36:16,21.0,146195,博晨技术,北京博晨技术有限公司,50-150人,朝阳区,本科,A轮,企业服务,116.488885,39.999258,全职,3-5年,"['带薪年假', '年底双薪', '股票期权', '技能培训']"
308,4354498,JAVA开发工程师,杭州,2018-05-02 17:55:43,19.0,352913,国羽银融,杭州国羽银融控股有限公司,15-50人,滨江区,本科,天使轮,"金融,数据服务",120.204848,30.209793,全职,3-5年,"['股票期权', '带薪年假', '定期体检', '五险一金']"
309,3224353,java开发工程师,上海,2018-05-02 17:07:44,19.0,33713,富友,上海富友支付服务股份有限公司,150-500人,浦东新区,本科,不需要融资,移动互联网,121.551226,31.224221,全职,3-5年,"['技能培训', '节日礼物', '绩效奖金', '岗位晋升']"
310,3573149,Java,上海,2018-05-02 13:01:35,17.0,69631,鲁班软件,上海鲁班软件有限公司,150-500人,杨浦区,本科,不需要融资,企业服务,121.511138,31.306705,全职,3-5年,"['年底双薪', '股票期权', '岗位晋升', '五险一金']"
311,3960355,java,北京,2018-05-02 10:57:16,19.0,34798,亿迅科技,北京亿迅科技发展有限公司,15-50人,海淀区,大专,C轮,游戏,116.309413,39.980686,全职,3-5年,"['节日礼物', '绩效奖金', '岗位晋升', '管理规范']"
312,4374031,java工程师,北京,2018-05-02 10:52:02,19.0,3786,宜信,普信恒业科技发展（北京）有限公司,2000人以上,朝阳区,本科,上市公司,金融,0.0,0.0,全职,3-5年,"['管理规范', '技能培训', '扁平管理', '弹性工作']"
313,4108751,java,南京,2018-05-02 10:27:39,12.6,22862,上海中软华腾软件系统有限公司,上海中软华腾软件系统有限公司,2000人以上,秦淮区,本科,上市公司,"企业服务,金融",118.785567,32.027067,全职,3-5年,"['年底双薪', '绩效奖金', '带薪年假', '定期体检']"
314,4365845,Java开发工程师,上海,2018-05-02 10:14:17,15.8,119645,一条视频,上海一条网络科技有限公司,150-500人,徐汇区,本科,C轮,电子商务,121.395334,31.160489,全职,1-3年,"['年底双薪', '带薪年假', '午餐补助', '定期体检']"
315,4153638,java,上海,2018-04-28 14:47:13,10.8,128998,江苏亿科达,上海海万信息科技股份有限公司,500-2000人,徐汇区,本科,不需要融资,"移动互联网,金融",121.462683,31.1871,全职,3-5年,[]
316,4255965,Java工程师,北京,2018-05-02 09:55:18,28.0,1992,有利网,北京弘合柏基金融信息服务有限责任公司,500-2000人,朝阳区,本科,A轮,金融,116.456076,39.948051,全职,3-5年,"['岗位晋升', '股票期权', '绩效奖金', '定期体检']"
317,4420582,Java开发工程师,成都,2018-05-02 09:51:08,12.0,111387,慧择网,深圳市慧择时代科技有限公司,500-2000人,高新区,本科,B轮,"移动互联网,电子商务",104.05558,30.53895,全职,3-5年,"['带薪年假', '定期体检', '绩效奖金', '午餐补助']"
318,1661623,Java开发工程师,广州,2018-05-02 09:20:04,14.0,68910,健康猫,广州大象健康科技有限公司,500-2000人,天河区,大专,A轮,移动互联网,113.417401,23.173731,全职,3-5年,"['带薪年假', '绩效奖金', '岗位晋升', '美女多']"
319,3857015,Java,苏州,2018-05-02 09:13:21,20.2,243708,木子木网络,昆山木子木网络科技有限公司,15-50人,昆山市,大专,未融资,游戏,121.148172,31.288881,全职,3-5年,[]
320,2983700,JAVA开发工程师,广州,2018-05-02 08:52:25,12.0,81576,卡宝宝,广州卡宝宝互联网金融信息服务股份有限公司,50-150人,萝岗区,本科,上市公司,"移动互联网,金融",112.993461,22.994261,全职,3-5年,"['免费班车', '股票期权', '带薪年假', '年度旅游']"
321,3245775,java开发工程师,广州,2018-05-02 08:39:45,9.8,215697,康乐富,广州康乐富健康管家有限公司,150-500人,天河区,大专,不需要融资,"医疗健康,生活服务",113.346094,23.169918,全职,3-5年,"['年底双薪', '带薪年假', '绩效奖金', '股票期权']"
322,3754034,Java开发,上海,2018-05-01 15:59:28,30.2,140671,Airwallex,运汇（上海）网络科技有限公司,50-150人,黄浦区,本科,A轮,"移动互联网,金融",121.475713,31.224251,全职,3-5年,"['股票期权', '绩效奖金', '扁平管理', '岗位晋升']"
323,3741676,Java开发工程师,厦门,2018-04-28 09:58:07,14.0,87170,准动网络科技,准动网络科技(厦门)有限公司,150-500人,思明区,大专,B轮,"移动互联网,企业服务",118.192317,24.475824,全职,3-5年,"['精英团队', '扁平管理', '自由开放', '技术大牛']"
324,603016,中级Java开发,深圳,2018-05-03 08:50:05,12.6,63500,紫川软件,深圳市紫川软件有限公司,500-2000人,福田区,大专,不需要融资,"电子商务,金融",0.0,0.0,全职,3-5年,"['节日礼物', '年底双薪', '绩效奖金', '岗位晋升']"
325,4164906,JAVA开发工程师,广州,2018-05-03 08:40:33,8.2,62627,广东亿迅,广东亿迅科技有限公司,2000人以上,越秀区,本科,不需要融资,移动互联网,39.897445,116.331398,全职,1-3年,"['技能培训', '节日礼物', '年底双薪', '带薪年假']"
326,3423608,Java,广州,2018-05-02 17:47:51,14.0,205460,汇电云联,广州汇电云联互联网科技有限公司,50-150人,天河区,本科,不需要融资,移动互联网,113.343874,23.118381,全职,1-3年,"['五险一金', '周末双休', '定期体检', '节日礼物']"
327,3318460,Java开发工程师,上海,2018-05-02 16:25:23,14.0,93027,摩天轮,上海驹旗网络科技有限公司,150-500人,徐汇区,本科,B轮,"移动互联网,电子商务",121.437096,31.197462,全职,3-5年,"['股票期权', '狂野团建', '年底双薪', '技术氛围']"
328,3829184,Java开发工程师,上海,2018-05-02 14:18:27,10.8,131324,多赋信息,上海多赋信息科技有限公司,50-150人,嘉定区,大专,不需要融资,"移动互联网,硬件",121.2653,31.375602,全职,3-5年,"['带薪年假', '定期体检', '年终分红', '股票期权']"
329,3754604,Java开发工程师,深圳,2018-05-02 10:58:22,11.2,16831,武汉佰钧成技术有限公司,武汉佰钧成技术有限责任公司,2000人以上,福田区,本科,不需要融资,移动互联网,114.055602,22.538664,全职,3-5年,"['带薪年假', '计算机软件', '管理规范', '定期体检']"
330,4329425,java,上海,2018-04-28 14:47:13,10.6,128998,江苏亿科达,上海海万信息科技股份有限公司,500-2000人,杨浦区,本科,不需要融资,"移动互联网,金融",121.511321,31.261576,全职,1-3年,[]
331,4401105,JAVA开发,杭州,2018-05-02 10:35:33,14.0,2540,铜板街,杭州铜板街网络科技有限公司,150-500人,西湖区,不限,B轮,移动互联网,120.12478,30.2768,全职,5-10年,"['创新开放', '团队牛X', '全员期权', '高速成长']"
332,3503054,JAVA开发工程师,杭州,2018-05-02 10:13:25,17.0,42868,Club Factory,杭州嘉云数据科技有限公司,150-500人,西湖区,本科,C轮,"电子商务,移动互联网",120.124444,30.277356,全职,1-3年,"['海量大数据', '世界级产品', 'AI', '智能供应链']"
333,3443287,Java开发工程师,杭州,2018-05-02 10:12:07,14.0,56234,小泰科技,浙江小泰科技有限公司,150-500人,滨江区,本科,不需要融资,金融,120.20162523,30.18886428,全职,3-5年,"['全员持股', '技能培训', '互联网氛围', '五险一金']"
334,4395374,Java开发工程师,厦门,2018-05-02 09:44:19,19.0,9237,RingCentral厦门研发中心,厦门铃盛软件有限公司,500-2000人,思明区,本科,上市公司,"移动互联网,数据服务",0.0,0.0,全职,3-5年,"['年度旅游', '节日礼物', '年底双薪', '股票期权']"
335,3550484,高级Java开发,北京,2018-05-02 09:23:28,20.8,21190,深思数盾,北京深思数盾科技股份有限公司,50-150人,海淀区,本科,不需要融资,"信息安全,移动互联网",116.274018,40.046552,全职,3-5年,"['互联网+', '信息安全', '七险一金', '带薪年假']"
336,3684359,Java开发工程师,北京,2018-05-01 14:32:23,28.0,16869,朗播网,北京博智天下信息技术有限公司,150-500人,海淀区,本科,B轮,教育,116.31287,40.03445,全职,5-10年,"['扁平管理', '定期体检', '股票期权', '团建活动']"
337,4328163,java开发,长沙,2018-04-25 15:09:17,9.0,103897,新航动力,湖南新航动力信息科技有限公司,150-500人,岳麓区,大专,未融资,移动互联网、企业服务,112.848285,28.220958,全职,3-5年,"['五险一金', '绩效奖金', '技能培训', '岗位晋升']"
338,4454507,Java工程师,北京,2018-04-20 10:35:23,21.0,110502,洋钱罐,北京瓴岳信息技术有限公司,150-500人,朝阳区,本科,不需要融资,"移动互联网,金融",116.460733,39.929643,全职,1-3年,"['14薪', '弹性工作', '零食水果', '午餐晚餐']"
339,3100522,JAVA开发工程师,天津,2018-05-03 08:49:42,11.2,16831,武汉佰钧成技术有限公司,武汉佰钧成技术有限责任公司,2000人以上,滨海新区,大专,不需要融资,移动互联网,117.708092,39.10316,全职,3-5年,"['带薪年假', '计算机软件', '管理规范', '定期体检']"
340,3864368,Java工程师,北京,2018-05-02 15:01:20,19.0,57049,InnoTREE,北京因果树网络科技有限公司,50-150人,海淀区,本科,B轮,金融,116.306683,39.984791,全职,3-5年,"['技能培训', '节日礼物', '股票期权', '带薪年假']"
341,3898288,Java工程师,北京,2018-05-02 14:29:11,21.0,21732,FitTime睿健时代,北京飞拓互联科技有限公司,150-500人,朝阳区,本科,C轮,"移动互联网,社交网络",116.488426,40.000182,全职,5-10年,"['绩效奖金', '岗位晋升', '股票期权', '扁平管理']"
342,2080918,Java工程师,北京,2018-05-02 11:37:47,28.0,534,京东金融,京东金融,2000人以上,,本科,上市公司,金融,116.41874886,39.64659178,全职,5-10年,"['供应链金融', '消费金融', '众筹业务', '支付业务']"
343,4332962,JAVA工程师,北京,2018-05-02 11:28:35,19.0,247880,奇点汽车,智车优行科技（北京）有限公司,150-500人,朝阳区,本科,C轮,"移动互联网,硬件",116.460783,39.928448,全职,5-10年,"['股票期权', '午餐补助', '专项奖金', '定期体检']"
344,4385199,Java开发工程师,佛山,2018-05-02 11:14:16,7.8,5746,开科唯识,北京开科唯识技术有限公司,500-2000人,南海区,本科,未融资,金融,113.15044,23.060672,全职,1-3年,"['节日礼物', '技能培训', '年底双薪', '股票期权']"
345,4083101,java工程师,上海,2018-04-27 13:15:10,9.6,128998,江苏亿科达,上海海万信息科技股份有限公司,500-2000人,浦东新区,大专,不需要融资,"移动互联网,金融",0.0,0.0,全职,3-5年,[]
346,4027850,Java开发工程师,北京,2018-05-02 10:54:47,19.0,255,多贝网,北京多贝兄弟信息技术有限公司,50-150人,海淀区,本科,上市公司,教育,115.99339,39.99426,全职,1-3年,"['都是年轻人', '不打卡', '自助餐管饱', '娱乐活动管够']"
347,3717807,Java开发工程师,广州,2018-05-02 10:38:57,19.0,163964,傲银科技,广州傲银信息科技有限责任公司,15-50人,海珠区,大专,未融资,"文化娱乐,游戏",113.384699,23.101149,全职,3-5年,"['年底双薪', '股票期权', '弹性工作', '美女多']"
348,4433069,Java,北京,2018-05-02 10:37:48,26.0,262354,北京尚医智信健康管理有限公司,北京尚医智信健康管理有限公司,50-150人,顺义区,本科,不需要融资,医疗健康,0.0,0.0,全职,5-10年,"['年底4薪', '扁平管理', '领导好', '弹性工作']"
349,4447195,Java开发工程师,北京,2018-05-02 10:17:47,19.0,248005,红赢科技,北京红赢科技有限公司,50-150人,海淀区,本科,不需要融资,"移动互联网,金融",116.320755,39.976715,全职,3-5年,"['专项奖金', '年终分红', '带薪年假', '定期体检']"
350,4090739,java开发工程师,上海,2018-05-02 10:13:15,15.8,142626,CLPS,上海华钦信息科技股份有限公司,500-2000人,浦东新区,本科,未融资,"数据服务,金融",121.486531,31.181806,全职,3-5年,"['专项奖金', '带薪年假', '定期体检', '交通补助']"
351,4027351,Java开发工程师,上海,2018-05-02 10:00:47,21.0,111139,NIO蔚来,上海蔚来汽车有限公司,2000人以上,嘉定区,本科,D轮及以上,"移动互联网,硬件",121.197119,31.278439,全职,3-5年,"['年底双薪', '带薪年假', '通讯津贴', '交通补助']"
352,2709494,Java工程师,北京,2018-05-02 09:52:26,21.0,150239,考拉阅读,北京享阅教育科技有限公司,50-150人,海淀区,本科,B轮,"教育,移动互联网",116.323498,39.961025,全职,1-3年,"['股票期权', '午餐补助', '节日礼物', '帅哥多']"
353,2838281,JAVA,重庆,2018-05-02 09:19:18,14.0,112666,浙江远图互联科技股份有限公司,浙江远图互联科技股份有限公司,150-500人,沙坪坝区,本科,上市公司,"移动互联网,医疗健康",106.456878,29.541145,全职,1-3年,"['带薪年假', '定期体检', '专项奖金', '股票期权']"
354,3437615,JAVA开发工程师,北京,2018-05-02 08:57:22,28.0,139755,京东商城,北京京东世纪贸易有限公司,2000人以上,大兴区,本科,上市公司,电子商务,116.50601,39.793232,全职,5-10年,"['免费班车', '子女教育计划', '安居计划', '救助基金']"
355,4060261,JAVA开发工程师,大连,2018-04-27 13:34:42,9.8,40112,华宇,华宇（大连）信息服务有限公司,500-2000人,甘井子区,本科,上市公司,数据服务,121.47543,38.96132,全职,不限,"['技能培训', '节日礼物', '绩效奖金', '年度旅游']"
356,4261849,Java开发工程师,北京,2018-04-26 14:09:19,19.0,956,金山云,北京金山云网络技术有限公司,500-2000人,海淀区,本科,C轮,"移动互联网,数据服务",116.310195,40.039018,全职,3-5年,"['技能培训', '节日礼物', '瑜伽房', '免费班车']"
357,4064209,Java开发,广州,2018-05-03 09:20:12,8.4,61875,设计院,广东省电信规划设计院有限公司,2000人以上,天河区,大专,上市公司,"移动互联网,金融",113.357459,23.135155,全职,1-3年,"['绩效奖金', '带薪年假', '通讯津贴', '年底双薪']"
358,3084325,Java开发工程师,上海,2018-05-03 09:19:38,19.0,101010,小狗在家,上海乙豆信息科技有限公司,15-50人,徐汇区,本科,A轮,"移动互联网,O2O",121.417809,31.170736,全职,3-5年,"['节日礼物', '年底双薪', '股票期权', '带薪年假']"
359,3532641,Java研发工程师,深圳,2018-05-03 09:10:04,14.0,252111,合德瀚,合德瀚网络科技（深圳）有限公司,15-50人,宝安区,本科,不需要融资,"移动互联网,企业服务",113.885594,22.546088,全职,3-5年,"['岗位晋升', '五险一金', '带薪年假', '领导好']"
360,3307152,java工程师,深圳,2018-05-02 22:53:12,17.8,128998,江苏亿科达,上海海万信息科技股份有限公司,500-2000人,福田区,大专,不需要融资,"移动互联网,金融",114.053855,22.535702,全职,3-5年,[]
361,4467208,Java工程师,深圳,2018-05-02 17:41:03,14.0,50241,Symbio-Freeborders,信必优(深圳)信息技术有限公司,2000人以上,南山区,不限,未融资,"移动互联网,电子商务",113.937987,22.523392,全职,3-5年,"['节日礼物', '年底双薪', '带薪年假', '年度旅游']"
362,2872079,Java研发工程师,福州,2018-05-02 17:08:52,9.0,175982,福建日报新媒体,福建报业新媒体发展有限公司,50-150人,鼓楼区,本科,未融资,"移动互联网,电子商务",119.299179,26.100988,全职,1-3年,[]
363,4252393,JAVA开发工程师,广州,2018-05-02 15:49:48,6.2,212954,米美科技,广州米美科技有限公司,15-50人,天河区,本科,未融资,"数据服务,企业服务",113.316337,23.123687,全职,1-3年,"['岗位晋升', '扁平管理', '专项奖金', '带薪年假']"
364,3792774,Java开发工程师,北京,2018-05-02 12:17:35,28.0,98800,竹间智能科技(上海)有限公司,竹间智能科技（上海）有限公司,150-500人,海淀区,本科,B轮,"移动互联网,其他",116.33951639,39.99943018,全职,3-5年,"['年底双薪', '股票期权', '带薪年假', '绩效奖金']"
365,236927,Java,杭州,2018-05-02 11:26:07,16.8,35980,车纷享,杭州车厘子智能科技有限公司,150-500人,滨江区,不限,不需要融资,移动互联网,120.211816,30.20856,全职,3-5年,"['技能培训', '年底双薪', '专项奖金', '股票期权']"
366,4091609,Java研发工程师,北京,2018-05-02 10:59:56,19.0,1992,有利网,北京弘合柏基金融信息服务有限责任公司,500-2000人,朝阳区,本科,A轮,金融,116.456076,39.948051,全职,3-5年,"['岗位晋升', '股票期权', '绩效奖金', '定期体检']"
367,4479477,java开发工程师,保定,2018-05-02 10:09:26,7.0,288177,哈弗租赁,哈弗汽车租赁有限公司,50-150人,南市区,大专,不需要融资,移动互联网,115.465603,38.816119,全职,不限,"['弹性工作', '法定节假日', '初创型公司', '稳定持续性']"
368,4016680,JAVA开发工程师,重庆,2018-05-02 10:07:00,13.2,147989,天宏迅联,深圳天宏迅联科技发展有限公司,50-150人,渝中区,本科,不需要融资,"移动互联网,电子商务",106.515445,29.549753,全职,3-5年,"['股票期权', '专项奖金', '带薪年假', '绩效奖金']"
369,4315495,Java开发工程师,北京,2018-05-02 09:50:55,21.0,150239,考拉阅读,北京享阅教育科技有限公司,50-150人,海淀区,本科,B轮,"教育,移动互联网",116.302508,39.960317,全职,3-5年,"['股票期权', '午餐补助', '节日礼物', '帅哥多']"
370,3722742,java,深圳,2018-05-02 09:39:19,19.0,272321,知学云,深圳市知学云科技有限公司,150-500人,南山区,大专,不需要融资,"移动互联网,教育",113.952696,22.530438,全职,3-5年,"['责任', '创新', '分享', '激情']"
371,4245870,JAVA开发工程师,佛山,2018-05-02 09:35:45,19.6,52480,百硕,百硕同兴科技（北京）有限公司,150-500人,南海区,不限,不需要融资,"企业服务,金融",113.150174,23.059479,全职,3-5年,"['技能培训', '年底双薪', '节日礼物', '绩效奖金']"
372,951764,Java工程师,重庆,2018-05-02 09:29:45,8.4,86989,七腾软件,重庆七腾软件有限公司,50-150人,渝北区,本科,A轮,"移动互联网,硬件",106.60871879,29.64854232,全职,1-3年,"['带薪年假', '通勤车', '工龄工资', '五险一金']"
373,3753920,JAVA开发工程师,广州,2018-05-02 09:21:33,14.0,277688,青鹿教育,广州青鹿教育科技有限公司,150-500人,天河区,本科,不需要融资,"教育,移动互联网",113.435664,23.16589,全职,1-3年,"['周末双休', '五险一金', '年终分红', '免费工作餐']"
374,3917844,JAVA开发工程师,无锡,2018-04-28 14:19:57,14.0,3246,帆软软件,南京帆软软件有限公司,500-2000人,南长区,本科,不需要融资,数据服务,120.306907,31.548636,全职,1-3年,"['技能培训', '股票期权', '带薪年假', '年度旅游']"
375,3739811,java工程师,上海,2018-04-28 14:47:14,14.0,128998,江苏亿科达,上海海万信息科技股份有限公司,500-2000人,浦东新区,本科,不需要融资,"移动互联网,金融",121.535349,31.211962,全职,3-5年,[]
376,4016120,Java,深圳,2018-05-02 09:34:32,17.0,50241,Symbio-Freeborders,信必优(深圳)信息技术有限公司,2000人以上,南山区,本科,未融资,"移动互联网,电子商务",113.94625,22.543897,全职,3-5年,"['节日礼物', '年底双薪', '带薪年假', '年度旅游']"
377,4475581,java开发,杭州,2018-04-27 14:19:33,26.6,296144,融畅软件,苏州融畅软件科技有限公司,50-150人,滨江区,本科,未融资,移动互联网,120.158023,30.179989,全职,3-5年,"['""""']"
378,4510071,Java开发工程师,武汉,2018-05-03 09:22:03,6.2,125400,武汉新联空间信息技术有限公司,武汉新联空间信息技术有限公司,15-50人,,本科,未融资,"信息安全,硬件",,,全职,1-3年,"['绩效奖金', '五险一金', '岗位晋升', '双休']"
379,4276999,JAVA开发工程师,广州,2018-05-03 09:20:12,10.8,61875,设计院,广东省电信规划设计院有限公司,2000人以上,天河区,本科,上市公司,"移动互联网,金融",113.327081,23.117455,全职,3-5年,"['绩效奖金', '带薪年假', '通讯津贴', '年底双薪']"
380,4510014,Java开发,苏州,2018-05-03 09:13:27,10.2,74210,DGT,神州数码通用软件有限公司,2000人以上,虎丘区,大专,不需要融资,"移动互联网,金融",120.420758,31.326342,全职,3-5年,[]
381,3720003,Java开发工程师,深圳,2018-05-03 08:41:46,22.8,16831,武汉佰钧成技术有限公司,武汉佰钧成技术有限责任公司,2000人以上,龙华区,大专,不需要融资,移动互联网,114.064492,22.674035,全职,5-10年,"['带薪年假', '计算机软件', '管理规范', '定期体检']"
382,4042887,JAVA,杭州,2018-05-02 18:46:20,22.8,152584,空岛,杭州空岛科技有限公司,15-50人,余杭区,大专,不需要融资,"移动互联网,企业服务",119.996181,30.275849,全职,3-5年,"['股票期权', '年终分红', '带薪年假', '弹性工作']"
383,4375391,Java工程师,杭州,2018-05-02 16:30:15,21.0,135727,曹操专车,杭州优行科技有限公司,500-2000人,滨江区,本科,未融资,"移动互联网,O2O",120.21795,30.2081,全职,3-5年,"['优惠购车', '定期调薪', '广阔平台', '福利丰厚']"
384,4432776,高级JAVA开发,杭州,2018-05-02 16:25:43,19.0,223237,淘股神,杭州韦恩网络技术有限公司,15-50人,下城区,大专,A轮,"移动互联网,金融",120.162897,30.277435,全职,3-5年,"['股票期权', '绩效奖金', '弹性工作', '扁平管理']"
385,1582285,Java,金华,2018-05-02 12:07:52,7.0,85833,创建科技,浙江创建科技有限公司,150-500人,婺城区,大专,未融资,"移动互联网,企业服务",119.6443,29.07425,全职,1-3年,"['免费班车', '带薪年假', '绩效奖金', '定期体检']"
386,4134891,Java开发工程师,广州,2018-05-02 11:17:30,10.8,246130,广东原动力,广东原动力信息科技有限责任公司,50-150人,天河区,本科,未融资,"移动互联网,信息安全",113.328507,23.113394,全职,3-5年,[]
387,4427908,Java开发工程师,广州,2018-05-02 10:52:09,14.0,49579,欢聚时代（YY Inc）,广州华多网络科技有限公司,2000人以上,番禺区,本科,上市公司,移动互联网,113.34934,23.007035,全职,3-5年,"['技能培训', '节日礼物', '无息贷款', '绩效奖金']"
388,4045752,Java开发工程师,上海,2018-05-02 10:38:17,21.0,313862,上汽云计算中心,上海帆一尚行科技有限公司,50-150人,浦东新区,本科,不需要融资,"企业服务,数据服务",121.568359,31.269275,全职,3-5年,"['绩效奖金', '定期体检', '带薪年假', '免费午餐']"
389,3595166,JAVA开发,杭州,2018-05-02 10:29:24,16.8,185979,风数,杭州风数信息科技有限公司,50-150人,余杭区,本科,A轮,移动互联网,120.006319,30.277877,全职,3-5年,"['午餐补助', '带薪年假', '股票期权']"
390,4479602,JAVA工程师,深圳,2018-05-02 10:36:00,13.2,128998,江苏亿科达,上海海万信息科技股份有限公司,500-2000人,南山区,大专,不需要融资,"移动互联网,金融",113.941779,22.519131,全职,3-5年,[]
391,3665353,JAVA工程师,杭州,2018-05-02 09:46:31,14.0,31441,e签宝,杭州天谷信息科技有限公司,150-500人,西湖区,本科,B轮,"移动互联网,信息安全",119.993591,29.993662,全职,3-5年,"['节日礼物', '带薪年假', '年度旅游', '管理规范']"
392,3214480,Java,广州,2018-05-02 09:22:44,11.2,171364,以大供应链,广东以大供应链管理有限公司,50-150人,天河区,本科,A轮,"移动互联网,医疗健康",113.341186,23.175308,全职,1-3年,"['弹性工作', '领导好', '美女多', '帅哥多']"
393,4241470,java开发工程师,广州,2018-04-27 16:21:35,24.8,168991,老虎证券,北京优虎商务服务有限公司,150-500人,天河区,本科,B轮,"移动互联网,金融",113.32482,23.141785,全职,3-5年,"['绩效奖金', '年底双薪', '带薪年假', '定期体检']"
394,3701060,Java开发工程师,深圳,2018-04-27 10:22:33,14.4,25317,金证股份,深圳市金证科技股份有限公司,2000人以上,福田区,本科,上市公司,金融,114.055755,22.533344,全职,3-5年,"['激情的团队', '股票期权', '努力变大牛', '有舞台给您跳']"
395,4453089,Java工程师,北京,2018-04-19 19:50:42,21.0,110502,洋钱罐,北京瓴岳信息技术有限公司,150-500人,朝阳区,本科,不需要融资,"移动互联网,金融",116.460733,39.929643,全职,1-3年,"['14薪', '弹性工作', '零食水果', '午餐晚餐']"
396,4057995,Java开发工程师,杭州,2018-05-03 09:22:49,13.2,16831,武汉佰钧成技术有限公司,武汉佰钧成技术有限责任公司,2000人以上,余杭区,大专,不需要融资,移动互联网,120.017969,30.280435,全职,1-3年,"['带薪年假', '计算机软件', '管理规范', '定期体检']"
397,4275756,Java开发工程师,合肥,2018-05-02 16:51:17,10.6,21666,维恩贝特,维恩贝特科技有限公司,500-2000人,包河区,本科,A轮,"电子商务,金融",117.287913,31.706723,全职,3-5年,"['年底双薪', '五险一金', '通讯津贴', '交通补助']"
398,1992816,Java,南宁,2018-05-02 12:07:50,8.4,85833,创建科技,浙江创建科技有限公司,150-500人,青秀区,大专,未融资,"移动互联网,企业服务",108.32881881,22.79298156,全职,1-3年,"['免费班车', '带薪年假', '绩效奖金', '定期体检']"
399,1276825,Java开发工程师,重庆,2018-05-02 11:56:34,9.0,33472,诺怀软件,重庆诺怀软件有限公司,50-150人,九龙坡区,本科,未融资,企业服务,106.4849103,29.53201967,全职,3-5年,"['年底双薪', '带薪年假', '绩效奖金', '岗位晋升']"
400,3025545,Java工程师,杭州,2018-05-02 11:49:37,25.2,117274,DAHO Networks,中卫大河云联网络技术有限公司,50-150人,余杭区,本科,A轮,"企业服务,数据服务",120.017468,30.281468,全职,1-3年,"['股票期权', '带薪年假', '绩效奖金', '年终分红']"
401,3081937,中级java,杭州,2018-05-02 10:35:45,16.8,20337,会搜股份,杭州会搜科技有限公司,150-500人,江干区,本科,上市公司,移动互联网,120.25935,30.30846,全职,3-5年,"['技能培训', '节日礼物', '股票期权', '带薪年假']"
402,4294877,java开发工程师,深圳,2018-05-02 09:39:19,19.0,272321,知学云,深圳市知学云科技有限公司,150-500人,南山区,大专,不需要融资,"移动互联网,教育",113.952696,22.530438,全职,3-5年,"['责任', '创新', '分享', '激情']"
403,1829494,Java,杭州,2018-05-02 09:02:58,17.0,28902,网盛数新,浙江网盛数新软件股份有限公司,150-500人,萧山区,大专,未融资,"移动互联网,数据服务",120.256404,30.208748,全职,5-10年,"['绩效奖金', '年底双薪', '五险一金', '带薪年假']"
404,3656859,Java技术专家,杭州,2018-05-01 12:16:40,42.0,153849,蚂蚁金服集团,支付宝(杭州)信息技术有限公司,2000人以上,西湖区,本科,B轮,"金融,移动互联网",120.125788,30.272627,全职,3-5年,"['年底双薪', '带薪年假', '股票期权', '绩效奖金']"
405,3374264,java工程师,上海,2018-04-27 13:15:10,11.2,128998,江苏亿科达,上海海万信息科技股份有限公司,500-2000人,徐汇区,本科,不需要融资,"移动互联网,金融",121.456306,31.18335,全职,3-5年,[]
406,4434677,JAVA,北京,2018-04-25 12:42:04,28.0,111139,NIO蔚来,上海蔚来汽车有限公司,2000人以上,朝阳区,硕士,D轮及以上,"移动互联网,硬件",116.465947,40.021473,全职,1-3年,"['年底双薪', '带薪年假', '通讯津贴', '交通补助']"
407,3823962,JAVA开发工程师,上海,2018-05-03 09:05:24,17.8,114738,微齐金融,微齐金融信息服务（上海）有限公司,500-2000人,浦东新区,本科,不需要融资,金融,121.58267,31.19331,全职,3-5年,"['年底双薪', '专项奖金', '股票期权', '带薪年假']"
408,2139209,Java开发工程师,武汉,2018-05-03 07:12:46,7.0,140572,佰益源,武汉佰益源信息科技有限公司,50-150人,硚口区,本科,天使轮,"移动互联网,企业服务",114.194181,30.604995,全职,3-5年,"['带薪年假', '扁平管理', '小程序生态', '新零售']"
409,4509819,java工程师,上海,2018-05-02 22:59:08,14.0,169220,蚂蚁金服,蚂蚁金服集团,2000人以上,浦东新区,本科,D轮及以上,"移动互联网,金融",121.505385,31.233526,全职,应届毕业生,[]
410,2452868,Java研发工程师,北京,2018-05-02 22:25:40,28.0,534,京东金融,京东金融,2000人以上,大兴区,本科,上市公司,金融,116.56784934,39.79105081,全职,5-10年,"['供应链金融', '消费金融', '众筹业务', '支付业务']"
411,4108139,java开发工程师,南京,2018-05-02 16:41:46,3.8,233304,燃网络,南京网燃网络科技有限公司,少于15人,秦淮区,大专,未融资,"移动互联网,游戏",118.788719,32.049374,全职,不限,[]
412,2031134,Java开发工程师,苏州,2018-05-02 16:26:53,18.2,20669,喔噻科技,上海喔噻互联网科技有限公司,500-2000人,工业园区,本科,B轮,移动互联网,120.7761459,31.30733607,全职,3-5年,"['工程师文化', '年轻朝气', '乐视60寸', '德州']"
413,3342845,java开发工程师,上海,2018-05-02 15:00:45,11.2,7988,海鼎,上海海鼎信息工程股份有限公司,500-2000人,闵行区,本科,不需要融资,企业服务,121.51732001,31.07683983,全职,1-3年,"['节日礼物', '带薪年假', '绩效奖金', '岗位晋升']"
414,354731,Java,上海,2018-05-02 14:33:54,15.2,23277,微知,上海微知软件科技有限公司,150-500人,静安区,本科,B轮,"企业服务,数据服务",121.428328,31.22863,全职,3-5年,"['技能培训', '专项奖金', '带薪年假', '岗位晋升']"
415,3749121,Java开发工程师,北京,2018-05-02 13:30:41,24.0,144576,杉数科技,杉数科技（北京）有限公司,50-150人,东城区,本科,A轮,"数据服务,移动互联网",116.424346,39.948702,全职,5-10年,"['带薪年假', '午餐补助', '弹性工作', '年度旅游']"
416,4086011,Java,上海,2018-05-02 13:01:07,17.0,69631,鲁班软件,上海鲁班软件有限公司,150-500人,杨浦区,本科,不需要融资,企业服务,121.511138,31.306705,全职,3-5年,"['年底双薪', '股票期权', '岗位晋升', '五险一金']"
417,4070173,Java开发工程师,上海,2018-05-02 12:02:43,9.6,124751,石竹软件,广州石竹计算机软件有限公司,50-150人,浦东新区,本科,不需要融资,"企业服务,数据服务",121.67298049,31.24725028,全职,1-3年,"['五天7小时', '定期体检', '通讯津贴', '带薪年假']"
418,3748849,JAVA开发工程师,上海,2018-05-02 11:59:07,21.0,2474,滴滴出行,北京嘀嘀无限科技发展有限公司,2000人以上,普陀区,本科,不需要融资,移动互联网,121.442281,31.242985,全职,5-10年,"['弹性工作', '节日礼物', '岗位晋升', '技能培训']"
419,1816937,Java开发工程师,上海,2018-05-02 11:23:38,17.8,47956,厚本金融,上海厚本金融信息服务有限公司,2000人以上,黄浦区,本科,A轮,金融,121.478612,31.203605,全职,3-5年,"['技能培训', '年底双薪', '股票期权', '带薪年假']"
420,3293236,Java工程师,上海,2018-05-02 10:47:17,11.2,128998,江苏亿科达,上海海万信息科技股份有限公司,500-2000人,徐汇区,大专,不需要融资,"移动互联网,金融",121.456306,31.18335,全职,3-5年,[]
421,2889273,Java开发工程师,深圳,2018-05-02 10:48:49,19.0,8350,万科物业,万科物业发展有限公司,2000人以上,福田区,本科,不需要融资,"O2O,生活服务",114.062189,22.567856,全职,5-10年,"['社区o2o', '原始股权', '弹性工作制', '互联网+']"
422,2082545,Java,北京,2018-05-02 10:42:16,25.2,73043,百融金服,百融（北京）金融信息服务股份有限公司,500-2000人,海淀区,不限,B轮,"金融,数据服务",116.32683965,39.98332224,全职,不限,"['技能培训', '股票期权', '带薪年假', '定期体检']"
423,3460689,JAVA开发工程师,上海,2018-05-02 10:04:37,21.0,56746,贝米钱包,上海贝涛金融信息服务有限公司,50-150人,徐汇区,本科,A轮,金融,121.446889,31.204067,全职,不限,"['节日礼物', '带薪年假', '年度旅游', '扁平管理']"
424,4327373,高级Java,杭州,2018-05-02 09:55:16,14.0,7443,数游软件科技,杭州数游软件科技有限公司,500-2000人,西湖区,本科,不需要融资,金融,120.112127,30.287766,全职,3-5年,"['五险一金', '带薪年假', '节日礼物', '弹性工作']"
425,4195668,JAVA工程师,深圳,2018-05-02 09:26:39,14.0,56,卖座网,深圳市华宇讯科技有限公司,500-2000人,南山区,本科,B轮,"移动互联网,电子商务",113.9422,22.54878,全职,3-5年,"['技能培训', '股票期权', '五险一金', '弹性工作']"
426,4418745,Java开发工程师,杭州,2018-05-02 08:51:03,12.8,124100,星巢网络,杭州星巢网络科技有限公司,50-150人,西湖区,本科,A轮,"游戏,电子商务",0.0,0.0,全职,1-3年,"['年底双薪', '股票期权', '包豪华住宿', '带薪年假']"
427,3831611,java工程师,济南,2018-04-28 08:54:57,8.4,37986,世纪超星,北京世纪超星信息技术发展有限责任公司,2000人以上,历城区,本科,不需要融资,教育、移动互联网,117.114861,36.651639,全职,1-3年,"['年底双薪', '专项奖金', '带薪年假', '绩效奖金']"
428,3432150,java开发工程师,南京,2018-04-27 17:52:29,11.4,16831,武汉佰钧成技术有限公司,武汉佰钧成技术有限责任公司,2000人以上,建邺区,大专,不需要融资,移动互联网,118.731694,32.003552,全职,3-5年,"['带薪年假', '计算机软件', '管理规范', '定期体检']"
429,4490598,Java工程师,北京,2018-04-26 20:20:18,21.0,110502,洋钱罐,北京瓴岳信息技术有限公司,150-500人,朝阳区,本科,不需要融资,"移动互联网,金融",116.460733,39.929643,全职,1-3年,"['14薪', '弹性工作', '零食水果', '午餐晚餐']"
430,4266379,JAVA开发工程师,北京,2018-04-26 14:09:19,22.8,956,金山云,北京金山云网络技术有限公司,500-2000人,海淀区,本科,C轮,"移动互联网,数据服务",116.310195,40.039018,全职,3-5年,"['技能培训', '节日礼物', '瑜伽房', '免费班车']"
431,3011787,java,上海,2018-05-02 19:37:46,17.8,97604,太美医疗科技,嘉兴太美医疗科技有限公司,150-500人,徐汇区,大专,C轮,移动互联网,121.455415,31.218734,全职,3-5年,"['年底双薪', '专项奖金', '带薪年假', '绩效奖金']"
432,1909737,Java开发工程师,深圳,2018-05-02 18:12:53,13.2,13163,个推,浙江每日互动网络科技股份有限公司,150-500人,南山区,本科,D轮及以上,移动互联网,113.92312999,22.530741,全职,3-5年,"['绩效奖金', '股票期权', '年底双薪', '专项奖金']"
433,4404995,Java开发工程师,北京,2018-05-02 15:24:25,21.0,134042,海致,海致网络技术(北京)有限公司,150-500人,海淀区,本科,C轮,"移动互联网,企业服务",115.994034,39.993442,全职,3-5年,"['股票期权', '带薪年假', '弹性工作', '扁平管理']"
434,3941598,java开发工程师,上海,2018-05-02 13:16:45,28.0,4112,韩创科技,上海我图网络科技有限公司,150-500人,浦东新区,本科,D轮及以上,"移动互联网,文化娱乐",121.511419,31.188916,全职,3-5年,"['年终分红', '绩效奖金', '五险一金', '带薪年假']"
435,3291329,java开发工程师,深圳,2018-05-02 09:07:54,17.0,128998,江苏亿科达,上海海万信息科技股份有限公司,500-2000人,福田区,本科,不需要融资,"移动互联网,金融",114.055036,22.52153,全职,3-5年,[]
436,4445804,Java工程师,北京,2018-04-18 20:06:14,21.0,110502,洋钱罐,北京瓴岳信息技术有限公司,150-500人,朝阳区,本科,不需要融资,"移动互联网,金融",116.460733,39.929643,全职,1-3年,"['14薪', '弹性工作', '零食水果', '午餐晚餐']"
437,4452280,Java开发工程师,深圳,2018-05-02 11:01:23,21.0,42899,小蚁,上海小蚁科技有限公司,150-500人,南山区,本科,C轮,"移动互联网,硬件",113.944407,22.548504,全职,5-10年,"['年底双薪', '节日礼物', '技能培训', '年度旅游']"
438,3798359,Java开发工程师,佛山,2018-05-02 11:00:48,9.4,5746,开科唯识,北京开科唯识技术有限公司,500-2000人,南海区,本科,未融资,金融,113.15044,23.060672,全职,1-3年,"['节日礼物', '技能培训', '年底双薪', '股票期权']"
439,4479503,Java（江浙沪）,上海,2018-05-02 10:27:39,12.6,22862,上海中软华腾软件系统有限公司,上海中软华腾软件系统有限公司,2000人以上,浦东新区,本科,上市公司,"企业服务,金融",121.543399,31.220718,全职,3-5年,"['年底双薪', '绩效奖金', '带薪年假', '定期体检']"
440,4424343,Java研发工程师,上海,2018-05-02 09:44:38,14.0,151036,群星金融,鼎必程（上海）信息技术有限公司,50-150人,浦东新区,本科,B轮,金融,121.475215,31.183898,全职,3-5年,"['年底双薪', '带薪年假', '定期体检', '交通补助']"
441,4064671,JAVA开发工程师,杭州,2018-05-02 09:39:22,17.0,7868,阔知网络,杭州阔知网络科技有限公司,150-500人,滨江区,不限,A轮,"企业服务,教育",0.0,0.0,全职,3-5年,"['技术一流', '期权奖励', '领导好', '体育锻炼奖励']"
442,4355644,Java开发工程师,广州,2018-05-02 01:49:05,15.2,32179,南京领添,南京领添信息技术有限公司,500-2000人,番禺区,本科,C轮,"移动互联网,电子商务",113.370299,23.012927,全职,3-5年,"['节日礼物', '股票期权', '带薪年假', '绩效奖金']"
443,3345356,Java开发工程师,杭州,2018-04-28 11:39:29,21.0,144677,享贞科技,杭州享贞信息科技有限公司,15-50人,余杭区,本科,A轮,教育,120.00416,30.276335,全职,3-5年,"['股票期权', '带薪年假', '弹性工作', '节日礼物']"
444,4475834,JAVA开发,深圳,2018-04-27 10:22:33,14.8,25317,金证股份,深圳市金证科技股份有限公司,2000人以上,福田区,大专,上市公司,金融,0.0,0.0,全职,3-5年,"['激情的团队', '股票期权', '努力变大牛', '有舞台给您跳']"
445,2947145,JAVA工程师,北京,2018-04-26 20:32:16,24.0,45121,易快报,北京合思信息技术有限公司,50-150人,海淀区,本科,A轮,"移动互联网,企业服务",116.31312,39.984558,全职,3-5年,"['技能培训', '年底双薪', '节日礼物', '绩效奖金']"
446,4050087,Java开发（杭州）,杭州,2018-05-03 08:56:19,10.0,119788,汇金智融,汇金智融（北京）科技有限公司,150-500人,滨江区,本科,上市公司,"移动互联网,电子商务",120.172,30.188575,全职,1-3年,"['年底双薪', '绩效奖金', '带薪年假', '弹性工作']"
447,3810255,对日java开发,大连,2018-05-03 08:49:42,7.2,16831,武汉佰钧成技术有限公司,武汉佰钧成技术有限责任公司,2000人以上,高新园区,大专,不需要融资,移动互联网,0.0,0.0,全职,1-3年,"['带薪年假', '计算机软件', '管理规范', '定期体检']"
448,3457938,JAVA开发工程师,广州,2018-05-03 08:48:33,10.8,11527,蓝鸽集团,蓝鸽集团有限公司,500-2000人,白云区,本科,不需要融资,"移动互联网,企业服务",0.0,0.0,全职,不限,"['专项奖金', '加班费', '两房一厅公寓', '博士后工作站']"
449,4022535,Java高级,北京,2018-05-03 08:24:43,28.0,124192,闲徕互娱,北京闲徕互娱网络科技有限公司,500-2000人,朝阳区,本科,不需要融资,游戏,116.414211,40.032234,全职,5-10年,"['年底双薪', '股票期权', '带薪年假', '专项奖金']"
450,3469621,java,上海,2018-04-28 17:31:47,15.0,128998,江苏亿科达,上海海万信息科技股份有限公司,500-2000人,静安区,不限,不需要融资,"移动互联网,金融",121.458959,31.266934,全职,3-5年,[]
451,3638359,Java工程师,上海,2018-05-02 15:15:39,17.0,47865,飞驰镁物,飞驰镁物（北京）信息服务有限公司,150-500人,嘉定区,不限,B轮,"移动互联网,数据服务",121.183218,31.282476,全职,3-5年,"['智能汽车', '车联网', '股票期权', '黄金团队组合']"
452,4506415,Java开发工程师,上海,2018-05-02 14:44:55,19.0,17291,PPTV聚力,上海聚力传媒技术有限公司,500-2000人,浦东新区,本科,D轮及以上,文化娱乐,121.531597,31.215219,全职,3-5年,"['技能培训', '绩效奖金', '岗位晋升', '扁平管理']"
453,3639172,中级Java开发,深圳,2018-05-02 14:29:06,17.0,52004,透云科技,上海透云物联网科技有限公司,500-2000人,福田区,本科,上市公司,"移动互联网,数据服务",114.0359,22.526089,全职,3-5年,"['年底双薪', '股票期权', '带薪年假', '扁平管理']"
454,4121959,java开发工程师,北京,2018-05-02 14:17:09,31.0,23039,好大夫在线,互动峰科技(北京)有限公司,500-2000人,朝阳区,本科,D轮及以上,医疗健康,116.50986,39.9118,全职,不限,"['五险一金', '带薪年假', '绩效奖金', '专项奖金']"
455,4132725,Java开发工程师,广州,2018-05-02 11:26:18,14.0,10505,新炬网络,上海新炬网络技术有限公司,500-2000人,天河区,大专,未融资,"移动互联网,数据服务",113.340957,23.142702,全职,3-5年,"['技能培训', '年底双薪', '岗位晋升', '年度旅游']"
456,4504291,高级java开发,广州,2018-05-02 10:31:49,12.8,61875,设计院,广东省电信规划设计院有限公司,2000人以上,天河区,本科,上市公司,"移动互联网,金融",113.357338,23.135136,全职,3-5年,"['绩效奖金', '带薪年假', '通讯津贴', '年底双薪']"
457,4398322,java开发,长沙,2018-05-02 09:54:04,12.0,7382,中和农信,中和农信项目管理有限公司,2000人以上,岳麓区,本科,不需要融资,"移动互联网,金融",112.876209,28.228419,全职,3-5年,"['绩效奖金', '五险一金', '带薪年假', '定期体检']"
458,4153319,Java实习,北京,2018-05-02 09:39:45,3.8,61921,人人行(借贷宝),人人行科技有限公司,2000人以上,朝阳区,本科,C轮,"移动互联网,金融",0.0,0.0,实习,应届毕业生,"['年底双薪', '节日礼物', '绩效奖金', '岗位晋升']"
459,3714140,Java开发工程师,南京,2018-05-02 09:22:51,14.0,166659,浦和数据,南京浦和数据有限公司,15-50人,栖霞区,本科,天使轮,数据服务,118.878533,32.136741,全职,1-3年,"['五险一金', '绩效奖金', '带薪年假', '法定节假']"
460,3122286,Java工程师,北京,2018-04-27 18:24:36,24.0,50702,美团点评,北京三快在线科技有限公司,2000人以上,朝阳区,本科,D轮及以上,"移动互联网,O2O",116.48969,40.00727,全职,3-5年,"['技能培训', '绩效奖金', '岗位晋升', '领导好']"
461,4226447,Java,杭州,2018-04-26 11:40:01,13.2,202762,绿城理想生活集团,绿城理想生活科技有限公司,2000人以上,西湖区,本科,不需要融资,"生活服务,移动互联网",120.068384,30.285561,全职,3-5年,[]
462,3315961,Java,上海,2018-04-26 11:09:44,17.0,67817,威士顿,上海威士顿信息技术股份有限公司,150-500人,虹口区,本科,不需要融资,"移动互联网,企业服务",121.498489,31.272455,全职,3-5年,"['股票期权', '专项奖金', '岗位晋升', '弹性工作']"
463,4096652,Java,济南,2018-05-03 09:14:58,8.4,1133,锐融天下,北京锐融天下科技股份有限公司,50-150人,历下区,本科,上市公司,"金融,企业服务",117.136881,36.676526,全职,3-5年,"['五险一金', '商业保险', '弹性工作', '扁平管理']"
464,4235229,Java开发工程师,北京,2018-05-03 09:11:00,17.0,212261,巴金科技,深圳巴金科技有限公司,15-50人,朝阳区,本科,天使轮,移动互联网,116.460435,39.882853,全职,3-5年,"['定期体检', '弹性工作', '领导好', '节日礼物']"
465,3985456,java工程师,上海,2018-04-27 13:15:11,10.8,128998,江苏亿科达,上海海万信息科技股份有限公司,500-2000人,浦东新区,大专,不需要融资,"移动互联网,金融",121.666906,31.238157,全职,3-5年,[]
466,2379469,Java,合肥,2018-05-03 09:10:29,5.6,116241,人与科技,安徽人与科技发展股份有限公司,50-150人,高新区,本科,未融资,"移动互联网,信息安全",117.20276,31.85015,全职,1-3年,[]
467,2166956,Java开发工程师,武汉,2018-05-03 07:12:45,7.0,140572,佰益源,武汉佰益源信息科技有限公司,50-150人,硚口区,本科,天使轮,"移动互联网,企业服务",114.194181,30.604995,全职,1-3年,"['带薪年假', '扁平管理', '小程序生态', '新零售']"
468,4509826,Java开发工程师,北京,2018-05-02 23:08:33,18.4,154837,远影医疗,远影医疗信息科技（北京）有限公司,15-50人,海淀区,本科,A轮,"移动互联网,医疗健康",116.306655,39.983822,全职,1-3年,[]
469,4509684,JAVA开发工程师,广州,2018-05-02 21:10:46,12.0,312507,恒企教育,上海恒企教育培训有限公司广州分公司,2000人以上,白云区,本科,上市公司,教育、O2O,0.0,0.0,全职,3-5年,"['""""']"
470,4509304,JAVA工程师,北京,2018-05-02 19:07:38,19.0,56763,中科点击,中科点击（北京）科技有限公司,150-500人,海淀区,本科,A轮,"移动互联网,数据服务",116.281879,40.044437,全职,5-10年,"['节日礼物', '股票期权', '专项奖金', '带薪年假']"
471,2136137,Java,深圳,2018-05-02 17:40:21,12.0,140103,优学天下,深圳市致远优学教育科技有限公司,500-2000人,福田区,本科,不需要融资,移动互联网,114.03181162,22.53108764,全职,3-5年,[]
472,4294655,Java工程师,深圳,2018-05-02 17:36:15,8.2,16831,武汉佰钧成技术有限公司,武汉佰钧成技术有限责任公司,2000人以上,龙华新区,不限,不需要融资,移动互联网,114.06515,22.6733,全职,3-5年,"['带薪年假', '计算机软件', '管理规范', '定期体检']"
473,4371244,Java开发工程师,杭州,2018-05-02 17:30:38,14.0,38306,阿拉丁信息科技,浙江阿拉丁电子商务股份有限公司,150-500人,滨江区,本科,上市公司,移动互联网,120.214164,30.213574,全职,3-5年,"['技能培训', '节日礼物', '带薪年假', '绩效奖金']"
474,3097895,java高级/专家,杭州,2018-05-02 17:04:13,28.0,200554,阿里巴巴-平台技术事业群,阿里巴巴（中国）网络技术有限公司,2000人以上,余杭区,本科,上市公司,"电子商务,数据服务",120.002035,30.27563,全职,3-5年,"['绩效奖金', '股票期权', '带薪年假', '定期体检']"
475,4404969,Java开发工程师,上海,2018-05-02 15:24:25,19.0,134042,海致,海致网络技术(北京)有限公司,150-500人,静安区,本科,C轮,"移动互联网,企业服务",121.437083,31.225863,全职,1-3年,"['股票期权', '带薪年假', '弹性工作', '扁平管理']"
476,2965230,JAVA开发工程师,北京,2018-05-02 15:01:20,26.0,57049,InnoTREE,北京因果树网络科技有限公司,50-150人,海淀区,本科,B轮,金融,116.306683,39.984791,全职,3-5年,"['技能培训', '节日礼物', '股票期权', '带薪年假']"
477,3605734,Java工程师,上海,2018-05-02 11:38:10,17.8,154561,MoSeeker仟寻,上海大岂网络科技有限公司,50-150人,徐汇区,本科,B轮,移动互联网,121.432455,31.19619,全职,3-5年,"['带薪年假', '定期体检', '年终分红', '节日礼物']"
478,4424706,Java,北京,2018-05-02 10:37:29,21.0,262354,北京尚医智信健康管理有限公司,北京尚医智信健康管理有限公司,50-150人,顺义区,本科,不需要融资,医疗健康,0.0,0.0,全职,5-10年,"['年底4薪', '扁平管理', '领导好', '弹性工作']"
479,3878529,java开发工程师,北京,2018-05-02 10:09:26,21.0,288177,哈弗租赁,哈弗汽车租赁有限公司,50-150人,丰台区,本科,不需要融资,移动互联网,116.284766,39.825028,全职,3-5年,"['弹性工作', '法定节假日', '初创型公司', '稳定持续性']"
480,516100,Java,北京,2018-05-02 15:01:20,24.0,57049,InnoTREE,北京因果树网络科技有限公司,50-150人,海淀区,本科,B轮,金融,116.30668252,39.98479142,全职,3-5年,"['技能培训', '节日礼物', '股票期权', '带薪年假']"
481,4369365,java开发工程师,深圳,2018-05-02 09:28:32,10.8,117217,博悦科创,深圳市博悦科创科技有限公司,500-2000人,南山区,本科,不需要融资,移动互联网,113.938968,22.506931,全职,1-3年,"['年底双薪', '定期体检', '绩效奖金', '技能培训']"
482,4345795,JAVA工程师,广州,2018-05-02 09:22:21,14.2,168557,YIDATEC,亿达信息技术（深圳）有限公司,2000人以上,天河区,大专,不需要融资,"移动互联网,游戏",113.372471,23.126201,全职,5-10年,[]
483,4190997,中级Java开发,长沙,2018-05-02 09:20:04,7.6,103897,新航动力,湖南新航动力信息科技有限公司,150-500人,岳麓区,大专,未融资,移动互联网、企业服务,112.882369,28.230937,全职,3-5年,"['五险一金', '绩效奖金', '技能培训', '岗位晋升']"
484,4481627,JAVA开发,郑州,2018-05-02 09:03:14,14.0,57353,中移在线服务有限公司,中移在线服务有限公司,2000人以上,高新区,本科,不需要融资,移动互联网,113.539949,34.804757,全职,3-5年,[]
485,2679835,java工程师,北京,2018-04-28 16:30:04,20.8,27298,蓝信移动（北京）科技有限公司,蓝信移动（北京）科技有限公司,150-500人,海淀区,本科,B轮,移动互联网,116.349329,39.974575,全职,1-3年,"['技能培训', '食堂三餐美食', '细分领域第一', '实干型团队！']"
486,4498376,JAVA开发工程师,杭州,2018-04-28 11:42:21,17.8,29824,众安保险,众安在线财产保险股份有限公司,2000人以上,西湖区,本科,上市公司,金融,120.124783,30.277036,全职,3-5年,"['定期体检', '每天下午茶', '六险一金', '年度体检']"
487,3774911,JAVA开发,上海,2018-04-27 18:40:25,15.8,14093,瞬联软件科技（北京）有限公司,瞬联软件科技（北京）有限公司,500-2000人,闵行区,本科,不需要融资,"移动互联网 ,企业服务",121.450558,31.021843,全职,不限,"['高薪', '节日礼物', '弹性工作', '带薪年假']"
488,3539275,资深java开发,上海,2018-05-03 09:19:38,19.0,101010,小狗在家,上海乙豆信息科技有限公司,15-50人,徐汇区,本科,A轮,"移动互联网,O2O",121.417809,31.170736,全职,3-5年,"['节日礼物', '年底双薪', '股票期权', '带薪年假']"
489,4420279,java工程师,北京,2018-05-03 09:11:06,17.0,212261,巴金科技,深圳巴金科技有限公司,15-50人,朝阳区,本科,天使轮,移动互联网,116.460435,39.882853,全职,3-5年,"['定期体检', '弹性工作', '领导好', '节日礼物']"
490,2086661,Java开发工程师,深圳,2018-05-03 09:08:06,14.0,10941,和而泰,深圳和而泰智能控制股份有限公司,2000人以上,南山区,本科,上市公司,移动互联网,113.95432057,22.53768874,全职,3-5年,"['绩效奖金', '年终分红', '股票期权', '专项奖金']"
491,3949384,Java开发,深圳,2018-05-03 08:41:46,20.8,16831,武汉佰钧成技术有限公司,武汉佰钧成技术有限责任公司,2000人以上,龙华新区,大专,不需要融资,移动互联网,0.0,0.0,全职,3-5年,"['带薪年假', '计算机软件', '管理规范', '定期体检']"
492,4509445,Java工程师,广州,2018-05-02 19:41:01,28.0,376427,广东掌乐,广东掌乐科技有限公司,150-500人,天河区,本科,不需要融资,招聘,113.344418,23.171673,全职,5-10年,"['""""']"
493,1693350,Java开发工程师,深圳,2018-05-02 18:27:51,17.0,120553,探物科技,深圳探物网络科技有限公司,15-50人,南山区,本科,未融资,移动互联网,113.955721,22.539496,全职,3-5年,"['绩效奖金', '带薪年假', '弹性工作', '扁平管理']"
494,4335067,Java开发工程师,上海,2018-05-02 16:35:59,21.0,35422,京东,京东商城,2000人以上,长宁区,本科,上市公司,电子商务,121.360459,31.221087,全职,1-3年,"['年底双薪', '节日礼物', '技能培训', '岗位晋升']"
495,4056791,Java开发工程师,南京,2018-04-26 14:01:08,12.0,14093,瞬联软件科技（北京）有限公司,瞬联软件科技（北京）有限公司,500-2000人,建邺区,本科,不需要融资,"移动互联网 ,企业服务",118.723645,32.001628,全职,1-3年,"['高薪', '节日礼物', '弹性工作', '带薪年假']"
496,3985523,Java开发工程师,上海,2018-05-02 16:35:48,21.0,35422,京东,京东商城,2000人以上,长宁区,本科,上市公司,电子商务,121.360459,31.221087,全职,3-5年,"['年底双薪', '节日礼物', '技能培训', '岗位晋升']"
497,4303093,JAVA开发工程师,佛山,2018-05-02 16:33:23,7.2,53717,信息发展,上海中信信息发展股份有限公司,500-2000人,顺德区,本科,上市公司,"电子商务,企业服务",113.296928,22.803683,全职,1-3年,"['技能培训', '节日礼物', '带薪年假', '岗位晋升']"
498,1939761,Java开发工程师,上海,2018-05-02 16:26:53,21.0,20669,喔噻科技,上海喔噻互联网科技有限公司,500-2000人,普陀区,本科,B轮,移动互联网,121.39137396,31.23398108,全职,3-5年,"['工程师文化', '年轻朝气', '乐视60寸', '德州']"
499,4233010,Java工程师,广州,2018-05-02 15:56:38,12.0,92798,恒拓高科,深圳恒拓高科信息技术有限公司,50-150人,天河区,本科,A轮,"移动互联网,企业服务",112.993461,22.994261,全职,3-5年,"['技能培训', '年底双薪', '股票期权', '带薪年假']"
500,1777221,Java（中级）,北京,2018-05-02 14:46:38,14.4,19283,天阳科技,天阳宏业科技股份有限公司,500-2000人,海淀区,本科,上市公司,"企业服务,金融",116.315603,39.981278,全职,3-5年,"['五险一金', '带薪年假', '定期体检', '午餐补助']"
501,4182166,java开发,北京,2018-05-02 11:31:30,14.0,668,我爱卡,北京决策信诚科技有限公司,150-500人,朝阳区,大专,C轮,金融,116.480888,39.985901,全职,3-5年,"['节日礼物', '餐补', '扁平管理', '年底奖金']"
502,3480231,java开发,杭州,2018-05-02 10:03:17,18.6,2380,浙江执御信息技术有限公司,浙江执御信息技术有限公司,2000人以上,拱墅区,本科,B轮,"移动互联网,数据服务",120.11362,30.33344,全职,3-5年,"['五险一金', '带薪年假', '节日礼物', '年度旅游']"
503,3967278,Java开发工程师,广州,2018-05-02 09:55:40,14.0,22790,网易游戏,广州博冠信息科技有限公司,2000人以上,天河区,本科,上市公司,游戏,113.321853,23.122696,全职,3-5年,"['绩效奖金', '年终分红', '专项奖金', '年底双薪']"
504,4320206,java开发工程师,深圳,2018-05-02 09:28:32,11.2,117217,博悦科创,深圳市博悦科创科技有限公司,500-2000人,福田区,大专,不需要融资,移动互联网,114.053836,22.535699,全职,1-3年,"['年底双薪', '定期体检', '绩效奖金', '技能培训']"
505,4428451,java开发工程师,广州,2018-05-02 09:21:19,12.0,22862,上海中软华腾软件系统有限公司,上海中软华腾软件系统有限公司,2000人以上,天河区,本科,上市公司,"企业服务,金融",113.350713,23.119178,全职,3-5年,"['年底双薪', '绩效奖金', '带薪年假', '定期体检']"
506,4339785,java开发工程师,杭州,2018-05-02 09:11:55,24.0,93448,览众数据,杭州览众数据科技有限公司,50-150人,滨江区,本科,B轮,"电子商务,数据服务",120.224077,30.208963,全职,5-10年,"['技能培训', '股票期权', '带薪年假', '绩效奖金']"
507,4294594,Java高级开发,长沙,2018-05-02 09:04:02,12.0,103897,新航动力,湖南新航动力信息科技有限公司,150-500人,长沙县,大专,未融资,移动互联网、企业服务,113.084957,28.2302,全职,5-10年,"['五险一金', '绩效奖金', '技能培训', '岗位晋升']"
508,4424054,Java开发工程师,上海,2018-05-02 08:56:45,17.8,83271,城家公寓,城家酒店管理有限公司,500-2000人,闵行区,本科,A轮,O2O,121.396039,31.18046,全职,3-5年,"['年底双薪', '专项奖金', '股票期权', '绩效奖金']"
509,4296684,Java开发工程师,广州,2018-05-02 08:48:57,15.0,320,玄武科技,广州市玄武无线科技股份有限公司,500-2000人,天河区,本科,上市公司,"移动互联网,招聘",112.993461,22.994261,全职,3-5年,"['绩效奖金', '年底双薪', '五险一金', '带薪年假']"
510,4199161,JAVA开发工程师,北京,2018-04-27 16:47:46,21.6,22666,会小二网,北京云动数字媒体技术有限公司,150-500人,朝阳区,本科,B轮,"企业服务,移动互联网",116.501724,39.92885,全职,3-5年,"['精英化团队', '顶尖VC背书', '行业领先', '扁平化管理']"
511,3506525,Java开发工程师,北京,2018-04-27 11:02:47,26.0,150885,微步在线,北京微步在线科技有限公司,50-150人,海淀区,本科,B轮,信息安全,0.0,0.0,全职,3-5年,"['股票期权', '带薪年假', '五险一金', '扁平管理']"
512,4400719,Java开发工程师,杭州,2018-04-26 18:55:59,18.8,9891,米络科技（KK直播）,杭州米络科技有限公司,150-500人,拱墅区,本科,B轮,移动互联网,119.993591,29.993662,全职,3-5年,"['年底双薪', '绩效奖金', '专项奖金', '五险一金']"
513,3917370,JAVA工程师,贵阳,2018-04-24 15:29:11,8.4,152351,茅台电商,贵州茅台集团电子商务股份有限公司,150-500人,观山湖区（金阳新区）,本科,未融资,电子商务,106.651278,26.615642,全职,3-5年,"['午餐补助', '绩效奖金', '定期体检', '五险一金']"
514,1521641,Java工程师,深圳,2018-04-19 09:36:24,19.0,83025,环球易购,深圳市环球易购电子商务有限公司,2000人以上,南山区,大专,上市公司,电子商务,113.920558,22.511241,全职,3-5年,"['节日礼物', '股票期权', '带薪年假', '绩效奖金']"
515,4354941,java开发工程师,上海,2018-05-03 09:18:30,12.0,69152,博奥特科技,深圳市博奥特科技有限公司,150-500人,闵行区,本科,未融资,"移动互联网,金融",121.531974,31.224473,全职,3-5年,"['绩效奖金', '领导好', '帅哥多', '美女多']"
516,4296777,中级Java,上海,2018-05-03 09:15:17,19.6,1738,有鱼金融科技,上海彩亿信息技术有限公司,500-2000人,徐汇区,本科,B轮,"移动互联网,金融",121.40391012,31.1640189,全职,1-3年,"['股票期权', '年底双薪', '五险一金', '带薪年假']"
517,2774923,Java高级研发,北京,2018-05-03 08:24:43,24.0,124192,闲徕互娱,北京闲徕互娱网络科技有限公司,500-2000人,朝阳区,本科,不需要融资,游戏,116.414211,40.032234,全职,5-10年,"['年底双薪', '股票期权', '带薪年假', '专项奖金']"
518,3228331,Java开发工程师,北京,2018-05-02 21:02:10,14.0,150256,思享时代（北京）科技有限公司,思享时代（北京）科技有限公司,150-500人,朝阳区,本科,不需要融资,"移动互联网,社交网络",116.411327,39.96912,全职,3-5年,"['国内外旅行', '水果下午茶', '8天带薪假期', '免费自助晚餐']"
519,3545095,java开发,北京,2018-05-02 20:16:41,21.0,50702,美团点评,北京三快在线科技有限公司,2000人以上,朝阳区,本科,D轮及以上,"移动互联网,O2O",116.466554,39.995147,全职,3-5年,"['技能培训', '绩效奖金', '岗位晋升', '领导好']"
520,4509026,Java开发工程师,北京,2018-05-02 18:23:30,19.0,165533,希为科技,北京希为科技有限公司,15-50人,海淀区,本科,不需要融资,"企业服务,金融",116.339426,39.974822,全职,3-5年,"['股票期权', '带薪年假', '绩效奖金', '弹性工作']"
521,4508010,Java开发工程师,广州,2018-05-02 16:48:55,17.0,83358,用友社交与协同办公服务事业部,用友网络科技股份有限公司,2000人以上,花都区,大专,上市公司,"移动互联网,企业服务",113.29669,23.36873,全职,3-5年,"['互联网+', '创新中心', '高薪', '股权激励']"
522,3748826,JAVA开发工程师,上海,2018-05-02 11:59:07,21.0,2474,滴滴出行,北京嘀嘀无限科技发展有限公司,2000人以上,普陀区,本科,不需要融资,移动互联网,121.442281,31.242985,全职,5-10年,"['弹性工作', '节日礼物', '岗位晋升', '技能培训']"
523,4271939,java开发工程师,北京,2018-05-02 11:15:47,22.8,280787,灵集科技,北京数集科技有限公司,50-150人,朝阳区,本科,A轮,"数据服务,广告营销",116.489053,39.99902,全职,3-5年,"['年底双薪', '绩效奖金', '带薪年假', '定期体检']"
524,3921925,Java开发工程师,上海,2018-05-02 10:19:51,18.2,35422,京东,京东商城,2000人以上,长宁区,本科,上市公司,电子商务,121.360459,31.221087,全职,1-3年,"['年底双薪', '节日礼物', '技能培训', '岗位晋升']"
525,561458,Java开发工程师,武汉,2018-05-02 09:44:12,10.8,38388,湖北云天下教育科技有限公司,湖北云天下教育科技有限公司,150-500人,东湖新技术开发区,本科,A轮,"移动互联网,教育",114.41107157,30.48276666,全职,3-5年,"['技能培训', '节日礼物', '带薪年假', '绩效奖金']"
526,3071692,Java开发工程师,杭州,2018-05-02 09:37:24,16.4,58427,中国电信杭州政务基地,杭州天翼智慧城市科技有限公司,150-500人,西湖区,本科,不需要融资,其他,120.12131,30.27888,全职,3-5年,"['带薪年假', '通讯津贴', '交通补助', '五险一金']"
527,4254247,java工程师,上海,2018-05-02 09:32:30,19.0,13301,杉德集团,上海久彰电子商务有限公司,2000人以上,徐汇区,本科,不需要融资,"金融,电子商务",121.394692,31.16425,全职,3-5年,"['年底双薪', '专项奖金', '股票期权', '绩效奖金']"
528,3541119,高级Java,杭州,2018-05-02 09:20:22,21.0,14137,环球黑卡,杭州冒险元素网络技术有限公司,150-500人,滨江区,大专,B轮,移动互联网,120.20068,30.201629,全职,5-10年,"['免费购书', '五险一金', '超酷团建', '双休']"
529,4214917,Java开发工程师,北京,2018-05-02 09:14:24,24.8,139755,京东商城,北京京东世纪贸易有限公司,2000人以上,大兴区,本科,上市公司,电子商务,116.505858,39.793114,全职,5-10年,"['免费班车', '子女教育计划', '安居计划', '救助基金']"
530,4184715,java研发工程师,成都,2018-05-02 09:12:09,12.6,119042,鸿特普惠,广东鸿特普惠信息服务有限公司,2000人以上,武侯区,大专,D轮及以上,金融,104.067586,30.631306,全职,3-5年,"['年底双薪', '带薪年假', '美女多', '五险一金']"
531,3988628,JAVA研发工程师,北京,2018-05-02 09:03:03,24.0,166829,小狗机器人,广州小狗机器人技术有限公司北京分公司,150-500人,朝阳区,本科,不需要融资,硬件,116.460635,39.89671,全职,3-5年,"['绩效奖金', '领导好', '扁平管理', '五险一金']"
532,3158210,Java开发工程师,天津,2018-05-01 22:49:03,11.6,16831,武汉佰钧成技术有限公司,武汉佰钧成技术有限责任公司,2000人以上,滨海新区,大专,不需要融资,移动互联网,117.708092,39.10316,全职,3-5年,"['带薪年假', '计算机软件', '管理规范', '定期体检']"
533,4391670,Java开发工程师,深圳,2018-05-01 21:23:38,14.0,26316,Sleepace 享睡,深圳市迈迪加科技发展有限公司,50-150人,南山区,本科,B轮,"移动互联网,医疗健康",113.94886,22.555342,全职,3-5年,"['年底双薪', '节日礼物', '带薪年假', '全球视野']"
534,4437432,JAVA开发工程师,上海,2018-04-28 18:14:31,10.8,94069,madeforgoods,麦梵革软件科技（上海）有限公司,15-50人,静安区,本科,不需要融资,"移动互联网,数据服务",121.44878,31.22604,全职,3-5年,"['股票期权', '带薪年假', '扁平管理', '领导好']"
535,4233866,Java开发工程师,广州,2018-04-28 10:47:20,14.0,237567,锦峰,广东锦峰集团有限公司广州分公司,500-2000人,天河区,大专,不需要融资,移动互联网,113.321766,23.11644,全职,3-5年,"['绩效奖金', '年度旅游', '领导好', '美女多']"
536,1306666,Java,北京,2018-04-28 10:13:39,20.4,95134,大象保险,世纪保众（北京）网络科技有限公司,50-150人,东城区,本科,A轮,"移动互联网,金融",116.422379,39.888039,全职,3-5年,"['通讯津贴', '交通补助', '午餐补助', '六险一金']"
537,4190069,Java开发工程师,杭州,2018-04-27 15:56:55,23.6,3864,51信用卡管家,杭州恩牛网络技术有限公司,500-2000人,西湖区,本科,C轮,"金融,数据服务",120.061872,30.289773,全职,3-5年,"['节日礼物', '专项奖金', '带薪年假', '扁平管理']"
538,4467680,Java开发工程师,北京,2018-04-27 10:15:19,26.0,168991,老虎证券,北京优虎商务服务有限公司,150-500人,朝阳区,本科,B轮,"移动互联网,金融",116.460172,39.952787,全职,1-3年,"['绩效奖金', '年底双薪', '带薪年假', '定期体检']"
539,2212432,Java,深圳,2018-04-26 11:10:42,14.0,135243,试金石信用,试金石信用服务有限公司,50-150人,南山区,本科,不需要融资,"数据服务,移动互联网",113.916355,22.491449,全职,3-5年,"['绩效奖金', '带薪年假', '交通补助', '午餐补助']"
540,4071034,Java开发工程师,深圳,2018-04-24 13:59:34,19.0,29824,众安保险,众安在线财产保险股份有限公司,2000人以上,南山区,本科,上市公司,金融,113.93709321,22.52217142,全职,3-5年,"['定期体检', '每天下午茶', '六险一金', '年度体检']"
541,4264903,JAVA开发,西安,2018-05-03 09:20:13,12.0,61875,设计院,广东省电信规划设计院有限公司,2000人以上,雁塔区,本科,上市公司,"移动互联网,金融",108.880936,34.22484,全职,3-5年,"['绩效奖金', '带薪年假', '通讯津贴', '年底双薪']"
542,4074137,JAVA开发工程师,广州,2018-05-03 09:19:27,8.2,67221,百倍科技,广州百倍网络科技有限公司,150-500人,海珠区,本科,不需要融资,"移动互联网,电子商务",113.369667,23.097407,全职,1-3年,"['周末双休', '五险一金', '加班费', '岗位晋升']"
543,4180114,高级Java,上海,2018-05-03 09:15:16,22.8,1738,有鱼金融科技,上海彩亿信息技术有限公司,500-2000人,徐汇区,本科,B轮,"移动互联网,金融",121.40437233,31.16440487,全职,3-5年,"['股票期权', '年底双薪', '五险一金', '带薪年假']"
544,4509499,Java开发工程师,北京,2018-05-02 20:01:13,19.0,357838,芬泰克,芬泰克信息技术（北京）有限公司,50-150人,海淀区,本科,天使轮,金融,116.315538,39.981408,全职,3-5年,"['""""']"
545,1261474,Java,北京,2018-05-02 18:24:37,28.0,534,京东金融,京东金融,2000人以上,通州区,本科,上市公司,金融,116.527543,39.828333,全职,5-10年,"['供应链金融', '消费金融', '众筹业务', '支付业务']"
546,4409718,JAVA,上海,2018-05-02 18:10:59,12.6,69152,博奥特科技,深圳市博奥特科技有限公司,150-500人,浦东新区,本科,未融资,"移动互联网,金融",121.531974,31.224473,全职,3-5年,"['绩效奖金', '领导好', '帅哥多', '美女多']"
547,3928433,JAVA,广州,2018-05-02 16:14:16,12.0,296888,东怡源,东怡源科技（广州）有限公司,15-50人,南沙区,大专,未融资,"移动互联网,电子商务",113.539812,22.799813,全职,3-5年,"['""""']"
548,3605851,java开发工程师,北京,2018-05-02 15:52:39,21.0,546,新片场,北京新片场传媒股份有限公司,150-500人,东城区,本科,D轮及以上,"移动互联网,文化娱乐",116.406275,39.939385,全职,3-5年,"['专项奖金', '节日礼物', '岗位晋升', '领导好']"
549,4263190,JAVA开发工程师,上海,2018-05-02 14:58:32,14.0,15257,美味不用等,美味不用等（上海）信息科技股份有限公司,500-2000人,浦东新区,本科,C轮,"移动互联网,O2O",121.5935,31.207614,全职,3-5年,"['绩效奖金', '股票期权', '专项奖金', '年底双薪']"
550,4395180,Java开发工程师,北京,2018-05-02 14:29:07,29.0,236936,原始空气,加丁（天津）科技有限公司,50-150人,朝阳区,本科,天使轮,"硬件,移动互联网",116.423428,39.980945,全职,3-5年,"['股票期权', '年终分红', '扁平管理', '弹性工作']"
551,4505793,Java开发工程师,北京,2018-05-02 13:38:59,19.0,19477,用友政务,北京用友政务软件有限公司,500-2000人,海淀区,本科,上市公司,数据服务,116.235138,40.069931,全职,3-5年,"['五险一金', '年终奖', '补充医疗保险', '商业保险']"
552,4454063,Java工程师,深圳,2018-05-02 12:01:18,14.0,50241,Symbio-Freeborders,信必优(深圳)信息技术有限公司,2000人以上,南山区,本科,未融资,"移动互联网,电子商务",113.931748,22.51809,全职,3-5年,"['节日礼物', '年底双薪', '带薪年假', '年度旅游']"
553,634912,Java工程师,成都,2018-05-02 10:47:42,15.6,57477,艾美互娱,成都艾美互娱科技有限公司,50-150人,武侯区,本科,不需要融资,移动互联网,104.06494004,30.54718032,全职,5-10年,"['节日礼物', '技能培训', '带薪年假', '年度旅游']"
554,4069945,Java开发工程师,上海,2018-05-02 10:38:17,21.0,313862,上汽云计算中心,上海帆一尚行科技有限公司,50-150人,浦东新区,本科,不需要融资,"企业服务,数据服务",121.568359,31.269275,全职,不限,"['绩效奖金', '定期体检', '带薪年假', '免费午餐']"
555,2528216,Java技术专家,杭州,2018-05-02 10:31:06,38.0,153849,蚂蚁金服集团,支付宝(杭州)信息技术有限公司,2000人以上,,本科,B轮,"金融,移动互联网",,,全职,3-5年,"['年底双薪', '带薪年假', '股票期权', '绩效奖金']"
556,2554225,Java开发工程师,厦门,2018-05-02 09:26:42,8.2,72299,畅享信息,厦门畅享信息技术有限公司,150-500人,,大专,不需要融资,"移动互联网,数据服务",118.13146577,24.51796488,全职,1-3年,"['五险一金', '高温补贴', '节日礼物', '年度旅游']"
557,3728071,JAVA开发,深圳,2018-05-02 09:26:35,12.0,25317,金证股份,深圳市金证科技股份有限公司,2000人以上,南山区,本科,上市公司,金融,113.94759,22.535119,全职,3-5年,"['激情的团队', '股票期权', '努力变大牛', '有舞台给您跳']"
558,4209659,资深Java,杭州,2018-05-02 09:20:22,28.0,14137,环球黑卡,杭州冒险元素网络技术有限公司,150-500人,滨江区,大专,B轮,移动互联网,120.20068,30.201629,全职,5-10年,"['免费购书', '五险一金', '超酷团建', '双休']"
559,3603227,Java开发工程师,广州,2018-05-02 09:06:25,13.2,16073,航天精一,航天精一（广东）信息科技有限公司,150-500人,天河区,本科,上市公司,"移动互联网,数据服务",113.37244,23.1233,全职,3-5年,"['绩效奖金', '专项奖金', '五险一金', '通讯津贴']"
560,3887368,Java开发工程师,北京,2018-04-30 22:12:57,28.0,70301,奇点金服,北京盘古奇点投资管理有限公司,50-150人,朝阳区,本科,B轮,"移动互联网,金融",116.457606,39.913523,全职,3-5年,"['股票期权', '带薪年假', '岗位晋升', '年度旅游']"
561,2799583,Java工程师,厦门,2018-04-28 15:45:56,11.2,91874,指纹科技,厦门指纹科技有限公司,150-500人,思明区,本科,不需要融资,电子商务,117.993493,23.994066,全职,3-5年,"['年底双薪', '五险一金', '生日福利', '带薪年假']"
562,3825944,Java研发工程师,北京,2018-04-28 10:09:01,22.0,2098,掌阅,掌阅科技股份有限公司,500-2000人,朝阳区,本科,上市公司,移动互联网,116.514211,39.905841,全职,3-5年,"['专项奖金', '带薪年假', '年度旅游', '扁平管理']"
563,4486807,Java开发工程师,上海,2018-04-26 13:55:06,20.8,29824,众安保险,众安在线财产保险股份有限公司,2000人以上,黄浦区,不限,上市公司,金融,121.488001,31.243499,全职,3-5年,"['定期体检', '每天下午茶', '六险一金', '年度体检']"
564,3716281,Java,上海,2018-04-24 10:14:31,27.2,155878,资邦成立多年，涉猎投资信贷等,资邦金服网络科技集团有限公司,500-2000人,浦东新区,大专,不需要融资,"O2O,金融",121.49613,31.156458,全职,5-10年,"['带薪年假', '帅哥多', '美女多', '扁平管理']"
565,4168693,Java开发工程师,西安,2018-05-02 18:10:11,12.0,43378,趣医网,上海趣医网络科技有限公司,500-2000人,高新技术产业开发区,本科,B轮,"移动互联网,医疗健康",108.876048,34.222748,全职,3-5年,"['年底双薪', '股票期权', '带薪年假', '岗位晋升']"
566,3698732,java开发工程师,武汉,2018-05-02 17:07:44,12.0,33713,富友,上海富友支付服务股份有限公司,150-500人,东湖新技术开发区,本科,不需要融资,移动互联网,0.0,0.0,全职,1-3年,"['技能培训', '节日礼物', '绩效奖金', '岗位晋升']"
567,4168510,JAVA开发工程师,深圳,2018-05-02 16:21:03,21.0,201625,深圳知云网络科技有限公司,深圳知云网络科技有限公司,2000人以上,南山区,本科,未融资,企业服务,113.949101,22.541117,全职,3-5年,"['专项奖金', '带薪年假', '弹性工作', '扁平管理']"
568,4488996,java工程师,北京,2018-05-02 14:17:08,28.0,23039,好大夫在线,互动峰科技(北京)有限公司,500-2000人,朝阳区,本科,D轮及以上,医疗健康,116.50929,39.912321,全职,不限,"['五险一金', '带薪年假', '绩效奖金', '专项奖金']"
569,4390161,java开发工程师,广州,2018-05-02 11:30:06,11.2,142626,CLPS,上海华钦信息科技股份有限公司,500-2000人,天河区,本科,未融资,"数据服务,金融",113.332464,23.134217,全职,1-3年,"['专项奖金', '带薪年假', '定期体检', '交通补助']"
570,2376349,Java技术专家,杭州,2018-05-02 14:14:20,38.0,153849,蚂蚁金服集团,支付宝(杭州)信息技术有限公司,2000人以上,西湖区,本科,B轮,"金融,移动互联网",120.125505,30.272945,全职,不限,"['年底双薪', '带薪年假', '股票期权', '绩效奖金']"
571,3089677,Java,杭州,2018-05-02 11:02:49,19.0,6462,安恒信息,杭州安恒信息技术有限公司,500-2000人,滨江区,本科,不需要融资,"信息安全 ,数据服务",120.21425,30.209525,全职,3-5年,"['年终分红', '股票期权', '绩效奖金', '五险一金']"
572,4184955,java研发工程师,北京,2018-05-02 09:55:25,14.0,306819,北京华悦数金,北京华悦数金科技有限公司,2000人以上,朝阳区,本科,不需要融资,移动互联网 金融,116.407003,40.001624,全职,3-5年,"['年底双薪', '午餐补助', '五险一金', '绩效奖金']"
573,3250887,Java开发工程师,杭州,2018-05-02 09:48:53,21.0,159778,佐力小贷,佐力科创小额贷款股份有限公司,150-500人,滨江区,大专,上市公司,金融,120.209742,30.204455,全职,3-5年,"['带薪年假', '交通补助', '定期体检', '午餐补助']"
574,3114221,高级Java开发,杭州,2018-05-02 09:48:05,25.2,8169,点我达,点我达网络科技有限公司,500-2000人,下城区,不限,D轮及以上,O2O,120.16579198,30.31569396,全职,3-5年,"['扁平管理', '弹性工作', '软妹子集中营', '股票期权']"
575,3719563,java开发,佛山,2018-05-02 09:34:08,12.4,16831,武汉佰钧成技术有限公司,武汉佰钧成技术有限责任公司,2000人以上,顺德区,大专,不需要融资,移动互联网,113.219574,22.934207,全职,3-5年,"['带薪年假', '计算机软件', '管理规范', '定期体检']"
576,3891796,java,上海,2018-05-02 09:24:02,20.8,282912,保拍网,上海保拍拍卖有限公司,15-50人,浦东新区,不限,未融资,移动互联网,121.619985,31.256986,全职,5-10年,"['年底双薪', '带薪年假', '午餐补助', '节日礼物']"
577,4322774,JAVA开发工程师,佛山,2018-05-02 09:13:10,11.2,24574,赛意,广州赛意信息科技股份有限公司,2000人以上,顺德区,大专,上市公司,"硬件,企业服务",113.219321,22.932089,全职,3-5年,"['技能培训', '带薪年假', '绩效奖金', '岗位晋升']"
578,4467794,java工程师,广州,2018-05-02 09:11:07,11.6,29385,铂涛旅行,铂涛信息技术（广州）有限公司,500-2000人,海珠区,本科,未融资,"移动互联网,旅游",113.286633,23.073842,全职,1-3年,"['节日礼物', '技能培训', '绩效奖金', '年度旅游']"
579,4063578,java开发工程师,郑州,2018-05-02 09:03:14,19.0,57353,中移在线服务有限公司,中移在线服务有限公司,2000人以上,高新区,本科,不需要融资,移动互联网,113.539949,34.804757,全职,3-5年,[]
580,4040412,Java开发工程师,上海,2018-04-28 13:39:28,22.8,140671,Airwallex,运汇（上海）网络科技有限公司,50-150人,黄浦区,本科,A轮,"移动互联网,金融",121.475713,31.224251,全职,3-5年,"['股票期权', '绩效奖金', '扁平管理', '岗位晋升']"
581,4107338,JAVA,上海,2018-04-27 12:14:37,21.0,14229,微盟,上海萌店信息科技有限公司,2000人以上,宝山区,本科,D轮及以上,"移动互联网,电子商务",121.496277,31.349371,全职,3-5年,"['绩效奖金', '年底双薪', '五险一金', '带薪年假']"
582,4045111,java开发工程师,上海,2018-04-27 10:22:33,13.6,25317,金证股份,深圳市金证科技股份有限公司,2000人以上,浦东新区,本科,上市公司,金融,0.0,0.0,全职,3-5年,"['激情的团队', '股票期权', '努力变大牛', '有舞台给您跳']"
583,4088075,JAVA,北京,2018-04-26 22:22:50,21.0,67300,ThoughtWorks,思特沃克软件技术（成都）有限公司,2000人以上,东城区,不限,不需要融资,企业服务,0.0,0.0,全职,5-10年,"['技能培训', '节日礼物', '带薪年假', '全球化视野']"
584,4409609,Java开发工程师,云浮,2018-04-26 18:49:16,6.8,94437,华仝九方,广东华仝九方科技有限公司,50-150人,云城区,大专,不需要融资,"信息安全,数据服务",112.036044,22.921892,全职,3-5年,"['节日礼物', '带薪年假', '定期体检', '五险一金']"
585,3705500,Java开发工程师,西安,2018-05-02 09:29:38,11.4,16831,武汉佰钧成技术有限公司,武汉佰钧成技术有限责任公司,2000人以上,高新技术产业开发区,本科,不需要融资,移动互联网,108.841747,34.207933,全职,3-5年,"['带薪年假', '计算机软件', '管理规范', '定期体检']"
586,3741718,java开发工程师,北京,2018-05-03 09:22:47,17.0,275062,联通大数据,联通大数据有限公司,2000人以上,东城区,本科,不需要融资,数据服务,116.428235,39.907018,全职,3-5年,"['""""']"
587,4149053,java工程师,杭州,2018-05-03 09:04:12,10.8,49369,淘粉吧,杭州淘粉吧网络技术股份有限公司,150-500人,西湖区,本科,上市公司,"移动互联网,电子商务",119.993591,29.993662,全职,1-3年,"['技能培训', '节日礼物', '绩效奖金', '年度旅游']"
588,3124466,JAVA开发工程师,北京,2018-05-02 22:25:40,26.0,534,京东金融,京东金融,2000人以上,大兴区,本科,上市公司,金融,116.56784934,39.79105081,全职,3-5年,"['供应链金融', '消费金融', '众筹业务', '支付业务']"
589,1823173,Java,成都,2018-05-02 19:30:03,10.8,95229,四川长虹电器股份有限公司,四川长虹电器股份有限公司,2000人以上,高新区,本科,上市公司,硬件,104.06333013,30.54176969,全职,3-5年,"['绩效奖金', '管理规范', '定期体检', '五险一金']"
590,4397597,java开发工程师,北京,2018-05-02 16:48:47,28.0,41823,58到家,北京五八到家信息技术有限公司,2000人以上,朝阳区,本科,A轮,"O2O,生活服务",116.416728,40.039781,全职,3-5年,"['节日礼物', '技能培训', '股票期权', '免费班车']"
591,3715446,JAVA开发工程师,上海,2018-05-02 14:02:38,29.0,113416,V.Photos云摄影,唯存（上海）网络科技有限公司,150-500人,黄浦区,本科,A轮,移动互联网,121.49428,31.230333,全职,10年以上,"['股票期权', '弹性工作', '年度旅游', '领导好']"
592,4086903,JAVA开发工程师,北京,2018-05-02 11:19:01,21.0,8414,一点资讯,一点网聚科技有限公司,500-2000人,朝阳区,本科,D轮及以上,移动互联网,116.490835,40.00522,全职,3-5年,"['带薪年假', '午餐补助', '扁平管理', '弹性工作']"
593,4177028,JAVA开发工程师,深圳,2018-05-02 10:59:11,12.0,131999,亿腾,深圳亿腾信息科技有限公司,150-500人,福田区,大专,不需要融资,"企业服务,移动互联网",114.05558,22.534943,全职,3-5年,"['定期体检', '交通补助', '带薪年假', '年度旅游']"
594,4055336,java,上海,2018-05-02 10:40:24,12.4,130659,舟恩信息,上海舟恩信息技术有限公司,150-500人,浦东新区,本科,不需要融资,移动互联网,121.556742,31.212593,全职,3-5年,[]
595,3844038,Java开发工程师,广州,2018-05-02 09:44:41,14.0,134745,探迹,广州探迹科技有限公司,50-150人,番禺区,本科,B轮,"数据服务,企业服务",113.386397,23.0566,全职,1-3年,"['B2B销售', '精准营销', '大数据', '人工智能']"
596,4184496,java开发,上海,2018-05-02 09:24:06,20.8,282912,保拍网,上海保拍拍卖有限公司,15-50人,浦东新区,大专,未融资,移动互联网,121.619985,31.256986,全职,3-5年,"['年底双薪', '带薪年假', '午餐补助', '节日礼物']"
597,3293623,Java工程师,北京,2018-05-02 09:15:32,21.0,6731,友缘在线,北京友缘在线网络科技股份有限公司,150-500人,朝阳区,本科,不需要融资,"移动互联网,社交网络",116.429167,40.005945,全职,5-10年,"['绩效奖金', '年终分红', '股票期权', '年底双薪']"
598,3996029,JAVA开发工程师,杭州,2018-05-02 09:00:42,19.0,301134,认识医生,杭州认识科技有限公司,15-50人,余杭区,本科,不需要融资,医疗健康,120.002035,30.27563,全职,3-5年,"['股票期权', '年终分红', '办公环境优美', '弹性工作']"
599,3437636,java开发,上海,2018-04-28 17:31:48,10.6,128998,江苏亿科达,上海海万信息科技股份有限公司,500-2000人,静安区,大专,不需要融资,"移动互联网,金融",121.458959,31.266934,全职,1-3年,[]
600,3057968,Java开发工程师,武汉,2018-05-03 09:19:49,11.6,16831,武汉佰钧成技术有限公司,武汉佰钧成技术有限责任公司,2000人以上,洪山区,本科,不需要融资,移动互联网,114.32406,30.46954,全职,3-5年,"['带薪年假', '计算机软件', '管理规范', '定期体检']"
601,2959839,Java 开发,广州,2018-04-28 09:39:40,14.4,37398,亚美,广州亚美信息科技有限公司,150-500人,天河区,大专,不需要融资,移动互联网,113.347222,23.143984,全职,1-3年,"['节日礼物', '技能培训', '年度旅游', '岗位晋升']"
602,4246354,Java开发工程师,北京,2018-04-26 14:35:03,21.0,1561,Face++,北京旷视科技有限公司,500-2000人,海淀区,本科,C轮,"移动互联网,硬件",116.315227,39.98333,全职,3-5年,"['科技大牛公司', '自助三餐', '年终多薪', '超长带薪假期']"
603,4164022,Java研发工程师,上海,2018-04-26 09:53:38,22.0,6044,拍拍贷,上海拍拍贷金融信息服务有限公司,2000人以上,浦东新区,不限,上市公司,金融,0.0,0.0,全职,3-5年,"['绩效奖金', '五险一金', '带薪年假', '午餐补助']"
604,2568566,Java 开发,上海,2018-04-23 08:42:30,15.4,14093,瞬联软件科技（北京）有限公司,瞬联软件科技（北京）有限公司,500-2000人,长宁区,本科,不需要融资,"移动互联网 ,企业服务",0.0,0.0,全职,3-5年,"['高薪', '节日礼物', '弹性工作', '带薪年假']"
605,4444519,java开发工程师,杭州,2018-04-18 17:22:55,14.0,44616,驿公里,上海氦修网络科技有限公司,15-50人,滨江区,本科,B轮,"移动互联网,电子商务",120.200399,30.207218,全职,3-5年,"['节日礼物', '带薪年假', '绩效奖金', '岗位晋升']"
606,4454943,Java开发（杭州）,杭州,2018-05-03 08:56:19,10.4,119788,汇金智融,汇金智融（北京）科技有限公司,150-500人,滨江区,本科,上市公司,"移动互联网,电子商务",120.172,30.188575,全职,1-3年,"['年底双薪', '绩效奖金', '带薪年假', '弹性工作']"
607,3577638,Java开发工程师,广州,2018-05-02 21:12:07,7.6,257806,前海易物,前海易物（深圳）电子商务有限公司广州分公司,150-500人,海珠区,大专,A轮,"电子商务,移动互联网",113.368263,23.096482,全职,1-3年,"['绩效奖金', '交通补助', '定期体检', '带薪年假']"
608,4509411,JAVA开发工程师,北京,2018-05-02 19:32:28,19.0,21225,和创金服,北京和创未来网络科技有限公司,500-2000人,朝阳区,本科,B轮,"电子商务,金融",116.386399,39.991204,全职,1-3年,"['技能培训', '节日礼物', '带薪年假', '绩效奖金']"
609,3756071,Java开发工程师,北京,2018-05-02 18:46:00,24.8,278671,网信,北京网信金服信息科技有限公司,500-2000人,朝阳区,本科,不需要融资,"金融,移动互联网",116.465647,39.958355,全职,5-10年,"['定期体检', '午餐补助', '带薪年假', '弹性工作']"
610,4400769,Java开发工程师,北京,2018-05-02 18:32:33,24.0,4828,当当网,北京当当网信息技术有限公司,2000人以上,朝阳区,本科,上市公司,"移动互联网,电子商务",116.44041,39.96012,全职,3-5年,"['年底双薪', '节日礼物', '技能培训', '绩效奖金']"
