,职位编码,职位名称,所在城市,发布日期,薪资待遇,公司编码,公司名称,公司全称,公司规模,所在区域,最低学历,融资状态,公司类型,经度,纬度,全职/实习,工作经验,吸引条件
0,1606899,PHP,北京,2018-05-02 10:09:14,14.0,41030,小肚皮App,北京九识佳科技有限公司,15-50人,朝阳区,本科,A轮,移动互联网,116.472885,39.912253,全职,1-3年,"['年度旅游', '美女CEO', '五险一金', '午餐补助']"
1,4262266,PHP开发工程师,上海,2018-05-02 09:52:17,22.0,317577,菜花传媒,上海菜花文化传媒有限公司,50-150人,普陀区,本科,A轮,"移动互联网,电子商务",121.397361,31.266659,全职,3-5年,"['股票期权', '帅哥多', '美女多', '领导好']"
2,4506754,PHP开发工程师,上海,2018-05-02 15:10:18,21.0,46605,VIP陪练,上海妙克信息科技有限公司,150-500人,杨浦区,本科,B轮,"移动互联网,教育",121.532505,31.254204,全职,3-5年,"['年底双薪', '节日礼物', '绩效奖金', '岗位晋升']"
3,4449015,PHP,北京,2018-05-02 18:34:18,24.0,72185,万题库,北京美好明天科技有限公司,150-500人,海淀区,大专,上市公司,"移动互联网,教育",,,全职,3-5年,"['节日礼物', '年底双薪', '股票期权', '带薪年假']"
4,4494670,PHP研发工程师,北京,2018-04-27 16:00:59,19.0,61921,人人行(借贷宝),人人行科技有限公司,2000人以上,朝阳区,不限,C轮,"移动互联网,金融",39.897445,116.331398,全职,1-3年,"['年底双薪', '节日礼物', '绩效奖金', '岗位晋升']"
5,4504571,PHP工程师,上海,2018-05-03 09:11:49,12.0,69152,博奥特科技,深圳市博奥特科技有限公司,150-500人,浦东新区,本科,未融资,"移动互联网,金融",121.619985,31.256986,全职,3-5年,"['绩效奖金', '领导好', '帅哥多', '美女多']"
6,3853467,PHP开发工程师,广州,2018-05-02 18:09:13,9.6,33193,广州轻快科技有限公司,广州轻快科技有限公司,15-50人,荔湾区,大专,A轮,移动互联网,113.242589,23.105828,全职,3-5年,"['脑洞大开', '死磕精神', '股票期权', '弹性工作']"
7,4507253,PHP开发工程师,北京,2018-05-02 15:46:14,19.0,956,金山云,北京金山云网络技术有限公司,500-2000人,海淀区,硕士,C轮,"移动互联网,数据服务",116.32274,40.03674,全职,1-3年,"['技能培训', '节日礼物', '瑜伽房', '免费班车']"
8,4465036,PHP开发工程师,上海,2018-05-02 10:15:19,28.0,70765,三体云动 【森融网络】,上海森融网络科技有限公司,150-500人,徐汇区,本科,B轮,移动互联网,121.412012,31.170139,全职,3-5年,"['做五休二', '五险一金', '补充医疗', '带薪年假']"
9,3527566,php工程师,深圳,2018-05-02 19:13:12,19.0,252097,华云中盛,深圳市华云中盛科技有限公司,150-500人,南山区,大专,不需要融资,"数据服务,移动互联网",113.946468,22.534199,全职,5-10年,"['绩效奖金', '带薪年假', '通讯津贴', '定期体检']"
10,4508668,PHP开发,广州,2018-05-02 17:43:49,5.2,87660,昊翼信息,广州市昊翼信息科技有限公司,15-50人,天河区,大专,未融资,"移动互联网,游戏",113.323658,23.148974,全职,1-3年,['绩效奖金']
11,4429559,PHP研发工程师,北京,2018-05-02 11:42:39,22.0,190923,智友互动,智友互动（北京）科技有限公司,50-150人,朝阳区,本科,不需要融资,"移动互联网,游戏",116.45336,39.96317,全职,3-5年,"['绩效奖金', '股票期权', '带薪年假', '午餐补助']"
12,3667089,php开发工程师,北京,2018-05-02 19:25:15,24.8,81107,一亩田,北京一人一亩田网络科技有限公司,150-500人,海淀区,本科,C轮,"移动互联网,电子商务",116.359972,40.039972,全职,3-5年,"['节日礼物', '年底双薪', '专项奖金', '股票期权']"
13,4508518,PHP开发,深圳,2018-05-02 17:31:07,14.4,21666,维恩贝特,维恩贝特科技有限公司,500-2000人,福田区,本科,A轮,"电子商务,金融",114.05668,22.5083,全职,3-5年,"['年底双薪', '五险一金', '通讯津贴', '交通补助']"
14,3643134,PHP开发工程师,广州,2018-05-02 10:03:09,13.2,37990,一手服装批发APP,广州富米科技有限公司,150-500人,荔湾区,本科,A轮,"移动互联网,电子商务",113.217728,23.13091,全职,3-5年,"['节日礼物', '团队靠谱', '活动多多', '社保']"
15,3155864,初级JAVA/PHP开发,北京,2018-05-02 10:09:14,7.0,41030,小肚皮App,北京九识佳科技有限公司,15-50人,朝阳区,本科,A轮,移动互联网,116.473079,39.91331,全职,1年以下,"['年度旅游', '美女CEO', '五险一金', '午餐补助']"
16,4288148,PHP工程师,北京,2018-04-25 09:32:38,35.0,61921,人人行(借贷宝),人人行科技有限公司,2000人以上,朝阳区,本科,C轮,"移动互联网,金融",116.416771,40.015961,全职,3-5年,"['年底双薪', '节日礼物', '绩效奖金', '岗位晋升']"
17,3326541,PHP开发工程师,无锡,2018-05-03 09:13:47,8.2,163347,rijinjin,无锡日进金网络销售有限公司,15-50人,锡山区,大专,不需要融资,电子商务,120.359569,31.590389,全职,1-3年,"['带薪年假', '绩效奖金', '周末双休', '五险一金']"
18,4508518,PHP开发,深圳,2018-05-02 17:31:07,14.4,21666,维恩贝特,维恩贝特科技有限公司,500-2000人,福田区,本科,A轮,"电子商务,金融",114.05668,22.5083,全职,3-5年,"['年底双薪', '五险一金', '通讯津贴', '交通补助']"
19,3643134,PHP开发工程师,广州,2018-05-02 10:03:09,13.2,37990,一手服装批发APP,广州富米科技有限公司,150-500人,荔湾区,本科,A轮,"移动互联网,电子商务",113.217728,23.13091,全职,3-5年,"['节日礼物', '团队靠谱', '活动多多', '社保']"
20,3616753,PHP开发工程师,广州,2018-05-02 11:11:41,12.0,167745,SuperADS,广州线条信息科技有限公司,50-150人,天河区,本科,A轮,"移动互联网,广告营销",113.371527,23.123138,全职,3-5年,"['股票期权', '绩效奖金', '专项奖金', '年终分红']"
21,4509162,PHP开发工程师,成都,2018-05-02 18:41:32,11.2,136443,马上金融,马上消费金融股份有限公司,2000人以上,高新区,本科,不需要融资,"金融,移动互联网",104.067656,30.551731,全职,3-5年,"['股票期权', '年终分红', '绩效奖金', '带薪年假']"
22,4408961,php开发工程师,上海,2018-05-02 10:37:00,19.0,258451,汉州金服,上海汉州互联网金融信息服务有限公司,15-50人,黄浦区,本科,未融资,"移动互联网,电子商务",121.470656,31.204183,全职,3-5年,"['带薪年假', '年底双薪', '弹性工作', '节日礼物']"
23,4397085,PHP开发工程师,北京,2018-05-02 09:32:02,35.0,29795,罗辑思维,北京思维造物信息科技有限公司,150-500人,朝阳区,本科,B轮,"移动互联网,文化娱乐",115.99339,39.99426,全职,3-5年,"['专项奖金', '扁平管理', '帅哥多', '领导好']"
24,3936381,PHP开发工程师,北京,2018-04-25 11:19:14,12.0,109,马蜂窝,北京蚂蜂窝网络科技有限公司,500-2000人,朝阳区,本科,D轮及以上,"移动互联网,旅游",116.494528,39.990025,全职,1-3年,"['弹性工作', '扁平管理', '氛围好', '年度体检']"
25,4132870,深资PHP开发工程师,杭州,2018-05-02 10:35:45,14.0,20337,会搜股份,杭州会搜科技有限公司,150-500人,江干区,本科,上市公司,移动互联网,120.25935,30.30846,全职,3-5年,"['技能培训', '节日礼物', '股票期权', '带薪年假']"
26,1617547,PHP研发工程师,济南,2018-05-03 09:10:32,8.4,62104,融托金融,聊城融托金融服务有限公司,50-150人,市中区,不限,不需要融资,金融,117.00243671,36.66262667,全职,1-3年,"['节日礼物', '绩效奖金', '岗位晋升', '扁平管理']"
27,4417043,PHP开发工程师,厦门,2018-05-02 11:26:50,14.0,23291,美图公司,厦门美图之家科技有限公司,500-2000人,思明区,本科,上市公司,"移动互联网,硬件",118.179899,24.489558,全职,1-3年,"['节日礼物', '与大牛共事', '福利健全', '五险一金']"
28,4468429,PHP工程师,深圳,2018-05-02 09:29:02,15.2,367428,十分到家,深圳十分到家服务科技有限公司,500-2000人,南山区,本科,A轮,O2O,113.930542,22.568602,全职,3-5年,[]
29,4508356,php开发工程师,长沙,2018-05-02 17:16:45,6.8,309564,轻松,长沙轻松电子商务有限公司,50-150人,岳麓区,不限,未融资,"移动互联网,电子商务",112.933118,28.218315,全职,3-5年,"['年底双薪', '年终分红', '交通补助', '带薪年假']"
30,3155873,实习JAVA/PHP开发,北京,2018-05-02 10:09:14,5.6,41030,小肚皮App,北京九识佳科技有限公司,15-50人,朝阳区,本科,A轮,移动互联网,116.473079,39.91331,实习,应届毕业生,"['年度旅游', '美女CEO', '五险一金', '午餐补助']"
31,4448043,PHP,北京,2018-04-19 11:17:00,4.8,61921,人人行(借贷宝),人人行科技有限公司,2000人以上,朝阳区,本科,C轮,"移动互联网,金融",116.416771,40.015961,实习,应届毕业生,"['年底双薪', '节日礼物', '绩效奖金', '岗位晋升']"
32,2305269,PHP,杭州,2018-05-02 10:35:44,10.8,20337,会搜股份,杭州会搜科技有限公司,150-500人,江干区,大专,上市公司,移动互联网,120.25935043,30.30846019,全职,1-3年,"['技能培训', '节日礼物', '股票期权', '带薪年假']"
33,4310284,PHP开发工程师,上海,2018-05-02 13:16:15,14.4,4112,韩创科技,上海我图网络科技有限公司,150-500人,浦东新区,大专,D轮及以上,"移动互联网,文化娱乐",121.511663,31.189845,全职,1-3年,"['年终分红', '绩效奖金', '五险一金', '带薪年假']"
34,2423934,PHP开发工程师,广州,2018-05-02 11:36:22,14.0,11891,伊的家,广州伊的家网络科技有限公司,2000人以上,天河区,大专,不需要融资,电子商务,113.316349,23.125765,全职,1-3年,"['绩效奖金', '专项奖金', '股票期权', '节日礼物']"
35,3810529,PHP开发,天津,2018-05-03 09:37:11,10.8,37986,世纪超星,北京世纪超星信息技术发展有限责任公司,2000人以上,南开区,大专,不需要融资,教育、移动互联网,117.150738,39.138203,全职,3-5年,"['年底双薪', '专项奖金', '带薪年假', '绩效奖金']"
36,4196602,PHP开发工程师,北京,2018-05-03 09:30:09,14.0,7902,好巧,北京好巧国际旅行社有限公司,150-500人,朝阳区,大专,B轮,数据服务,116.406849,39.973642,全职,3-5年,"['五险一金', '弹性工作', '扁平管理', '百万医疗']"
37,3810345,深圳-PHP开发工程师,深圳,2018-05-02 15:55:28,17.8,29824,众安保险,众安在线财产保险股份有限公司,2000人以上,,本科,上市公司,金融,113.937046,22.522324,全职,3-5年,"['定期体检', '每天下午茶', '六险一金', '年度体检']"
38,4346885,PHP开发工程师,北京,2018-05-02 09:09:08,9.6,21567,安智,北京力天无限网络技术有限公司,150-500人,海淀区,本科,B轮,移动互联网,116.359972,40.039972,全职,1-3年,"['绩效奖金', '五险一金', '带薪年假', '节日礼物']"
39,3928825,PHP研发工程师,杭州,2018-05-02 10:59:29,25.2,57350,微拍堂,杭州微拍堂文化创意有限公司,150-500人,西湖区,大专,A轮,移动互联网,120.12658,30.2784,全职,3-5年,"['岗位晋升', '年度旅游', '年底双薪', '午餐补助']"
40,4121537,PHP开发工程师,南宁,2018-05-02 10:21:52,6.8,61635,广西日报,广西日报传媒集团有限公司,2000人以上,青秀区,本科,不需要融资,文化娱乐,0.0,0.0,全职,不限,"['技能培训', '专项奖金', '带薪年假', '绩效奖金']"
41,4014035,PHP研发工程师,广州,2018-05-02 09:48:58,15.2,5726,翼课网,广州摩翼信息科技有限公司,500-2000人,番禺区,本科,不需要融资,"移动互联网 ,教育",0.0,0.0,全职,1-3年,"['节日礼物', '在线教育', '岗位晋升', '五险一金']"
42,3953289,PHP开发工程师,北京,2018-05-02 10:00:46,12.0,78827,万象新动,北京万象新动移动科技有限公司,50-150人,东城区,本科,上市公司,"移动互联网,广告营销",116.43092,39.9328,全职,3-5年,"['节日礼物', '带薪年假', '领导好', '美女多']"
43,4430083,PHP研发,天津,2018-05-02 09:56:01,7.0,8861,妙计旅行,北京汇行科技有限公司,150-500人,滨海新区,本科,B轮,旅游,117.688816,38.995853,全职,1-3年,"['股票期权', '十四薪', '零食饮料水果', '团队氛围好']"
44,3070870,PHP,北京,2018-05-02 18:12:21,21.0,82991,数美,北京数美时代科技有限公司,150-500人,朝阳区,本科,B轮,"企业服务,数据服务",116.465953,40.021083,全职,1-3年,"['年底双薪', '大数据', '带薪年假', '通讯津贴']"
45,3006837,高级PHP,北京,2018-05-02 10:09:13,21.0,41030,小肚皮App,北京九识佳科技有限公司,15-50人,朝阳区,本科,A轮,移动互联网,116.473079,39.91331,全职,3-5年,"['年度旅游', '美女CEO', '五险一金', '午餐补助']"
46,4041008,PHP开发,广州,2018-05-02 15:39:45,7.2,290905,广州楠天,广州楠天网络科技有限公司,15-50人,天河区,大专,不需要融资,移动互联网,113.398974,23.121974,全职,1-3年,[]
47,1432394,PHP开发工程师,北京,2018-05-02 10:19:29,21.0,50604,roobo,北京智能管家科技有限公司,150-500人,东城区,本科,B轮,移动互联网,116.433221,39.920718,全职,1-3年,"['年底双薪', '节日礼物', '技能培训', '年度旅游']"
48,2316762,PHP开发工程师,上海,2018-05-02 10:00:09,19.0,34863,车轮,上海易点时空网络有限公司,150-500人,闵行区,本科,C轮,移动互联网,121.396294,31.171074,全职,3-5年,"['节日礼物', '股票期权', '年度旅游', '岗位晋升']"
49,4402137,PHP研发工程师,厦门,2018-05-03 09:23:06,10.8,19313,网宿科技,网宿科技股份有限公司北京分公司,2000人以上,思明区,本科,上市公司,移动互联网,117.993493,23.994066,全职,1-3年,"['年底双薪', '五险一金', '交通补助', '带薪年假']"
50,4507464,PHP开发工程师,深圳,2018-05-02 16:04:24,17.8,29824,众安保险,众安在线财产保险股份有限公司,2000人以上,南山区,本科,上市公司,金融,113.937046,22.522324,全职,3-5年,"['定期体检', '每天下午茶', '六险一金', '年度体检']"
51,2884027,PHP软件工程师,厦门,2018-05-02 09:44:11,10.8,26742,趣游（厦门）科技有限公司,趣游（厦门）科技有限公司,150-500人,湖里区,不限,不需要融资,移动互联网,118.138084,24.516323,全职,3-5年,"['绩效奖金', '年底双薪', '五险一金', '带薪年假']"
52,4221088,PHP开发工程师,厦门,2018-05-02 09:06:18,7.0,117696,月轮网络科技有限公司,厦门市月轮网络科技有限公司,少于15人,思明区,大专,未融资,游戏,118.074653,24.462676,全职,1-3年,"['年终分红', '定期体检', '午餐补助', '专项奖金']"
53,3684367,PHP开发工程师,北京,2018-05-03 09:24:31,28.0,16869,朗播网,北京博智天下信息技术有限公司,150-500人,海淀区,本科,B轮,教育,116.31287,40.03445,全职,5-10年,"['扁平管理', '定期体检', '股票期权', '团建活动']"
54,4480389,PHP开发工程师,北京,2018-05-03 08:24:43,17.0,124192,闲徕互娱,北京闲徕互娱网络科技有限公司,500-2000人,朝阳区,本科,不需要融资,游戏,116.414211,40.032234,全职,3-5年,"['年底双薪', '股票期权', '带薪年假', '专项奖金']"
55,3683221,PHP程序员,中山,2018-05-02 13:54:22,10.8,200958,无忧帮帮,深圳无忧帮帮科技有限公司,50-150人,中山市市辖区,大专,A轮,"移动互联网,生活服务",113.423023,22.515922,全职,1-3年,"['节日礼物', '管理规范', '五险一金', '岗位晋升']"
56,4121932,PHP开发工程师,上海,2018-05-02 09:06:50,24.0,4670,The NetCircle,人英网络（上海）有限公司,50-150人,普陀区,本科,不需要融资,"社交网络,数据服务",121.43046,31.242819,全职,5-10年,"['年终分红', '五险一金', '交通补助', '带薪年假']"
57,3727697,PHP,上海,2018-05-03 09:13:45,11.2,73861,汇宜金融,上海汇宜金融信息服务有限公司,50-150人,宝山区,本科,B轮,移动互联网、数据服务,121.43105,31.33875,全职,1-3年,"['带薪年假', '岗位晋升', '年度旅游', '管理规范']"
58,4295589,PHP程序,广州,2018-05-02 12:08:14,10.0,13241,互爱(北京)科技有限公司,互爱(北京)科技有限公司,500-2000人,天河区,不限,C轮,"移动互联网,游戏",113.338715,23.12602,全职,3-5年,"['五险一金', '岗位晋升', '帅哥多', '弹性工作']"
59,4463435,PHP工程师,长沙,2018-05-02 09:48:07,9.6,24931,九春教育,海南九春教育科技股份有限公司,150-500人,岳麓区,大专,上市公司,"移动互联网,教育",112.9544,28.22342,全职,3-5年,"['五险一金', '带薪年假', '节日礼物', '午餐补助']"
60,3884553,php中级工程师,上海,2018-05-02 20:07:36,17.0,4112,韩创科技,上海我图网络科技有限公司,150-500人,浦东新区,不限,D轮及以上,"移动互联网,文化娱乐",121.511419,31.188916,全职,3-5年,"['年终分红', '绩效奖金', '五险一金', '带薪年假']"
61,4036870,PHP工程师,郑州,2018-05-02 18:22:56,12.0,116333,象聚集团,河南象聚实业有限公司,500-2000人,高新区,大专,不需要融资,"移动互联网,金融",113.566392,34.817257,全职,5-10年,"['定期体检', '派对旅游', '六险一金', '绩效奖金']"
62,4206194,PHP开发工程师,南京,2018-05-02 15:29:28,6.8,111436,云海螺,南京云起信息科技有限公司,50-150人,江宁区,大专,A轮,"移动互联网,教育",118.827441,31.867964,全职,1-3年,"['绩效奖金', '股票期权', '年终分红', '带薪年假']"
63,4237607,PHP开发工程师（XHX）,杭州,2018-05-02 10:24:31,13.6,9327,铭师堂,杭州铭师堂教育科技发展有限公司,500-2000人,拱墅区,不限,不需要融资,"移动互联网,教育",120.120309,30.335574,全职,3-5年,"['自主盈利', '扁平管理', '技术大牛', '岗位晋升']"
64,3605991,PHP开发工程师,上海,2018-05-02 09:55:34,22.0,14983,游族网络,上海游族信息技术有限公司,500-2000人,徐汇区,不限,上市公司,"移动互联网,游戏",39.897445,116.331398,全职,3-5年,"['五险一金', '岗位晋升', '弹性工作', '扁平管理']"
65,3888248,PHP研发工程师,北京,2018-05-02 12:08:13,19.0,202067,优信集团,优舫（北京）信息科技有限公司,2000人以上,朝阳区,本科,D轮及以上,"电子商务,移动互联网",116.480615,39.996373,全职,3-5年,"['绩效奖金', '通讯津贴', '带薪年假', '交通补助']"
66,4136492,PHP开发工程师,济南,2018-05-02 09:13:10,10.4,24574,赛意,广州赛意信息科技股份有限公司,2000人以上,高新区,大专,上市公司,"硬件,企业服务",117.13565,36.670587,全职,3-5年,"['技能培训', '带薪年假', '绩效奖金', '岗位晋升']"
67,2806734,PHP开发工程师,宁波,2018-05-02 08:48:17,14.4,78225,草料二维码,宁波邻家网络科技有限公司,50-150人,海曙区,本科,未融资,"移动互联网,其他",121.533292,29.8798,全职,1-3年,"['带薪年假', '扁平管理', '年底双薪', '五险一金']"
68,4418294,PHP开发,北京,2018-04-28 19:30:03,20.2,149244,多赚,北京诚行天下投资咨询有限公司,50-150人,朝阳区,本科,天使轮,"移动互联网,金融",116.506666,39.9024,全职,5-10年,"['带薪年假', '午餐补助', '免费班车', '节日礼物']"
69,3322701,PHP开发,北京,2018-05-02 17:07:29,29.0,72185,万题库,北京美好明天科技有限公司,150-500人,海淀区,本科,上市公司,"移动互联网,教育",116.32386,39.959271,全职,3-5年,"['节日礼物', '年底双薪', '股票期权', '带薪年假']"
70,3730915,PHP开发工程师,厦门,2018-05-03 09:36:55,12.0,42270,他趣,厦门海豹他趣信息技术股份有限公司,150-500人,思明区,不限,上市公司,"移动互联网,电子商务",118.186,24.48207,全职,1-3年,"['年底双薪', '带薪年假', '年度旅游', '扁平管理']"
71,2849621,PHP开发工程师,上海,2018-05-02 16:24:30,21.0,30830,哔哩哔哩,上海幻电信息科技有限公司,2000人以上,浦东新区,本科,上市公司,"移动互联网,文化娱乐",121.99341,30.994275,全职,3-5年,"['带薪年假', '绩效奖金', '交通补助', '午餐补助']"
72,4267975,PHP,杭州,2018-05-02 10:13:52,14.0,118670,云犀,杭州星犀科技有限公司,50-150人,余杭区,大专,A轮,"移动互联网,文化娱乐",120.004553,30.287735,全职,1-3年,"['股票期权', '午餐补助', '带薪年假', '弹性工作']"
73,3643903,PHP开发工程师,青岛,2018-04-26 17:18:29,8.8,7535,什么值得买,北京值得买科技股份有限公司,150-500人,市北区,不限,A轮,"电子商务,文化娱乐",120.376922,36.089956,全职,1-3年,"['技能培训', '带薪年假', '各种主题趴', '海量产品体验']"
74,4033775,PHP工程师,柳州,2018-05-03 09:29:27,4.8,118564,迈联科技,广西迈联科技有限公司,15-50人,城中区,不限,不需要融资,"硬件,移动互联网",109.433853,24.32903,全职,3-5年,"['年底双薪', '专项奖金', '绩效奖金', '带薪年假']"
75,2209022,PHP开发工程师,合肥,2018-05-03 08:59:35,9.0,54915,传影科技,上海传影科技有限公司,50-150人,包河区,本科,未融资,文化娱乐,117.28391141,31.83326005,全职,1-3年,"['年底双薪', '专项奖金', '带薪年假', '年度旅游']"
76,4504632,PHP研发工程师,北京,2018-05-02 15:04:26,14.4,307965,看理想,北京看理想文化传媒有限公司,50-150人,东城区,本科,A轮,其他,116.416151,39.960673,全职,3-5年,"['带薪年假', '定期体检', '扁平管理', '五险一金']"
77,1672467,PHP,珠海,2018-05-02 09:56:13,19.0,122930,文景科技,珠海文景科技有限公司,50-150人,香洲区,不限,不需要融资,游戏,113.51913,22.253112,全职,1-3年,[]
78,2986631,PHP工程师,深圳,2018-05-03 08:50:05,10.2,63500,紫川软件,深圳市紫川软件有限公司,500-2000人,南山区,大专,不需要融资,"电子商务,金融",113.950671,22.55364,全职,3-5年,"['节日礼物', '年底双薪', '绩效奖金', '岗位晋升']"
79,2764589,PHP开发工程师,上海,2018-05-02 16:31:14,14.0,33219,斗象科技,上海斗象信息科技有限公司,50-150人,浦东新区,不限,B轮,信息安全,121.58109,31.198289,全职,1-3年,"['节日礼物', '技能培训', '股票期权', '专项奖金']"
80,3949586,PHP,上海,2018-05-02 10:17:29,20.8,251737,享换机,晋松（上海）网络信息技术有限公司,50-150人,杨浦区,本科,A轮,"移动互联网,金融",121.510403,31.306124,全职,3-5年,"['相互成就', '敢想敢做', '消费场景', '趋势改变习惯']"
81,4247036,PHP开发工程师,北京,2018-05-02 09:40:25,12.0,43055,轻松筹,北京轻松筹网络科技有限公司,150-500人,东城区,本科,C轮,"移动互联网,金融",116.42454227,39.94877813,全职,3-5年,"['节日礼物', '股票期权', '扁平管理', '领导好']"
82,4499161,高级PHP工程师,广州,2018-05-01 10:22:12,13.2,364032,众享（广州）科技有限公司,众享（广州）科技有限公司,50-150人,萝岗区,大专,未融资,"移动互联网,社交网络",113.325216,23.11625,全职,3-5年,"['""""']"
83,4271951,php开发工程师,上海,2018-05-02 23:03:34,10.0,107291,方趣网络,上海方趣网络科技有限公司,50-150人,闵行区,本科,A轮,游戏,121.392813,31.170524,全职,1-3年,[]
84,4483477,PHP开发工程师,武汉,2018-05-02 15:05:20,10.8,212032,尚德机构,北京尚德在线教育科技有限公司,2000人以上,洪山区,本科,上市公司,教育,0.0,0.0,全职,3-5年,"['年底双薪', '年终分红', '绩效奖金', '专项奖金']"
85,3565296,PHP开发工程师,合肥,2018-05-02 12:23:53,11.4,148606,安徽机器猫,安徽机器猫电子商务股份有限公司,50-150人,瑶海区,大专,A轮,"移动互联网,电子商务",117.314681,31.867131,全职,3-5年,[]
86,4459543,PHP开发工程师,深圳,2018-04-20 21:26:17,10.8,105305,越疆科技,深圳市越疆科技有限公司,150-500人,南山区,本科,B轮,硬件,114.12841,22.684206,全职,3-5年,"['股票期权', '年终分红', '专项奖金', '午餐补助']"
87,4022451,PHP开发工程师,广州,2018-05-02 13:31:07,14.0,310815,经传多赢,广州经传多赢投资咨询有限公司,2000人以上,番禺区,不限,不需要融资,"移动互联网,金融",0.0,0.0,全职,1-3年,"['绩效奖金', '年度旅游', '扁平管理', '技能培训']"
88,3272747,PHP研发工程师,北京,2018-05-02 13:20:38,14.0,55071,帕拉旅行,北京阳光帕拉国际旅行社有限公司,15-50人,朝阳区,本科,不需要融资,"移动互联网,生活服务",116.454274,39.994449,全职,3-5年,"['技能培训', '年底双薪', '节日礼物', '绩效奖金']"
89,4489141,【急招】PHP开发工程师（美拍）-厦门,厦门,2018-05-02 11:55:40,14.0,23291,美图公司,厦门美图之家科技有限公司,500-2000人,思明区,不限,上市公司,"移动互联网,硬件",118.179899,24.489558,全职,1-3年,"['节日礼物', '与大牛共事', '福利健全', '五险一金']"
90,4362946,PHP开发,上海,2018-05-02 11:49:35,21.0,202104,趣头条,上海基分文化传播有限公司,500-2000人,浦东新区,大专,不需要融资,移动互联网,121.624653,31.226515,全职,3-5年,"['专项奖金', '带薪年假', '弹性工作', '管理规范']"
91,3413413,PHP开发工程师,广州,2018-05-02 11:39:43,7.6,66619,智悅网络,广州智悦网络科技有限公司,50-150人,天河区,大专,A轮,"移动互联网,电子商务",113.371417,23.123497,全职,1-3年,"['五险一金', '年底双薪', '专项奖金', '带薪年假']"
92,3607101,PHP开发工程师,北京,2018-05-02 10:53:29,19.0,107423,瓜子二手车直卖网,车好多旧机动车经纪(北京)有限公司,2000人以上,海淀区,本科,C轮,O2O,116.29993611,40.04311563,全职,3-5年,"['带薪年假', '弹性工作', '免费班车', '美女多']"
93,4487483,PHP开发工程师,北京,2018-05-02 19:12:15,21.0,124192,闲徕互娱,北京闲徕互娱网络科技有限公司,500-2000人,朝阳区,本科,不需要融资,游戏,116.414211,40.032234,全职,3-5年,"['年底双薪', '股票期权', '带薪年假', '专项奖金']"
94,3414331,PHP开发工程师,北京,2018-05-02 19:08:25,18.2,236680,豆果美食,北京豆果信息技术有限公司,50-150人,东城区,本科,C轮,"移动互联网,社交网络",116.432736,39.920948,全职,1-3年,[]
95,4508618,PHP研发工程师,北京,2018-05-02 17:38:52,14.6,5832,新浪微博,微梦创科网络科技（中国）有限公司,2000人以上,海淀区,本科,上市公司,移动互联网,0.0,0.0,全职,1-3年,"['年底双薪', '专项奖金', '股票期权', '五险一金']"
96,3103659,PHP研发工程师,福州,2018-05-02 17:08:52,9.0,175982,福建日报新媒体,福建报业新媒体发展有限公司,50-150人,鼓楼区,本科,未融资,"移动互联网,电子商务",119.299179,26.100988,全职,3-5年,[]
97,4430357,PHP工程师,深圳,2018-05-02 12:56:51,13.2,27382,海豚村,深圳市海豚村信息技术有限公司,150-500人,南山区,本科,B轮,电子商务,113.94438,22.547387,全职,1-3年,"['股票期权', '扁平管理', '美女多', '专项奖金']"
98,4328283,PHP开发工程师,上海,2018-05-02 12:17:34,28.0,98800,竹间智能科技(上海)有限公司,竹间智能科技（上海）有限公司,150-500人,徐汇区,本科,B轮,"移动互联网,其他",121.41768,31.1751,全职,5-10年,"['年底双薪', '股票期权', '带薪年假', '绩效奖金']"
99,4130020,PHP工程师,厦门,2018-05-02 11:46:41,4.8,37430,厦门鹅卵石网络科技有限公司,厦门鹅卵石网络科技有限公司,15-50人,思明区,本科,A轮,医疗健康,118.182019,24.48578,全职,1-3年,"['技能培训', '节日礼物', '股票期权', '岗位晋升']"
100,4428484,资深PHP开发工程师,北京,2018-04-25 09:32:39,48.0,61921,人人行(借贷宝),人人行科技有限公司,2000人以上,朝阳区,本科,C轮,"移动互联网,金融",39.897445,116.331398,全职,5-10年,"['年底双薪', '节日礼物', '绩效奖金', '岗位晋升']"
101,4015649,PHP开发工程师,沈阳,2018-05-03 09:37:51,9.6,201059,致学教育,成都致学教育科技有限公司,50-150人,浑南区,本科,A轮,教育,123.458023,41.718073,全职,3-5年,"['股票期权', '绩效奖金', '带薪年假', '定期体检']"
102,3983826,PHP开发,北京,2018-05-03 09:29:04,15.2,210070,深睿医疗,北京深睿博联科技有限责任公司,50-150人,海淀区,本科,B轮,"移动互联网,医疗健康",116.312183,39.981536,全职,1-3年,"['股票期权', '年底双薪', '定期体检', '弹性工作']"
103,3418241,PHP开发工程师,深圳,2018-05-03 09:25:45,14.0,128998,江苏亿科达,上海海万信息科技股份有限公司,500-2000人,福田区,大专,不需要融资,"移动互联网,金融",114.06017,22.548627,全职,3-5年,[]
104,3094942,PHP开发工程师,济南,2018-05-03 08:48:47,7.6,67576,车满满,车满满（北京）信息技术有限公司,150-500人,高新区,本科,B轮,移动互联网,117.141711,36.662479,全职,1-3年,"['业内第一', '技能培训', '股票期权', '弹性工作']"
105,4240260,PHP开发工程师,哈尔滨,2018-05-03 09:37:50,10.8,201059,致学教育,成都致学教育科技有限公司,50-150人,南岗区,本科,A轮,教育,126.689233,45.742514,全职,3-5年,"['股票期权', '绩效奖金', '带薪年假', '定期体检']"
106,3788791,PHP高级开发工程师,广州,2018-05-02 17:27:48,17.0,33193,广州轻快科技有限公司,广州轻快科技有限公司,15-50人,荔湾区,大专,A轮,移动互联网,113.242589,23.105828,全职,5-10年,"['脑洞大开', '死磕精神', '股票期权', '弹性工作']"
107,2735566,PHP,杭州,2018-05-02 15:29:31,14.0,136800,蜂融网络,杭州蜂融网络科技有限公司,50-150人,西湖区,本科,A轮,"移动互联网,金融",120.067623,30.285134,全职,3-5年,"['股票期权', '午餐补助', '专项奖金', '弹性工作']"
108,4479322,PHP开发工程师,广州,2018-05-02 11:32:42,13.2,165738,活动时,广州活动时文化传媒有限公司,50-150人,天河区,本科,A轮,"企业服务,数据服务",113.327653,23.003163,全职,3-5年,"['年底双薪', '带薪年假', '定期体检', '专项奖金']"
109,3322200,PHP工程师,珠海,2018-05-02 09:56:13,19.0,122930,文景科技,珠海文景科技有限公司,50-150人,香洲区,大专,不需要融资,游戏,113.51913,22.253112,全职,3-5年,[]
110,3880206,PHP,苏州,2018-05-02 09:13:20,14.0,243708,木子木网络,昆山木子木网络科技有限公司,15-50人,昆山市,大专,未融资,游戏,121.148172,31.288881,全职,3-5年,[]
111,3578111,PHP开发工程师,上海,2018-05-01 21:44:39,13.2,6732,穿衣助手,上海优梦信息科技有限公司,50-150人,杨浦区,本科,B轮,"移动互联网,电子商务",121.51801,31.30932,全职,1-3年,"['年底双薪', '节日礼物', '技能培训', '年度旅游']"
112,3231459,PHP开发工程师,深圳,2018-04-30 17:47:49,19.0,202265,上海提捺信息科技有限公司,上海提捺信息科技有限公司,500-2000人,宝安区,大专,不需要融资,"社交网络,游戏",113.861804,22.589406,全职,3-5年,[]
113,3519072,PHP开发工程师,杭州,2018-05-03 09:19:57,14.0,100241,阿里体育,阿里体育（上海）有限公司,150-500人,余杭区,本科,A轮,"文化娱乐,其他",120.026208,30.279212,全职,3-5年,"['股票期权', '岗位晋升', '领导好', '美女多']"
114,4497967,PHP开发工程师,上海,2018-05-02 18:27:12,19.0,251737,享换机,晋松（上海）网络信息技术有限公司,50-150人,杨浦区,本科,A轮,"移动互联网,金融",121.51243,31.304638,全职,3-5年,"['相互成就', '敢想敢做', '消费场景', '趋势改变习惯']"
115,3016938,PHP开发工程师,上海,2018-05-02 11:11:54,13.2,54514,怪猫游戏,上海咕么信息科技有限公司,50-150人,普陀区,大专,不需要融资,"移动互联网,游戏",121.421858,31.23459,全职,不限,"['专项奖金', '带薪年假', '定期体检', '年终分红']"
116,4428753,PHP研发工程师,北京,2018-05-02 11:02:51,14.0,202067,优信集团,优舫（北京）信息科技有限公司,2000人以上,朝阳区,本科,D轮及以上,"电子商务,移动互联网",116.481049,39.996796,全职,3-5年,"['绩效奖金', '通讯津贴', '带薪年假', '交通补助']"
117,4303204,php开发工程师,上海,2018-05-02 17:29:05,22.0,211050,英雄互娱,成都英雄互娱科技有限公司,150-500人,静安区,本科,上市公司,"移动互联网,游戏",0.0,0.0,全职,3-5年,[]
118,4335904,PHP,北京,2018-05-02 17:19:23,28.0,111139,NIO蔚来,上海蔚来汽车有限公司,2000人以上,朝阳区,本科,D轮及以上,"移动互联网,硬件",116.465947,40.021473,全职,3-5年,"['年底双薪', '带薪年假', '通讯津贴', '交通补助']"
119,3607010,PHP 开发工程师,上海,2018-05-02 16:15:37,18.4,11001,Ping++,上海简米网络科技有限公司,50-150人,浦东新区,本科,B轮,"企业服务,金融",121.583094,31.196326,全职,3-5年,"['技能培训', '岗位晋升', '年度旅游', '通讯津贴']"
120,4385976,PHP开发工程师,北京,2018-05-02 16:03:11,14.0,121798,全民共赢,北京全民共赢网络科技有限公司,15-50人,朝阳区,本科,A轮,"移动互联网,企业服务",116.4511,39.962026,全职,3-5年,"['定期体检', '带薪年假', '五险一金', '弹性工作']"
121,3910387,PHP开发工程师,上海,2018-05-02 11:09:06,8.4,86809,欢动科技,上海欢动科技有限公司,50-150人,浦东新区,大专,A轮,"移动互联网,游戏",121.99341,30.994275,全职,1-3年,"['带薪年假', '岗位晋升', '领导好', '五险一金']"
122,3328125,PHP开发工程师,广州,2018-05-02 09:48:47,12.0,37793,功夫集团,广州功夫投资控股集团有限公司,2000人以上,南沙区,大专,未融资,生活服务,0.0,0.0,全职,3-5年,"['技能培训', '节日礼物', '年底双薪', '带薪年假']"
123,2206137,PHP,常州,2018-05-02 09:21:32,10.8,25908,常州市青之峰网络科技有限公司,常州市青之峰网络科技有限公司,150-500人,,大专,未融资,"移动互联网,电子商务",119.96869018,31.68130031,全职,5-10年,"['绩效奖金', '专项奖金', '通讯津贴', '交通补助']"
124,4202956,PHP研发工程师,北京,2018-05-02 09:19:38,21.0,287849,弘道,北京弘道智慧中医技术有限公司,50-150人,海淀区,本科,不需要融资,"医疗健康,数据服务",116.3075,39.983783,全职,3-5年,"['""""']"
125,4300604,PHP开发工程师,厦门,2018-05-02 09:06:19,8.4,117696,月轮网络科技有限公司,厦门市月轮网络科技有限公司,少于15人,思明区,大专,未融资,游戏,118.074653,24.462676,全职,1-3年,"['年终分红', '定期体检', '午餐补助', '专项奖金']"
126,4384546,PHP工程师,北京,2018-05-02 09:03:13,26.0,166829,小狗机器人,广州小狗机器人技术有限公司北京分公司,150-500人,朝阳区,本科,不需要融资,硬件,116.460635,39.89671,全职,3-5年,"['绩效奖金', '领导好', '扁平管理', '五险一金']"
127,4106174,PHP,郑州,2018-05-02 18:22:56,8.8,116333,象聚集团,河南象聚实业有限公司,500-2000人,高新区,大专,不需要融资,"移动互联网,金融",113.566392,34.817257,全职,3-5年,"['定期体检', '派对旅游', '六险一金', '绩效奖金']"
128,4236940,PHP开发工程师,北京,2018-05-02 17:19:33,28.0,111139,NIO蔚来,上海蔚来汽车有限公司,2000人以上,朝阳区,本科,D轮及以上,"移动互联网,硬件",116.465947,40.021473,全职,3-5年,"['年底双薪', '带薪年假', '通讯津贴', '交通补助']"
129,4249482,php工程师,广州,2018-05-02 16:47:28,10.8,309028,小树科技,广州小树网络科技有限公司,50-150人,天河区,大专,不需要融资,"移动互联网,数据服务",113.356072,23.16205,全职,3-5年,"['带薪年假', '绩效奖金', '年底双薪', '年终分红']"
130,3910262,PHP开发工程师,上海,2018-05-02 11:23:17,12.4,112005,搜股,搜股（北京）科技有限公司,50-150人,静安区,本科,A轮,"金融,移动互联网",121.438449,31.290987,全职,1年以下,"['年底双薪', '股票期权', '带薪年假', '午餐补助']"
131,4282249,PHP开发工程师,北京,2018-05-02 10:40:15,21.0,37319,懒投资,北京大家玩科技有限公司,150-500人,朝阳区,本科,A轮,金融,116.45407501,39.93357605,全职,1-3年,"['年底双薪', '绩效奖金', '岗位晋升', '年度旅游']"
132,2332825,PHP,杭州,2018-05-02 10:35:46,16.8,20337,会搜股份,杭州会搜科技有限公司,150-500人,江干区,本科,上市公司,移动互联网,120.25935043,30.30846019,全职,3-5年,"['技能培训', '节日礼物', '股票期权', '带薪年假']"
133,2529614,PHP开发工程师,上海,2018-05-02 10:00:05,19.0,34863,车轮,上海易点时空网络有限公司,150-500人,闵行区,本科,C轮,移动互联网,121.386173,31.164349,全职,3-5年,"['节日礼物', '股票期权', '年度旅游', '岗位晋升']"
134,2268891,PHP开发工程师,广州,2018-05-02 09:53:34,10.0,55142,数商云,广州市数商云网络科技有限公司,50-150人,海珠区,大专,未融资,"移动互联网,电子商务",113.36899,23.09799,全职,3-5年,"['弹性工作', '扁平管理', '帅哥多', '美女多']"
135,2951139,PHP开发工程师,北京,2018-05-02 16:10:13,14.0,121798,全民共赢,北京全民共赢网络科技有限公司,15-50人,朝阳区,本科,A轮,"移动互联网,企业服务",116.4511,39.962026,全职,1-3年,"['定期体检', '带薪年假', '五险一金', '弹性工作']"
136,3096588,php开发工程师,广州,2018-05-02 09:45:22,21.0,165926,大圣live,海南大圣娱乐有限公司,50-150人,越秀区,大专,不需要融资,"移动互联网,游戏",113.30915,23.13231,全职,3-5年,[]
137,2661412,php开发工程师,上海,2018-05-02 09:27:09,15.2,42318,安畅网络,上海安畅网络科技股份有限公司,150-500人,宝山区,本科,上市公司,"电子商务,数据服务",121.43586301,31.33977088,全职,5-10年,"['年底双薪', '节日礼物', '技能培训', '绩效奖金']"
138,4498047,PHP开发工程师,上海,2018-05-03 09:18:38,11.2,69152,博奥特科技,深圳市博奥特科技有限公司,150-500人,浦东新区,本科,未融资,"移动互联网,金融",121.619985,31.256986,全职,3-5年,"['绩效奖金', '领导好', '帅哥多', '美女多']"
139,3738122,PHP开发工程师,深圳,2018-05-02 19:10:46,17.0,166335,华阅文化,深圳市华阅文化传媒有限公司,50-150人,南山区,本科,A轮,移动互联网,113.944732,22.547608,全职,3-5年,"['专项奖金', '带薪年假', '午餐补助', '定期体检']"
140,3221003,PHP工程师,深圳,2018-05-02 18:27:52,16.0,94109,天天看看,深圳天天看看信息技术有限公司,150-500人,南山区,本科,不需要融资,"移动互联网,文化娱乐",113.919981,22.496842,全职,3-5年,"['年底双薪', '股票期权', '带薪年假', '绩效奖金']"
141,4009430,php工程师,厦门,2018-05-02 15:38:21,4.8,309558,厦门懿鼎信息科技有限公司,厦门懿鼎信息科技有限公司,15-50人,集美区,大专,未融资,移动互联网,118.050652,24.606735,全职,1-3年,"['""""']"
142,4125195,php开发工程师,北京,2018-05-02 14:31:52,21.0,131224,豌豆公主，日本优品一站购,易纳购科技（北京）有限公司,150-500人,朝阳区,本科,C轮,"移动互联网,电子商务",116.456689,40.026796,全职,1-3年,"['带薪年假', '午餐补助', '弹性工作', '五险一金']"
143,4498902,PHP开发工程师,深圳,2018-05-02 12:17:35,28.0,98800,竹间智能科技(上海)有限公司,竹间智能科技（上海）有限公司,150-500人,南山区,本科,B轮,"移动互联网,其他",113.952696,22.530438,全职,5-10年,"['年底双薪', '股票期权', '带薪年假', '绩效奖金']"
144,3611429,PHP研发工程师,广州,2018-05-02 11:36:32,6.2,5726,翼课网,广州摩翼信息科技有限公司,500-2000人,番禺区,本科,不需要融资,"移动互联网 ,教育",113.334871,22.993414,实习,应届毕业生,"['节日礼物', '在线教育', '岗位晋升', '五险一金']"
145,1751904,PHP工程师,杭州,2018-05-02 08:51:03,14.0,124100,星巢网络,杭州星巢网络科技有限公司,50-150人,西湖区,本科,A轮,"游戏,电子商务",120.068725,30.285386,全职,3-5年,"['年底双薪', '股票期权', '包豪华住宿', '带薪年假']"
146,4012391,PHP软件开发工程师,上海,2018-05-02 18:01:41,17.0,38368,北京盛安德,北京盛安德科技发展有限公司,150-500人,黄浦区,本科,不需要融资,"移动互联网,企业服务",121.47014,31.21771986,全职,3-5年,"['年底双薪', '技能培训', '带薪年假', '团队活动']"
147,3928403,PHP,广州,2018-05-02 16:14:15,12.0,296888,东怡源,东怡源科技（广州）有限公司,15-50人,南沙区,大专,未融资,"移动互联网,电子商务",113.539812,22.799813,全职,3-5年,"['""""']"
148,3386440,PHP开发工程师,深圳,2018-05-02 14:14:30,17.8,30456,回收宝,深圳回收宝科技有限公司,150-500人,南山区,本科,B轮,"移动互联网,电子商务",113.949541,22.527549,全职,1-3年,"['股票期权', '城市核心', '岗位晋升', '腾讯系']"
149,4504585,PHP开发工程师,成都,2018-05-02 10:54:20,14.0,42369,ETCP,北京悦畅科技有限公司,500-2000人,金牛区,本科,B轮,移动互联网,104.056611,30.695955,全职,3-5年,"['技能培训', '节日礼物', '绩效奖金', '岗位晋升']"
150,4498018,PHP开发工程师,上海,2018-05-02 18:10:50,11.0,69152,博奥特科技,深圳市博奥特科技有限公司,150-500人,浦东新区,本科,未融资,"移动互联网,金融",121.619985,31.256986,全职,3-5年,"['绩效奖金', '领导好', '帅哥多', '美女多']"
151,3421988,高级PHP开发工程师,广州,2018-05-02 10:03:18,19.0,37990,一手服装批发APP,广州富米科技有限公司,150-500人,荔湾区,本科,A轮,"移动互联网,电子商务",113.217728,23.13091,全职,5-10年,"['节日礼物', '团队靠谱', '活动多多', '社保']"
152,1472572,PHP开发工程师,杭州,2018-05-02 09:32:17,14.0,31154,国鼎股份,国鼎文化科技产业发展股份有限公司,150-500人,西湖区,本科,A轮,"电子商务,金融",120.0703,30.291753,全职,3-5年,"['绩效奖金', '年度旅游', '生日活动', '管理规范']"
153,3553828,PHP开发工程师,上海,2018-05-03 09:17:06,15.2,165397,上海天楹,上海天楹环境科技有限公司,2000人以上,徐汇区,本科,上市公司,"O2O,生活服务",121.400882,31.164099,全职,3-5年,"['弹性工作', '帅哥多', '美女多', '领导好']"
154,3462274,PHP开发工程师,厦门,2018-05-02 18:00:07,10.8,84086,笨鸟社交,厦门笨鸟电子商务有限公司,150-500人,思明区,本科,B轮,企业服务,118.174043,24.48295,全职,3-5年,"['高新企业', '扁平管理', '五险一金', '股票期权']"
155,4425787,PHP开发工程师,北京,2018-05-02 11:14:43,20.8,4828,当当网,北京当当网信息技术有限公司,2000人以上,朝阳区,本科,上市公司,"移动互联网,电子商务",0.0,0.0,全职,3-5年,"['年底双薪', '节日礼物', '技能培训', '绩效奖金']"
156,1528895,PHP开发工程师,北京,2018-05-02 10:23:37,24.8,436,360,奇虎360科技有限公司,2000人以上,朝阳区,本科,上市公司,"移动互联网,游戏",116.49131502,39.96517336,全职,5-10年,[]
157,4177059,PHP开发工程师,广州,2018-05-02 10:04:47,5.8,156247,每日V,广州百帆信息科技有限公司,15-50人,天河区,大专,A轮,移动互联网,113.317184,23.140335,全职,1年以下,"['绩效奖金', '带薪年假', '年终分红', '包餐/餐补']"
158,2153943,PHP开发工程师,广州,2018-05-02 10:00:21,9.4,94933,研游,上海研游网络科技有限公司广州分公司,50-150人,天河区,本科,不需要融资,游戏,113.37645946,23.1275401,全职,3-5年,"['节日礼物', '带薪年假', '五险一金', '弹性工作']"
159,4478920,PHP开发工程师,北京,2018-05-02 09:44:04,12.4,2630,站酷ZCOOL,北京站酷网络科技有限公司,50-150人,朝阳区,本科,B轮,"社交网络,文化娱乐",116.492388,39.976184,全职,1年以下,"['股票期权', '年底双薪', '五险一金', '带薪年假']"
160,2900292,PHP开发,天津,2018-04-27 09:47:27,9.6,36984,谷川联行,谷川联行有限公司,150-500人,西青区,不限,不需要融资,电子商务,117.088306,39.143977,全职,不限,"['年底双薪', '技能培训', '带薪年假', '绩效奖金']"
161,4488841,PHP开发,上海,2018-05-02 18:27:12,16.4,251737,享换机,晋松（上海）网络信息技术有限公司,50-150人,杨浦区,本科,A轮,"移动互联网,金融",121.51243,31.304638,全职,3-5年,"['相互成就', '敢想敢做', '消费场景', '趋势改变习惯']"
162,1124900,PHP,武汉,2018-05-02 17:20:00,5.6,93908,可待科技,武汉市可待科技有限公司,15-50人,洪山区,大专,不需要融资,移动互联网、电子商务,114.35261999,30.52392991,全职,1-3年,"['技能培训', '年底双薪', '专项奖金', '绩效奖金']"
163,4121937,php开发工程师,北京,2018-05-02 14:17:09,21.0,23039,好大夫在线,互动峰科技(北京)有限公司,500-2000人,朝阳区,本科,D轮及以上,医疗健康,116.50986,39.9118,全职,不限,"['五险一金', '带薪年假', '绩效奖金', '专项奖金']"
164,3957117,PHP开发工程师,北京,2018-05-02 11:58:44,14.0,25396,环球漫游,北京环球友邻科技有限公司,500-2000人,朝阳区,大专,不需要融资,移动互联网,116.47493819,40.0109189,全职,3-5年,"['出国产品体验', '岗位晋升', '扁平管理', '管理规范']"
165,1866236,PHP,北京,2018-05-02 10:19:29,29.0,50604,roobo,北京智能管家科技有限公司,150-500人,东城区,本科,B轮,移动互联网,116.433221,39.920718,全职,3-5年,"['年底双薪', '节日礼物', '技能培训', '年度旅游']"
166,3825723,PHP程序员,武汉,2018-05-02 10:10:39,6.2,60763,网创科技,武汉网创工场网络科技有限公司,50-150人,硚口区,大专,天使轮,"移动互联网,企业服务",114.251353,30.572166,全职,不限,"['技能培训', '节日礼物', '绩效奖金', '岗位晋升']"
167,4164177,PHP开发工程师,厦门,2018-05-02 09:06:27,6.2,117696,月轮网络科技有限公司,厦门市月轮网络科技有限公司,少于15人,思明区,大专,未融资,游戏,118.074653,24.462676,全职,1-3年,"['年终分红', '定期体检', '午餐补助', '专项奖金']"
168,3897887,PHP工程师,广州,2018-05-01 13:14:42,9.6,22450,MAKA,深圳格莱珉文化传播有限公司广州分公司,50-150人,海珠区,本科,A轮,"企业服务,移动互联网",113.32377,23.09642,全职,1-3年,"['牛人云集', '年底双薪', '技能培训', '定期体检']"
169,4506279,php开发工程师（20k-40K）,北京,2018-05-02 14:31:57,28.0,23039,好大夫在线,互动峰科技(北京)有限公司,500-2000人,朝阳区,本科,D轮及以上,医疗健康,116.50929,39.912321,全职,不限,"['五险一金', '带薪年假', '绩效奖金', '专项奖金']"
170,3968644,PHP工程师,杭州,2018-05-02 12:34:20,19.0,63847,垂衣,杭州垂衣网络科技有限公司,50-150人,滨江区,本科,A轮,"电子商务,数据服务",120.18125,30.185411,全职,3-5年,"['混日子的别来', '创始人特残忍', '干活干得酸爽']"
171,4483242,PHP开发工程师,深圳,2018-05-02 10:49:10,12.0,7182,尚德机构,北京尚德在线教育科技有限公司,2000人以上,龙岗区,本科,上市公司,教育,0.0,0.0,全职,1-3年,"['绩效奖金', '专项奖金', '五险一金', '带薪年假']"
172,4192046,PHP中级,北京,2018-05-02 10:00:09,19.0,250169,递名片,北京微名天下科技有限公司,少于15人,朝阳区,本科,天使轮,移动互联网,116.469892,39.934345,全职,3-5年,"['商务社交', '移动互联网', '微信小程序']"
173,2828569,初级php开发工程师,北京,2018-05-02 09:59:53,12.4,14745,以太创服,艾普拉斯投资顾问（北京）有限公司,150-500人,朝阳区,本科,B轮,金融,116.47045,39.91139,全职,不限,"['绩效奖金', '股票期权', '投资机会', '其他公司股票']"
174,3880196,PHP,上海,2018-05-02 09:13:21,14.0,243708,木子木网络,昆山木子木网络科技有限公司,15-50人,嘉定区,大专,未融资,游戏,121.227007,31.273282,全职,3-5年,[]
175,995122,PHP开发工程师,厦门,2018-04-24 17:52:17,14.0,19281,欢乐逛,厦门欢乐逛科技股份有限公司,150-500人,思明区,不限,上市公司,"电子商务,企业服务",118.197023,24.48832,全职,不限,"['免费班车', '股票期权', '绩效奖金', '岗位晋升']"
176,3986259,PHP开发工程师,北京,2018-04-23 18:26:56,19.0,1337,北京智慧图,北京智慧图科技有限责任公司,150-500人,海淀区,不限,C轮,"移动互联网,数据服务",116.351596,39.977242,全职,3-5年,"['股票期权', '绩效奖金', '岗位晋升', '扁平管理']"
177,4182148,PHP开发工程师,广州,2018-05-03 09:21:40,4.8,257650,广州玖维信息科技有限公司,广州玖维信息科技有限公司,150-500人,天河区,大专,上市公司,"移动互联网,数据服务",113.328218,23.133454,全职,1年以下,"['年底双薪', '专项奖金', '年终分红', '带薪年假']"
178,4507381,PHP开发工程师（茂名）,茂名,2018-05-02 15:57:58,6.2,141291,广州趣米网络,广州趣米网络科技有限公司,50-150人,茂南区,大专,天使轮,"移动互联网,企业服务",110.942865,21.659523,全职,1-3年,"['带薪年假', '通讯津贴', '弹性工作', '年度旅游']"
179,4361058,PHP开发工程师,深圳,2018-05-02 09:41:21,10.8,17987,乐唯科技,深圳市乐唯科技开发有限公司,50-150人,南山区,本科,不需要融资,移动互联网,113.939324,22.524457,全职,1-3年,"['技能培训', '节日礼物', '股票期权', '带薪年假']"
180,4478193,PHP开发工程师,北京,2018-05-02 14:56:21,19.0,23039,好大夫在线,互动峰科技(北京)有限公司,500-2000人,朝阳区,本科,D轮及以上,医疗健康,116.50929,39.912321,全职,1-3年,"['五险一金', '带薪年假', '绩效奖金', '专项奖金']"
181,3738278,PHP工程师,北京,2018-04-25 13:19:28,10.8,75990,北京彬彬有礼网络科技有限公司,北京彬彬有礼网络科技有限公司,50-150人,东城区,本科,B轮,"移动互联网,电子商务",116.418,39.93275,全职,1-3年,"['年底双薪', '股票期权', '专项奖金', '带薪年假']"
182,4444269,PHP软件工程师,深圳,2018-05-03 09:34:33,8.8,137283,益百分,深圳市益百分生物科技有限公司,15-50人,南山区,大专,不需要融资,"移动互联网,电子商务",113.94339,22.54935,全职,1-3年,"['年底双薪', '绩效奖金', '定期体检', '技能培训']"
183,4468060,PHP开发工程师,深圳,2018-05-02 18:12:42,9.0,103271,白熊事务所,深圳找份工作科技有限公司,15-50人,南山区,本科,天使轮,"移动互联网,招聘",113.957553,22.538258,全职,1-3年,"['年底双薪', '带薪年假', '扁平管理', '领导好']"
184,2595312,PHP开发,上海,2018-05-02 14:09:45,19.0,7872,上海米哈游,上海米哈游网络科技股份有限公司,150-500人,徐汇区,不限,不需要融资,"移动互联网,游戏",120.993464,30.994061,全职,3-5年,"['技术宅团队', '发展空间大', '简单有爱文化', '弹性工作制']"
185,559951,PhP工程师,深圳,2018-05-02 11:25:33,12.0,3826,土拨鼠,浙江土拨鼠网络科技有限公司,150-500人,宝安区,大专,A轮,"移动互联网,电子商务",113.866041,22.575673,全职,1-3年,"['技能培训', '节日礼物', '绩效奖金', '岗位晋升']"
186,4344458,PHP开发工程师,深圳,2018-05-02 11:24:23,11.2,144343,轻松到家,深圳市轻松到家科技股份有限公司,50-150人,南山区,大专,B轮,O2O,113.93878,22.524665,全职,1-3年,"['弹性工作', '五险一金', '季度奖金', '股票期权']"
187,4107136,资深PHP工程师-360security,北京,2018-05-02 10:18:30,28.0,73876,摩比神奇,摩比神奇（北京）信息技术有限公司,150-500人,东城区,本科,不需要融资,移动互联网,115.99339,39.99426,全职,5-10年,"['技能培训', '节日礼物', '年底双薪', '带薪年假']"
188,3366526,PHP,北京,2018-04-30 22:49:10,19.0,83363,乐惠,乐惠（北京）科技有限公司,150-500人,海淀区,本科,A轮,"移动互联网,电子商务",116.352458,40.011683,全职,3-5年,"['扁平管理', '五险一金', '股票期权', '带薪年假']"
189,3231443,PHP开发工程师,深圳,2018-04-30 17:47:48,19.0,202265,上海提捺信息科技有限公司,上海提捺信息科技有限公司,500-2000人,宝安区,大专,不需要融资,"社交网络,游戏",113.861804,22.589406,全职,3-5年,[]
190,4261559,php工程师,中山,2018-05-03 09:25:43,7.6,333312,亿天教育,深圳亿天创想教育有限公司,少于15人,中山市市辖区,大专,未融资,移动互联网 教育,113.384612,22.511353,全职,1-3年,"['""""']"
191,3767897,PHP研发工程师,北京,2018-05-02 18:12:20,21.0,82991,数美,北京数美时代科技有限公司,150-500人,朝阳区,本科,B轮,"企业服务,数据服务",116.465953,40.021083,全职,1-3年,"['年底双薪', '大数据', '带薪年假', '通讯津贴']"
192,3562603,PHP开发工程师,深圳,2018-05-02 17:24:35,9.6,110722,编玩边学,深圳市编玩边学教育科技有限公司,50-150人,南山区,本科,B轮,"教育,游戏",113.986923,22.54772,全职,1-3年,"['专项奖金', '股票期权', '绩效奖金', '午餐补助']"
193,4247393,PHP工程师,北京,2018-05-02 11:19:13,21.0,36162,作业盒子,北京作业盒子科技有限公司,500-2000人,朝阳区,本科,C轮,"移动互联网,教育",116.48117,39.996968,全职,3-5年,"['技能培训', '年底双薪', '节日礼物', '年度旅游']"
194,4059454,PHP开发工程师J11397,北京,2018-05-02 10:22:13,15.2,2696,G7,北京汇通天下物联科技有限公司,500-2000人,海淀区,本科,C轮,"移动互联网,数据服务",116.312015,40.02644,全职,3-5年,"['节日礼物', '技能培训', '专项奖金', '绩效奖金']"
195,3231481,PHP开发工程师,深圳,2018-04-30 17:47:48,19.0,202265,上海提捺信息科技有限公司,上海提捺信息科技有限公司,500-2000人,宝安区,大专,不需要融资,"社交网络,游戏",113.861804,22.589406,全职,3-5年,[]
196,4162535,PHP开发工程师,深圳,2018-05-02 09:58:06,14.0,1081,爱豆子,深圳玖昔科技发展股份有限公司,50-150人,南山区,本科,B轮,"移动互联网,电子商务",113.94354,22.548259,全职,1-3年,"['全员专项奖金', '绩效奖金', '岗位晋升', '扁平管理']"
197,2820260,PHP,北京,2018-05-02 09:48:46,31.0,4286,竞技世界,竞技世界（北京）网络技术有限公司,500-2000人,海淀区,本科,不需要融资,"移动互联网,游戏",116.312028,40.03723,全职,不限,"['节日礼物', '技能培训', '年底双薪', '年度旅游']"
198,4480959,PHP开发工程师,北京,2018-04-27 10:57:53,24.0,129,陌陌,北京陌陌科技有限公司,500-2000人,朝阳区,本科,上市公司,社交网络,115.99339,39.99426,全职,3-5年,"['岗位晋升', '帅哥多', '管理规范', '技能培训']"
199,3289772,PHP开发工程师,北京,2018-05-03 09:19:56,19.0,100241,阿里体育,阿里体育（上海）有限公司,150-500人,海淀区,本科,A轮,"文化娱乐,其他",116.312183,39.981536,全职,3-5年,"['股票期权', '岗位晋升', '领导好', '美女多']"
200,4313465,PHP研发工程师,北京,2018-05-02 15:57:36,21.0,12121,盛世辉智控,北京盛世辉科技有限公司,15-50人,海淀区,本科,天使轮,"移动互联网,数据服务",0.0,0.0,全职,3-5年,"['五险一金', '定期体检', '弹性工作', '领导好']"
201,3460158,PHP工程师,广州,2018-05-02 15:17:14,7.2,242168,网律科技,广州网律互联网科技有限公司,150-500人,天河区,大专,未融资,其他,,,全职,1-3年,[]
202,3994946,PHP 工程师,北京,2018-05-02 10:45:31,21.0,34573,省钱快报,北京九州云动科技有限公司,50-150人,东城区,本科,B轮,"移动互联网,电子商务",116.412378,39.947232,全职,1-3年,"['技能培训', '专项奖金', '带薪年假', '绩效奖金']"
203,4334631,技术负责人（PHP）,西安,2018-05-02 10:13:35,26.0,20955,Yeahmobi,西安点告网络科技有限公司,150-500人,雁塔区,本科,上市公司,移动互联网,108.837196,34.210026,全职,5-10年,"['节日礼物', '技能培训', '绩效奖金', '年度旅游']"
204,4467368,PHP工程师,重庆,2018-05-02 10:10:11,6.6,175599,极客修,重庆天极云服科技有限公司,150-500人,渝北区,本科,A轮,"移动互联网,电子商务",106.511855,29.61167,全职,1-3年,"['股票期权', '绩效奖金', '定期体检', '弹性工作']"
205,2498756,PHP研发工程师,北京,2018-05-02 09:49:04,12.4,5726,翼课网,广州摩翼信息科技有限公司,500-2000人,,本科,不需要融资,"移动互联网 ,教育",116.54024738,39.76564171,全职,1-3年,"['节日礼物', '在线教育', '岗位晋升', '五险一金']"
206,4153253,PHP开发工程师,杭州,2018-05-02 09:09:33,15.2,14407,中财招商投资集团有限公司,中财招商投资集团有限公司,2000人以上,滨江区,本科,不需要融资,金融,120.214259,30.209533,全职,3-5年,"['五险一金', '岗位晋升', '节日礼物', '管理规范']"
207,2270610,PHP,广州,2018-05-01 13:14:41,16.4,22450,MAKA,深圳格莱珉文化传播有限公司广州分公司,50-150人,海珠区,本科,A轮,"企业服务,移动互联网",113.323844,23.096432,全职,1-3年,"['牛人云集', '年底双薪', '技能培训', '定期体检']"
208,4287674,php研发工程师,北京,2018-04-25 11:18:45,21.0,23039,好大夫在线,互动峰科技(北京)有限公司,500-2000人,朝阳区,本科,D轮及以上,医疗健康,116.50929,39.912321,全职,1-3年,"['五险一金', '带薪年假', '绩效奖金', '专项奖金']"
209,4509993,PHP开发工程师,郑州,2018-05-03 09:07:11,15.2,376932,深蓝汽贸,河南深蓝新能源汽车销售有限公司,50-150人,郑东新区,本科,不需要融资,"电子商务,数据服务",113.809344,34.741117,全职,3-5年,"['""""']"
210,2077837,php工程师,北京,2018-05-02 20:00:27,16.6,123763,斗米,北京斗米优聘科技发展有限公司,500-2000人,海淀区,大专,B轮,"移动互联网,O2O",116.28609057,40.0459791,全职,1-3年,"['股票期权', '扁平管理', '管理规范', '技能培训']"
211,4348744,PHP开发工程师,深圳,2018-05-02 11:24:23,11.2,144343,轻松到家,深圳市轻松到家科技股份有限公司,50-150人,南山区,本科,B轮,O2O,113.938721,22.524652,全职,不限,"['弹性工作', '五险一金', '季度奖金', '股票期权']"
212,1522930,PHP,广州,2018-05-02 10:34:43,14.0,109597,Offerslook,广州逸趣信息科技有限公司,50-150人,天河区,大专,天使轮,"移动互联网,广告营销",113.358134,23.127655,全职,3-5年,"['绩效奖金', '股票期权', '通讯津贴', '定期体检']"
213,2078035,PHP工程师,深圳,2018-05-02 09:57:30,19.0,43807,智美达,深圳市智美达科技股份有限公司,500-2000人,南山区,本科,C轮,移动互联网,113.993578,22.99368,全职,3-5年,"['节日礼物', '技能培训', '专项奖金', '股票期权']"
214,4474775,PHP工程师,深圳,2018-05-02 09:29:25,15.6,17275,数睿科技,数睿科技（深圳）有限公司,150-500人,福田区,大专,上市公司,"移动互联网,电子商务",114.061417,22.570743,全职,3-5年,"['年底双薪', '绩效奖金', '股票期权', '五险一金']"
215,4373659,资深PHP工程师,宁波,2018-05-03 09:39:14,22.8,78225,草料二维码,宁波邻家网络科技有限公司,50-150人,海曙区,本科,未融资,"移动互联网,其他",121.533292,29.8798,全职,1-3年,"['带薪年假', '扁平管理', '年底双薪', '五险一金']"
216,4432641,PHP开发工程师,广州,2018-05-03 09:19:58,7.0,366517,广州迈峰网络科技有限公司,广州迈峰网络科技有限公司,15-50人,天河区,本科,不需要融资,"移动互联网,硬件",113.37682,23.132501,全职,1-3年,"['""""']"
217,4396619,PHP开发工程师,上海,2018-05-02 14:59:07,19.0,29929,斐讯通信,上海斐讯数据通信技术有限公司,2000人以上,松江区,本科,未融资,"数据服务,硬件",121.158217,31.022781,全职,3-5年,"['免费班车', '带薪年假', '行业黑马', '绩效奖金']"
218,113349,PHP开发工程师,广州,2018-05-02 12:01:50,8.4,4474,酒咔嚓,佛山市咔嚓购信息技术有限公司,15-50人,越秀区,大专,A轮,"移动互联网,生活服务",113.29908,23.14020001,全职,1-3年,"['五险一金', '股票期权', '带薪年假', '弹性工作']"
219,4491366,PHP开发工程师,杭州,2018-05-02 10:14:33,7.2,81377,潘朵,杭州潘朵信息科技有限公司,500-2000人,滨江区,大专,不需要融资,电子商务,0.0,0.0,全职,1-3年,"['节日礼物', '带薪年假', '绩效奖金', '年度旅游']"
220,4488696,PHP开发工程师,贵阳,2018-05-02 09:08:00,9.6,303846,多彩贵州印象网络传媒股份有限公司,多彩贵州印象网络传媒股份有限公司,150-500人,南明区,本科,未融资,"移动互联网,数据服务",106.714694,26.572599,全职,3-5年,"['年底双薪', '专项奖金', '交通补助', '通讯津贴']"
221,1618077,PHP 研发工程师,北京,2018-05-01 16:08:06,17.0,50886,侃家,北京侃家科技有限公司,500-2000人,朝阳区,大专,B轮,O2O,,,全职,1-3年,"['节日礼物', '技能培训', '绩效奖金', '年度旅游']"
222,4118740,PHP开发工程师,杭州,2018-05-01 11:44:25,19.6,57350,微拍堂,杭州微拍堂文化创意有限公司,150-500人,西湖区,大专,A轮,移动互联网,120.12658,30.2784,全职,3-5年,"['岗位晋升', '年度旅游', '年底双薪', '午餐补助']"
223,4323712,PHP开发工程师,南京,2018-04-26 14:01:08,11.2,14093,瞬联软件科技（北京）有限公司,瞬联软件科技（北京）有限公司,500-2000人,建邺区,本科,不需要融资,"移动互联网 ,企业服务",118.723645,32.001628,全职,1-3年,"['高薪', '节日礼物', '弹性工作', '带薪年假']"
224,2808037,PHP开发工程师,上海,2018-05-03 09:32:19,19.0,83808,汇付,上海汇付数据服务有限公司,500-2000人,徐汇区,本科,C轮,"移动互联网,金融",121.417706,31.175262,全职,1-3年,"['年底双薪', '带薪年假', '绩效奖金', '年度旅游']"
225,4316412,php开发工程师,西安,2018-05-03 09:24:36,6.2,148667,西淘信息,西安西淘信息技术有限公司,15-50人,国际港务区,大专,未融资,"电子商务,生活服务",0.0,0.0,全职,3-5年,"['专项奖金', '年终分红', '交通补助', '员工旅游']"
226,3869183,PHP开发工程师,成都,2018-05-02 17:45:17,12.0,25709,极米科技,成都市极米科技有限公司,500-2000人,高新区,本科,C轮,"电子商务,硬件",104.070252,30.547747,全职,3-5年,"['五险一金', '带薪年假', '股票期权', '定期体检']"
227,4300696,PHP研发工程师,北京,2018-05-02 11:24:47,19.0,27129,巧达数据,巧达科技（北京）有限公司,50-150人,海淀区,本科,B轮,"企业服务,数据服务",116.311797,39.983663,全职,3-5年,"['工作居住证', '股票期权', '五险一金', '弹性工作']"
228,3773824,PHP,上海,2018-05-02 11:21:12,21.0,67235,小站教育,上海业霆网络科技有限公司,500-2000人,静安区,大专,C轮,"移动互联网,教育",121.440983,31.228478,全职,3-5年,"['专项奖金', '股票期权', '弹性工作', '年度旅游']"
229,3127153,PHP工程师,北京,2018-05-02 10:10:28,14.0,42833,大特保,大特保商务信息咨询（上海）有限公司,50-150人,朝阳区,本科,B轮,金融,116.476266,39.986009,全职,1-3年,"['带薪年假', '扁平管理', '五险一金', '股票期权']"
230,2622353,PHP工程师,杭州,2018-05-02 09:18:54,11.4,53200,掌维科技,杭州掌维科技有限公司,50-150人,滨江区,本科,未融资,"移动互联网,文化娱乐",120.15284502,30.17946284,全职,1-3年,"['节日礼物', '绩效奖金', '岗位晋升', '年度旅游']"
231,3944482,PHP工程师,苏州,2018-05-02 09:13:21,14.0,243708,木子木网络,昆山木子木网络科技有限公司,15-50人,昆山市,大专,未融资,游戏,121.148172,31.288881,全职,3-5年,[]
232,3950527,PHP开发工程师,广州,2018-05-02 09:08:09,12.0,302532,集客网络,广州集客网络科技有限公司,50-150人,白云区,本科,不需要融资,移动互联网,113.265078,23.205787,全职,3-5年,"['年底双薪', '股票期权', '年终分红', '带薪年假']"
233,2375553,PHP研发工程师,北京,2018-04-28 10:09:01,19.0,2098,掌阅,掌阅科技股份有限公司,500-2000人,朝阳区,本科,上市公司,移动互联网,116.514211,39.905841,全职,3-5年,"['专项奖金', '带薪年假', '年度旅游', '扁平管理']"
234,3061193,PHP开发工程师,杭州,2018-04-27 15:49:03,21.0,78386,一周CP,杭州晓宇科技有限公司,15-50人,西湖区,本科,A轮,"移动互联网,社交网络",120.124444,30.277356,全职,1-3年,"['技能培训', '股票期权', '专项奖金', '带薪年假']"
235,4509257,PHP开发工程师,北京,2018-05-02 18:56:36,21.0,148909,360企业安全,北京奇安信科技有限公司,2000人以上,朝阳区,本科,不需要融资,"电子商务,企业服务",116.474432,40.018438,全职,5-10年,"['年底双薪', '带薪年假', '午餐补助', '定期体检']"
236,4020710,PHP工程师,上海,2018-05-02 15:56:46,17.0,280444,火理财,上海潇谦互联网金融信息服务有限公司,150-500人,浦东新区,大专,B轮,"金融,移动互联网",121.57275,31.149826,全职,3-5年,[]
237,3413518,PHP工程师,北京,2018-05-02 15:40:55,19.0,740,时趣social-touch,时趣互动（北京）科技有限公司,500-2000人,朝阳区,本科,D轮及以上,移动互联网,116.492604,39.900132,全职,1-3年,"['弹性工作', '年终奖金', '个性福利', '带薪年假']"
238,4445737,PHP开发工程师,广州,2018-05-02 15:38:10,12.0,132056,小妖传媒,广州小妖传媒有限公司,15-50人,天河区,大专,未融资,"移动互联网,社交网络",113.369272,23.112412,全职,1-3年,"['绩效奖金', '工作时间弹性', '环境高大上', '社保齐全']"
239,4431056,中级PHP开发工程师,广州,2018-05-02 14:03:15,7.6,64666,索菲亚家居,索菲亚家居股份有限公司,2000人以上,天河区,大专,上市公司,硬件,113.329393,23.132064,全职,3-5年,"['节日礼物', '技能培训', '绩效奖金', '年度旅游']"
240,4484993,php高级工程师,北京,2018-05-02 11:30:26,24.0,19385,中国婚博会,北京金海群英网络信息技术有限公司,500-2000人,海淀区,本科,不需要融资,O2O,116.3532,40.015881,全职,3-5年,"['技能培训', '岗位晋升', '管理规范', '帅哥多']"
241,2316063,PHP,深圳,2018-05-02 10:46:16,13.2,29231,新华云帆,深圳市新华云帆科技有限公司,150-500人,南山区,大专,B轮,数据服务,113.952443,22.534929,全职,3-5年,"['年底双薪', '节日礼物', '春节16天假', '带薪年假']"
242,3968005,PHP开发工程师,大连,2018-05-02 10:17:08,14.0,142626,CLPS,上海华钦信息科技股份有限公司,500-2000人,高新园区,本科,未融资,"数据服务,金融",121.51373,38.847258,全职,3-5年,"['专项奖金', '带薪年假', '定期体检', '交通补助']"
243,4006364,PHP中级工程师,北京,2018-05-02 09:59:54,14.0,14745,以太创服,艾普拉斯投资顾问（北京）有限公司,150-500人,朝阳区,本科,B轮,金融,116.471469,39.910169,全职,1-3年,"['绩效奖金', '股票期权', '投资机会', '其他公司股票']"
244,4028002,PHP高级工程师,上海,2018-05-02 09:55:37,19.0,14983,游族网络,上海游族信息技术有限公司,500-2000人,徐汇区,本科,上市公司,"移动互联网,游戏",39.897445,116.331398,全职,1-3年,"['五险一金', '岗位晋升', '弹性工作', '扁平管理']"
245,3470268,PHP研发工程师,南京,2018-05-02 09:25:36,18.2,31945,孩子王,孩子王儿童用品股份有限公司,2000人以上,江宁区,本科,上市公司,生活服务,118.88908,32.010019,全职,3-5年,"['节日礼物', '技能培训', '年度旅游', '岗位晋升']"
246,2142731,PHP工程师,北京,2018-05-03 09:12:44,14.0,3234,孔夫子旧书网,北京古城堡图书有限公司,50-150人,朝阳区,本科,未融资,电子商务,116.4932155,40.03811671,全职,1-3年,"['节日礼物', '水果敞开吃', '领导好', '美女多']"
247,3812779,资深PHP开发工程师,上海,2018-05-02 18:27:13,20.8,251737,享换机,晋松（上海）网络信息技术有限公司,50-150人,杨浦区,本科,A轮,"移动互联网,金融",121.513693,31.307861,全职,5-10年,"['相互成就', '敢想敢做', '消费场景', '趋势改变习惯']"
248,4036894,PHP工程师,郑州,2018-05-02 18:22:57,8.2,116333,象聚集团,河南象聚实业有限公司,500-2000人,高新区,大专,不需要融资,"移动互联网,金融",113.566392,34.817257,全职,3-5年,"['定期体检', '派对旅游', '六险一金', '绩效奖金']"
249,4024700,PHP高级开发工程师,上海,2018-05-02 18:18:01,21.0,145257,蚂蚁HR,上海蚁众企业管理咨询有限公司,150-500人,徐汇区,本科,A轮,企业服务,121.42771,31.18259,全职,3-5年,"['年底双薪', '股票期权', '带薪年假', '弹性工作']"
250,4508871,php开发,杭州,2018-05-02 18:03:40,9.8,377046,邦邦师傅,杭州大旭邦装饰有限公司,50-150人,下沙,不限,不需要融资,其他,120.372877,30.271989,全职,1-3年,"['""""']"
251,1445319,PHP,西安,2018-05-02 16:36:58,9.0,113698,秦学教育集团,陕西伊顿文化发展有限公司,500-2000人,雁塔区,大专,A轮,"教育,O2O",,,全职,3-5年,[]
252,382619,PHP,盐城,2018-05-02 11:57:22,4.8,43431,美创网络,盐城美创网络科技有限公司,15-50人,盐都区,大专,未融资,电子商务,120.181236,33.306912,全职,1-3年,"['带薪年假', '绩效奖金', '扁平管理', '午餐补助']"
253,4121190,PHP,北京,2018-05-02 10:06:49,28.0,172285,猎户星空,北京猎户星空科技有限公司,150-500人,朝阳区,不限,A轮,"移动互联网,硬件",116.458741,39.932851,全职,5-10年,"['年度旅游', '弹性工作', '领导好', '五险一金']"
254,4335442,高级PHP研发工程师,杭州,2018-05-02 08:29:11,25.2,57350,微拍堂,杭州微拍堂文化创意有限公司,150-500人,西湖区,大专,A轮,移动互联网,120.12658,30.2784,全职,5-10年,"['岗位晋升', '年度旅游', '年底双薪', '午餐补助']"
255,4276069,PHP程序员,广州,2018-05-03 09:10:26,7.6,281289,泰商服,广州市泰商服信息科技有限公司,15-50人,番禺区,本科,不需要融资,"移动互联网,企业服务",113.364917,23.017308,全职,1-3年,"['绩效奖金', '年度旅游', '领导好', '五险一金']"
256,4489247,微信开发工程师java/php,大连,2018-05-03 09:00:21,8.8,135169,饭饭1080&deg;直采平台,大连饭饭网络科技股份有限公司,500-2000人,沙河口区,大专,不需要融资,"电子商务,移动互联网",121.596796,38.916318,全职,3-5年,[]
257,3238901,PHP开发工程师,广州,2018-05-02 18:11:22,9.8,213391,腾讯汽车区域运营中心,东莞顺为广告有限公司,150-500人,天河区,本科,未融资,"广告营销,移动互联网",113.316018,23.12668,全职,1-3年,"['腾讯平台', '年轻团队', '五险一金', '气氛活跃']"
258,3920715,PHP,广州,2018-05-02 16:14:15,12.0,296888,东怡源,东怡源科技（广州）有限公司,15-50人,南沙区,大专,未融资,"移动互联网,电子商务",113.539812,22.799813,全职,3-5年,"['""""']"
259,3528556,PHP开发工程师,南昌,2018-05-02 15:36:51,9.8,191672,中环地产,南昌中环互联信息服务股份有限公司,2000人以上,新建县,大专,上市公司,其他,115.864243,28.687141,全职,5-10年,[]
260,4401181,PHP研发工程师,北京,2018-05-02 13:31:07,21.0,114110,乐视,乐视网信息技术（北京）股份有限公司,2000人以上,朝阳区,本科,上市公司,移动互联网,116.492605,39.934758,全职,3-5年,"['股票期权', '交通补助', '通讯津贴', '带薪年假']"
261,2214279,PHP开发工程师,北京,2018-05-02 13:21:18,19.0,30608,真融宝,北京快快网络技术有限公司,150-500人,海淀区,本科,B轮,金融,115.99339,39.99426,全职,3-5年,"['员工福利丰富', '高薪期权', '热门行业', '免费工作餐']"
262,2990714,PHP开发工程师,上海,2018-05-02 10:34:27,14.0,22897,信用飞/首付游,上海晓途网络科技有限公司,50-150人,徐汇区,本科,B轮,移动互联网,121.410383,31.171398,全职,1-3年,"['节日礼物', '带薪年假', '岗位晋升', '年度旅游']"
263,3945129,PHP研发工程师,北京,2018-05-02 09:44:38,19.0,282767,锐动寰宇,北京锐动寰宇科技有限公司,50-150人,西城区,本科,不需要融资,"电子商务,数据服务",116.356686,39.936408,全职,3-5年,"['午餐补助', '带薪年假', '弹性工作', '岗位晋升']"
264,4347453,PHP工程师,北京,2018-05-02 09:37:08,14.4,73666,开天创世,北京开天创世科技有限公司,150-500人,朝阳区,本科,D轮及以上,"移动互联网,游戏",116.471587,40.011925,全职,3-5年,"['技能培训', '节日礼物', '专项奖金', '带薪年假']"
265,4098662,PHP开发工程师,武汉,2018-04-28 13:58:51,12.6,33790,深瞐科技,北京深瞐科技有限公司,50-150人,东湖新技术开发区,本科,B轮,信息安全、数据服务,114.40964,30.456048,全职,1-3年,"['技能培训', '岗位晋升', '管理规范', '定期体检']"
266,1644039,PHP开发工程师,广州,2018-04-28 09:39:41,10.8,37398,亚美,广州亚美信息科技有限公司,150-500人,天河区,本科,不需要融资,移动互联网,113.34714693,23.14401248,全职,1-3年,"['节日礼物', '技能培训', '年度旅游', '岗位晋升']"
267,3016111,PHP工程师,海口,2018-04-20 18:09:49,7.0,40852,齐数科技（上海）有限公司,齐数科技（上海）有限公司,50-150人,秀英区,大专,未融资,"移动互联网,文化娱乐",110.40186,20.026117,全职,1-3年,"['午餐补助', '定期体检', '节日礼物', '出国旅游']"
268,4293751,PHP开发工程师,上海,2018-04-20 17:53:09,17.0,142324,旭胜金融信息服务股份有限公司,上海旭胜金融信息服务股份有限公司,150-500人,浦东新区,大专,B轮,金融,121.605158,31.299846,全职,3-5年,"['绩效奖金', '定期体检', '带薪年假', '领导好']"
269,3467128,PHP开发工程师,杭州,2018-04-12 08:59:59,14.0,26248,丁香园,观澜网络（杭州）有限公司,500-2000人,滨江区,不限,D轮及以上,"医疗健康,企业服务",0.0,0.0,全职,1-3年,"['扁平管理', '弹性工作', '期权']"
270,4279972,php开发工程师(东莞),东莞,2018-05-03 09:20:11,6.2,65521,泽林信息,深圳市泽林信息咨询有限公司,500-2000人,东莞市市辖区,大专,不需要融资,教育,113.739182,23.025818,全职,1-3年,"['节日礼物', '技能培训', '绩效奖金', '年度旅游']"
271,4184946,PHP工程师,广州,2018-05-03 08:23:27,3.8,257650,广州玖维信息科技有限公司,广州玖维信息科技有限公司,150-500人,海珠区,大专,上市公司,"移动互联网,数据服务",113.322983,23.096894,全职,1年以下,"['年底双薪', '专项奖金', '年终分红', '带薪年假']"
272,4509101,PHP程序员,济南,2018-05-02 18:32:05,8.4,376198,臣尚网络科技,济南臣尚网络科技有限公司,15-50人,市中区,不限,不需要融资,移动互联网,116.992721,36.667169,全职,1-3年,"['年底双薪', '股票期权', '专项奖金', '年终分红']"
273,4030770,PHP开发工程师,北京,2018-05-02 15:17:15,19.0,104996,厨品秀,北京厨品秀网络科技有限公司,50-150人,朝阳区,本科,天使轮,"移动互联网,生活服务",0.0,0.0,全职,3-5年,"['年底双薪', '节日礼物', '股票期权', '扁平管理']"
274,4335169,PHP开发工程师,南京,2018-05-02 13:41:10,8.8,120477,南京创网,南京创网网络技术有限公司,50-150人,雨花台区,本科,不需要融资,"移动互联网,数据服务",118.75318,31.97578,全职,1-3年,"['带薪年假', '定期体检', '弹性工作', '扁平管理']"
275,3390770,PHP中级工程师,武汉,2018-05-02 11:15:34,12.0,111175,ZingFront智线,智线云科技（北京）有限公司,50-150人,洪山区,本科,A轮,"移动互联网,数据服务",0.0,0.0,全职,3-5年,"['绩效奖金', '股票期权', '带薪年假', '弹性工作']"
276,3944469,PHP工程师,上海,2018-05-02 09:13:21,14.0,243708,木子木网络,昆山木子木网络科技有限公司,15-50人,嘉定区,大专,未融资,游戏,121.227007,31.273282,全职,3-5年,[]
277,4501008,PHP开发工程师,广州,2018-04-28 17:16:22,9.6,342256,泽谦网络,广州泽谦网络科技有限公司,15-50人,天河区,本科,不需要融资,移动互联网,113.319864,23.126859,全职,3-5年,"['""""']"
278,4327493,php开发工程师,武汉,2018-04-27 09:47:27,7.2,36984,谷川联行,谷川联行有限公司,150-500人,江岸区,本科,不需要融资,电子商务,114.309866,30.609505,全职,1-3年,"['年底双薪', '技能培训', '带薪年假', '绩效奖金']"
279,3111755,PHP工程师,深圳,2018-05-03 09:24:06,15.2,202953,睿智科技,深圳睿智信息科技有限公司,15-50人,宝安区,大专,不需要融资,金融,114.059404,22.571625,全职,3-5年,"['绩效奖金', '专项奖金', '岗位晋升', '五险一金']"
280,4509392,php开发工程师,深圳,2018-05-02 19:27:44,8.2,375424,深圳匠鑫智能,深圳匠鑫智能网络科技有限公司,15-50人,南山区,本科,A轮,移动互联网,113.914678,22.514453,全职,1-3年,"['""""']"
281,4357848,PHP开发,杭州,2018-05-02 18:46:21,19.0,152584,空岛,杭州空岛科技有限公司,15-50人,余杭区,大专,不需要融资,"移动互联网,企业服务",119.996181,30.275849,全职,3-5年,"['股票期权', '年终分红', '带薪年假', '弹性工作']"
282,3264426,PHP工程师,东莞,2018-05-02 18:11:21,9.8,213391,腾讯汽车区域运营中心,东莞顺为广告有限公司,150-500人,东莞市市辖区,本科,未融资,"广告营销,移动互联网",0.0,0.0,全职,1-3年,"['腾讯平台', '年轻团队', '五险一金', '气氛活跃']"
283,3552290,PHP,上海,2018-05-02 17:00:43,23.4,80771,乐天创研,乐天创研（北京）科技有限公司,2000人以上,普陀区,本科,上市公司,"电子商务,旅游",121.44435,31.24364,全职,5-10年,"['技能培训', '节日礼物', '带薪年假', '绩效奖金']"
284,4507592,PHP开发工程师,西安,2018-05-02 16:16:00,9.0,145770,种子科技,西安种子信息科技有限公司,15-50人,高新技术产业开发区,大专,天使轮,移动互联网,108.875902,34.230343,全职,3-5年,"['管理规范', '领导好', '扁平管理', '弹性工作']"
285,4430274,php开发工程师,北京,2018-05-02 14:17:09,25.2,23039,好大夫在线,互动峰科技(北京)有限公司,500-2000人,朝阳区,本科,D轮及以上,医疗健康,116.50929,39.912321,全职,不限,"['五险一金', '带薪年假', '绩效奖金', '专项奖金']"
286,4506013,php开发工程师,天津,2018-05-02 14:05:04,6.4,376671,瑞创云端,天津瑞创云网科技有限公司,50-150人,和平区,本科,天使轮,金融,117.191278,39.129097,全职,3-5年,"['""""']"
287,4354662,PHP开发工程师,上海,2018-05-02 11:49:37,25.2,202104,趣头条,上海基分文化传播有限公司,500-2000人,浦东新区,大专,不需要融资,移动互联网,121.624653,31.226515,全职,3-5年,"['专项奖金', '带薪年假', '弹性工作', '管理规范']"
288,2897741,PHP研发工程师,北京,2018-05-02 11:30:06,17.0,23391,百度文学,北京幻想纵横网络技术有限公司,150-500人,朝阳区,本科,未融资,移动互联网,116.41592,40.035624,全职,3-5年,"['绩效奖金', '年底双薪', '五险一金', '带薪年假']"
289,3896559,PHP,上海,2018-05-02 10:40:24,12.4,130659,舟恩信息,上海舟恩信息技术有限公司,150-500人,徐汇区,大专,不需要融资,移动互联网,121.462683,31.1871,全职,3-5年,[]
290,3978736,PHP开发工程师,北京,2018-04-23 18:26:57,19.0,1337,北京智慧图,北京智慧图科技有限责任公司,150-500人,海淀区,大专,C轮,"移动互联网,数据服务",116.351596,39.977242,全职,3-5年,"['股票期权', '绩效奖金', '岗位晋升', '扁平管理']"
291,4351125,PHP开发工程师,广州,2018-04-16 10:13:42,12.0,271701,贪玩游戏,江西贪玩信息技术有限公司广州分公司,500-2000人,天河区,大专,D轮及以上,游戏,113.368584,23.113076,全职,1-3年,"['带薪年假', '定期体检', '年度旅游', '五险一金']"
292,3303346,PHP高级开发工程师,北京,2018-05-03 09:30:09,21.0,7902,好巧,北京好巧国际旅行社有限公司,150-500人,朝阳区,本科,B轮,数据服务,116.406849,39.973642,全职,5-10年,"['五险一金', '弹性工作', '扁平管理', '百万医疗']"
293,2499207,PHP/软件开发,郑州,2018-05-02 18:22:56,9.0,116333,象聚集团,河南象聚实业有限公司,500-2000人,,大专,不需要融资,"移动互联网,金融",,,全职,不限,"['定期体检', '派对旅游', '六险一金', '绩效奖金']"
294,4439929,链家交易研发中心-PHP研发工程师,北京,2018-05-02 16:51:19,19.0,190751,北京方源,北京方源房地产咨询服务有限公司,500-2000人,海淀区,本科,不需要融资,其他,116.305514,40.040202,全职,1-3年,"['年底双薪', '绩效奖金', '带薪年假', '交通补助']"
295,1947653,PHP开发工程师,北京,2018-05-02 15:31:33,21.0,99903,环球优学教育集团,环球优学（北京）教育咨询有限公司,500-2000人,海淀区,本科,上市公司,"移动互联网,教育",116.321711,39.975802,全职,1年以下,"['节日礼物', '股票期权', '带薪年假', '绩效奖金']"
296,3368226,PHP开发工程师,长沙,2018-05-02 11:50:37,10.8,69072,蜂投网,深圳前海大众互联网金融服务有限公司湖南分公司,150-500人,天心区,本科,不需要融资,金融,112.991,28.06872,全职,3-5年,"['包吃', '五险一金', '绩效奖金', '定期体检']"
297,4151876,高级PHP开发工程师,上海,2018-05-02 10:34:15,19.0,4428,恺英网络,上海恺英网络科技有限公司,500-2000人,闵行区,本科,上市公司,"移动互联网,游戏",121.50669968,31.09646955,全职,3-5年,"['游戏公司', '页游', '手游', '互联网']"
298,4184734,php 开发工程师,北京,2018-05-02 10:17:28,10.8,100556,狸米科技,北京狸米科技有限公司,150-500人,朝阳区,本科,B轮,"移动互联网,教育",116.433318,40.031211,全职,3-5年,"['弹性工作', '扁平管理', '朝阳产业', '老板NICE']"
299,4006590,PHP高级工程师,北京,2018-05-02 09:59:54,21.6,14745,以太创服,艾普拉斯投资顾问（北京）有限公司,150-500人,朝阳区,本科,B轮,金融,116.471469,39.910169,全职,3-5年,"['绩效奖金', '股票期权', '投资机会', '其他公司股票']"
300,3685855,PHP工程师,惠州,2018-05-02 09:31:38,10.8,244424,天喜利,惠州市天喜利投资控股有限公司,15-50人,惠城区,本科,不需要融资,"电子商务,金融",114.418347,23.112516,全职,3-5年,"['通讯津贴', '午餐补助', '节日礼物', '领导好']"
301,4121921,PHP开发,上海,2018-05-02 09:06:50,24.0,4670,The NetCircle,人英网络（上海）有限公司,50-150人,普陀区,本科,不需要融资,"社交网络,数据服务",121.43046,31.242819,全职,5-10年,"['年终分红', '五险一金', '交通补助', '带薪年假']"
302,4075742,PHP开发工程师,深圳,2018-04-30 17:47:49,20.2,202265,上海提捺信息科技有限公司,上海提捺信息科技有限公司,500-2000人,南山区,大专,不需要融资,"社交网络,游戏",113.954155,22.578564,全职,3-5年,[]
303,4372415,PHP开发工程师,北京,2018-04-28 14:02:05,14.4,171361,量子保,北京量子保科技有限公司,50-150人,海淀区,本科,A轮,"金融,数据服务",116.306993,39.983426,全职,3-5年,"['年底双薪', '绩效奖金', '年终分红', '股票期权']"
304,3153595,PHP研发工程师,北京,2018-04-28 09:34:17,15.2,4686,芥末堆,颉墨（北京）科技有限公司,50-150人,海淀区,本科,B轮,"移动互联网,教育",116.305663,39.977433,全职,3-5年,"['年终分红', '五险一金', '带薪年假', '岗位晋升']"
305,65039,PHP,青岛,2018-04-26 17:18:27,10.8,7535,什么值得买,北京值得买科技股份有限公司,150-500人,市北区,大专,A轮,"电子商务,文化娱乐",117.020359,36.66853,全职,1-3年,"['技能培训', '带薪年假', '各种主题趴', '海量产品体验']"
306,3153416,高级PHP工程师,北京,2018-05-03 09:03:18,21.0,22127,爱咔咔,北京爱咔咔信息技术有限公司,15-50人,海淀区,本科,A轮,"移动互联网,O2O",116.31212,40.03882,全职,3-5年,"['年底双薪', '技术控', '股票期权', '带薪年假']"
307,4004406,PHP开发工程师,上海,2018-05-03 08:49:27,21.0,243778,斐讯技术,四川斐讯信息技术有限公司,2000人以上,松江区,本科,不需要融资,"信息安全,硬件",121.160026,31.02424,全职,5-10年,"['绩效奖金', '年底双薪', '定期体检', '带薪年假']"
308,4400630,PHP程序员,广州,2018-05-02 22:53:11,5.6,281731,烨萨集团,广州烨萨汽车销售有限公司,50-150人,白云区,本科,未融资,金融、其他,,,全职,1-3年,[]
309,3289555,PHP开发工程师,武汉,2018-05-02 19:08:34,13.2,6432,明源云,武汉明源云科技有限公司,500-2000人,洪山区,不限,上市公司,"移动互联网,企业服务",,,全职,3-5年,"['节日礼物', '技能培训', '年度旅游', '岗位晋升']"
310,3186845,中级PHP工程师,北京,2018-05-02 16:20:37,14.0,70,宝宝树,宝宝树（北京）信息技术有限公司,500-2000人,朝阳区,本科,D轮及以上,社交网络,115.99339,39.99426,全职,3-5年,"['商业医疗保险', '股票期权', '带薪年假', '扁平管理']"
311,4504693,PHP开发工程师,常州,2018-05-02 11:00:47,8.4,376607,知了科技,江苏知了信息科技有限公司,少于15人,武进区,大专,未融资,移动互联网 数据服务,119.95733,31.665911,全职,1-3年,"['""""']"
312,4287975,高级PHP开发工程师,上海,2018-05-02 09:55:36,18.2,14983,游族网络,上海游族信息技术有限公司,500-2000人,徐汇区,不限,上市公司,"移动互联网,游戏",39.897445,116.331398,全职,3-5年,"['五险一金', '岗位晋升', '弹性工作', '扁平管理']"
313,2636547,PHP开发工程师,广州,2018-05-02 09:38:38,12.0,18159,明朝互动,广州明朝互动科技股份有限公司,150-500人,天河区,本科,D轮及以上,游戏,113.37305,23.12544,全职,1-3年,"['技能培训', '节日礼物', '项目奖金', '带薪年假']"
314,4024269,PHP工程师,苏州,2018-05-01 19:47:08,5.6,8464,苏州天魂网络,苏州天魂网络科技股份有限公司,15-50人,高新区,大专,未融资,游戏,120.537754,31.275604,全职,不限,"['领导好', '技能培训', '节日礼物', '专项奖金']"
315,4210072,PHP中级开发工程师,广州,2018-05-01 17:41:48,10.2,4126,POCO.CN,广州数联软件技术有限公司,150-500人,越秀区,本科,B轮,"移动互联网,文化娱乐",113.30819,23.12011,全职,1-3年,"['专项奖金', '带薪年假', '绩效奖金', '岗位晋升']"
316,3238866,PHP研发,北京,2018-04-30 22:49:10,21.0,83363,乐惠,乐惠（北京）科技有限公司,150-500人,海淀区,本科,A轮,"移动互联网,电子商务",116.35267,40.000958,全职,5-10年,"['扁平管理', '五险一金', '股票期权', '带薪年假']"
317,4426913,php研发工程师,北京,2018-04-28 17:04:44,17.0,123763,斗米,北京斗米优聘科技发展有限公司,500-2000人,海淀区,本科,B轮,"移动互联网,O2O",0.0,0.0,全职,3-5年,"['股票期权', '扁平管理', '管理规范', '技能培训']"
318,4175992,php工程师,北京,2018-04-28 11:44:36,19.0,25592,新浪网,新浪网技术（中国）有限公司,2000人以上,海淀区,本科,上市公司,文化娱乐,116.276316,40.041543,全职,3-5年,"['免费班车', '岗位晋升', '五险一金', '定期体检']"
319,3857728,PHP程序员,成都,2018-04-28 10:03:48,12.0,44600,天府·星空购物集团,成都天府星空网络科技有限公司,150-500人,高新区,本科,不需要融资,电子商务,104.079742,30.653146,全职,3-5年,"['技能培训', '节日礼物', '带薪年假', '绩效奖金']"
320,3814147,PHP+Java开发,上海,2018-05-03 09:25:03,17.0,22862,上海中软华腾软件系统有限公司,上海中软华腾软件系统有限公司,2000人以上,浦东新区,本科,上市公司,"企业服务,金融",121.635159,31.222879,全职,5-10年,"['年底双薪', '绩效奖金', '带薪年假', '定期体检']"
321,4184384,PHP软件开发工程师,广州,2018-05-03 08:23:27,3.8,257650,广州玖维信息科技有限公司,广州玖维信息科技有限公司,150-500人,海珠区,大专,上市公司,"移动互联网,数据服务",113.322983,23.096894,全职,1年以下,"['年底双薪', '专项奖金', '年终分红', '带薪年假']"
322,2115319,PHP开发工程师,西安,2018-05-02 16:36:58,12.0,113698,秦学教育集团,陕西伊顿文化发展有限公司,500-2000人,,大专,A轮,"教育,O2O",,,全职,3-5年,[]
323,4506418,php开发工程师,广州,2018-05-02 14:45:10,8.4,35242,畅联信息科技有限公司,广州畅联科技有限公司,15-50人,萝岗区,本科,不需要融资,"移动互联网,O2O",113.436093,23.162472,全职,1-3年,"['周末双休', '五险一金', '午餐补助', '绩效奖金']"
324,2346495,PHP,上海,2018-05-02 11:49:04,15.0,24995,泛微,上海泛微网络科技股份有限公司,2000人以上,闵行区,本科,上市公司,"移动互联网,企业服务",121.525236,31.080356,全职,1-3年,"['技能培训', '带薪年假', '绩效奖金', '岗位晋升']"
325,4176179,PHP开发工程师（嘉品）,成都,2018-05-02 11:44:20,14.0,3524,Camera360,成都品果科技有限公司,150-500人,高新区,本科,B轮,移动互联网,103.99341,30.994233,全职,3-5年,"['绩效奖金', '股票期权', '专项奖金', '年终奖']"
326,301526,PHP开发工程师,广州,2018-05-02 11:31:36,14.0,112,爱拍原创,广州爱拍网络科技有限公司,150-500人,天河区,本科,D轮及以上,文化娱乐,113.371417,23.123497,全职,1-3年,"['团队牛掰', '企业文化温馨', '绩效奖金丰厚', '内部孵化项目']"
327,4121039,技术合伙人(PHP),深圳,2018-05-02 10:18:50,22.8,5580,明源云,深圳市明源云客电子商务有限公司,2000人以上,南山区,本科,上市公司,"移动互联网,企业服务",113.95257,22.5379,全职,5-10年,"['高额六险一金', '年底双薪', '绩效奖金', 'N项经费']"
328,3358377,资深PHP开发工程师,上海,2018-05-02 09:55:36,19.0,14983,游族网络,上海游族信息技术有限公司,500-2000人,徐汇区,不限,上市公司,"移动互联网,游戏",39.897445,116.331398,全职,1-3年,"['五险一金', '岗位晋升', '弹性工作', '扁平管理']"
329,4265555,PHP开发工程师,北京,2018-05-02 09:45:21,21.0,165926,大圣live,海南大圣娱乐有限公司,50-150人,海淀区,本科,不需要融资,"移动互联网,游戏",116.353279,40.043397,全职,3-5年,[]
330,4100825,资深PHP开发工程师,上海,2018-05-01 19:46:01,21.0,80809,上海只二网络科技有限公司,上海只二网络科技有限公司,50-150人,浦东新区,本科,B轮,"移动互联网,电子商务",121.627397,31.21951,全职,5-10年,"['帅哥多', '美女更多', '环境超棒', '福利多多']"
331,3927582,PHP开发工程师,北京,2018-04-29 19:20:48,19.0,254799,小鹏汽车,广州小鹏汽车科技有限公司,150-500人,朝阳区,本科,A轮,"移动互联网,硬件",116.479874,39.987108,全职,3-5年,[]
332,4288690,PHP开发工程师,北京,2018-04-26 18:53:37,24.0,28659,奥琦玮,奥琦玮信息科技（北京）有限公司,150-500人,朝阳区,本科,B轮,"移动互联网,O2O",116.393925,40.004041,全职,3-5年,"['年底双薪', '带薪年假', '交通补助', '定期体检']"
333,4464408,PHP研发工程师,厦门,2018-04-23 13:17:13,10.4,23291,美图公司,厦门美图之家科技有限公司,500-2000人,思明区,不限,上市公司,"移动互联网,硬件",118.179899,24.489558,全职,不限,"['节日礼物', '与大牛共事', '福利健全', '五险一金']"
334,4327303,高级PHP工程师,北京,2018-05-02 21:07:36,19.0,226679,货圈全,炘宇（北京）科技有限公司,50-150人,朝阳区,本科,A轮,移动互联网,116.415977,40.032988,全职,3-5年,"['绩效奖金', '专项奖金', '扁平管理', '技能培训']"
335,4395062,php开发工程师,北京,2018-05-02 20:04:52,21.0,25592,新浪网,新浪网技术（中国）有限公司,2000人以上,海淀区,本科,上市公司,文化娱乐,116.276316,40.041543,全职,3-5年,"['免费班车', '岗位晋升', '五险一金', '定期体检']"
336,3910264,资深PHP开发,上海,2018-05-02 18:27:12,20.8,251737,享换机,晋松（上海）网络信息技术有限公司,50-150人,杨浦区,本科,A轮,"移动互联网,金融",121.513693,31.307861,全职,5-10年,"['相互成就', '敢想敢做', '消费场景', '趋势改变习惯']"
337,4210845,PHP工程师,北京,2018-05-02 17:46:01,21.0,56363,安易信,北京安易信科技有限公司,50-150人,海淀区,本科,上市公司,"金融,数据服务",116.351057,39.977249,全职,不限,"['技能培训', '年底双薪', '专项奖金', '带薪年假']"
338,3157658,PHP开发工程师,北京,2018-05-02 17:00:50,21.0,5026,唱吧-时尚的手机KTV,北京小唱科技有限公司,150-500人,朝阳区,本科,D轮及以上,"移动互联网,游戏",115.99339,39.99426,全职,3-5年,"['节日礼物', '股票期权', '带薪年假', '员工海外游']"
339,4508174,php开发,重庆,2018-05-02 17:00:31,5.8,375440,用维通信,重庆用维通信技术有限公司,15-50人,渝北区,大专,未融资,"数据服务,其他",106.493942,29.617577,全职,1-3年,"['""""']"
340,2384203,PHP,上海,2018-05-02 11:48:59,14.6,24995,泛微,上海泛微网络科技股份有限公司,2000人以上,闵行区,本科,上市公司,"移动互联网,企业服务",121.525236,31.080356,全职,1-3年,"['技能培训', '带薪年假', '绩效奖金', '岗位晋升']"
341,4310716,PHP开发工程师（高级）,广州,2018-05-02 09:46:17,17.0,344571,火星互娱,广州市火星互娱科技有限公司,少于15人,天河区,大专,不需要融资,"移动互联网,游戏",113.340038,23.135646,全职,5-10年,"['""""']"
342,3794014,PHP高级研发工程师,北京,2018-05-01 23:00:19,31.6,50702,美团点评,北京三快在线科技有限公司,2000人以上,朝阳区,本科,D轮及以上,"移动互联网,O2O",116.466554,39.995147,全职,3-5年,"['技能培训', '绩效奖金', '岗位晋升', '领导好']"
343,4497477,PHP开发工程师,上海,2018-04-28 10:23:37,11.4,14607,微浪科技,苏州微浪科技股份有限公司,50-150人,徐汇区,本科,未融资,"移动互联网,电子商务",0.0,0.0,全职,3-5年,"['绩效奖金', '带薪年假', '节日礼物', '年度旅游']"
344,4098764,PHP开发工程师,北京,2018-04-27 19:20:41,10.8,62538,掌上先机-旺店通ERP,北京掌上先机网络科技有限公司,500-2000人,海淀区,本科,不需要融资,"移动互联网,电子商务",116.363483,39.973296,全职,1-3年,"['技能培训', '节日礼物', '专项奖金', '带薪年假']"
345,4308864,高级PHP开发工程师,青岛,2018-04-26 17:18:30,17.0,7535,什么值得买,北京值得买科技股份有限公司,150-500人,市北区,不限,A轮,"电子商务,文化娱乐",120.376922,36.089956,全职,3-5年,"['技能培训', '带薪年假', '各种主题趴', '海量产品体验']"
346,3991880,PHP工程师,徐州,2018-04-20 18:17:12,18.2,211701,大金科技,安徽立品网络科技有限公司,150-500人,云龙区,大专,不需要融资,"移动互联网,数据服务",117.326197,34.16288,全职,3-5年,"['机票签证全包', '生日礼金', '年终分红', '年底双薪']"
347,3900062,高级PHP工程师,北京,2018-05-03 09:03:18,21.0,22127,爱咔咔,北京爱咔咔信息技术有限公司,15-50人,海淀区,本科,A轮,"移动互联网,O2O",116.31212,40.03882,全职,3-5年,"['年底双薪', '技术控', '股票期权', '带薪年假']"
348,4348360,PHP开发,深圳,2018-05-02 21:36:40,10.8,324000,众车在线,现代众车在线(深圳)金融信息服务有限公司,50-150人,福田区,大专,,金融,114.061131,22.570446,全职,3-5年,[]
349,4129075,高级PHP工程师,北京,2018-05-02 20:28:43,16.8,1992,有利网,北京弘合柏基金融信息服务有限责任公司,500-2000人,朝阳区,本科,A轮,金融,116.456076,39.948051,全职,3-5年,"['岗位晋升', '股票期权', '绩效奖金', '定期体检']"
350,4279128,PHP程序员,广州,2018-05-02 19:42:02,8.4,343988,出团去,广州市出团去信息科技有限公司,少于15人,番禺区,本科,未融资,移动互联网 电子商务,113.368921,22.937759,全职,1-3年,"['""""']"
351,4508502,PHP开发工程师,深圳,2018-05-02 17:30:25,7.2,147936,点通宝,深圳点通宝科技有限公司,500-2000人,龙华新区,本科,不需要融资,"电子商务,移动互联网",114.030694,22.667115,全职,3-5年,"['交通补助', '五险一金', '节日礼物']"
352,3221019,高级PHP开发工程师,北京,2018-05-02 16:20:37,28.0,70,宝宝树,宝宝树（北京）信息技术有限公司,500-2000人,朝阳区,本科,D轮及以上,社交网络,115.99339,39.99426,全职,3-5年,"['商业医疗保险', '股票期权', '带薪年假', '扁平管理']"
353,2274360,PHP开发工程师,北京,2018-05-02 13:24:43,16.0,27749,淡蓝网Blued,北京蓝城兄弟信息技术有限公司,150-500人,朝阳区,本科,D轮及以上,"移动互联网,社交网络",115.99339,39.99426,全职,1-3年,"['股票期权', '五险一金', '带薪年假', '节日礼物']"
354,4124256,PHP工程师,西安,2018-05-02 11:46:34,9.6,282562,VMAXX,维视科技（西安）有限公司,15-50人,曲江新区,本科,A轮,移动互联网,109.014749,34.209115,全职,3-5年,[]
355,3971231,PHP开发工程师,杭州,2018-05-02 11:11:54,10.8,54514,怪猫游戏,上海咕么信息科技有限公司,50-150人,滨江区,大专,不需要融资,"移动互联网,游戏",120.215662,30.212366,全职,不限,"['专项奖金', '带薪年假', '定期体检', '年终分红']"
356,3065777,PHP程序,广州,2018-05-02 11:07:33,4.8,157207,云石动力,广州云石动力科技有限公司,50-150人,白云区,大专,不需要融资,"移动互联网,企业服务",113.233494,23.21051,全职,1-3年,"['专项奖金', '绩效奖金', '年度旅游', '弹性工作']"
357,3980854,高级php开发工程师,西安,2018-05-02 11:01:15,10.8,147701,纸贵科技,西安纸贵互联网科技有限公司,50-150人,雁塔区,本科,A轮,"文化娱乐,企业服务",108.902533,34.241917,全职,3-5年,"['股票期权', '绩效奖金', '弹性工作', '扁平管理']"
358,3461000,PHP开发工程师,上海,2018-05-02 10:04:37,21.0,56746,贝米钱包,上海贝涛金融信息服务有限公司,50-150人,徐汇区,本科,A轮,金融,121.446889,31.204067,全职,3-5年,"['节日礼物', '带薪年假', '年度旅游', '扁平管理']"
359,4430090,PHP研发（实习生）,天津,2018-05-02 09:56:02,2.8,8861,妙计旅行,北京汇行科技有限公司,150-500人,滨海新区,本科,B轮,旅游,117.688816,38.995853,全职,不限,"['股票期权', '十四薪', '零食饮料水果', '团队氛围好']"
360,2718467,php开发工程师,广州,2018-05-02 09:45:21,21.0,165926,大圣live,海南大圣娱乐有限公司,50-150人,越秀区,大专,不需要融资,"移动互联网,游戏",113.30915,23.13231,全职,3-5年,[]
361,3857611,PHP开发工程师,成都,2018-04-28 10:03:47,12.0,44600,天府·星空购物集团,成都天府星空网络科技有限公司,150-500人,高新区,本科,不需要融资,电子商务,104.079742,30.653146,全职,3-5年,"['技能培训', '节日礼物', '带薪年假', '绩效奖金']"
362,4443835,PHP开发工程师,深圳,2018-04-25 16:06:30,14.2,106150,南方银谷,南方银谷科技有限公司,150-500人,南山区,本科,D轮及以上,"移动互联网,数据服务",0.0,0.0,全职,3-5年,"['节日礼物', '股票期权', '带薪年假', '绩效奖金']"
363,3974792,PHP开发工程师,深圳,2018-04-24 17:35:03,13.2,26864,亿乐谷,深圳市亿乐谷科技有限公司,150-500人,宝安区,大专,D轮及以上,电子商务,113.8385,22.605709,全职,3-5年,"['绩效奖金', '五险一金', '带薪年假', '年度旅游']"
364,4480401,PHP高级开发工程师,北京,2018-05-03 08:24:43,24.0,124192,闲徕互娱,北京闲徕互娱网络科技有限公司,500-2000人,朝阳区,本科,不需要融资,游戏,116.414211,40.032234,全职,3-5年,"['年底双薪', '股票期权', '带薪年假', '专项奖金']"
365,4001524,php开发工程师,深圳,2018-05-02 20:12:57,13.2,252097,华云中盛,深圳市华云中盛科技有限公司,150-500人,南山区,大专,不需要融资,"数据服务,移动互联网",113.946468,22.534199,全职,3-5年,"['绩效奖金', '带薪年假', '通讯津贴', '定期体检']"
366,2726413,PHP工程师,广州,2018-05-02 18:30:15,12.0,658,三七互娱,三七互娱（上海）科技有限公司,2000人以上,天河区,本科,上市公司,游戏,113.373698,23.117822,全职,1-3年,"['绩效奖金', '五险一金', '通讯津贴', '交通补助']"
367,4379619,PHP工程师,洛阳,2018-05-02 13:50:38,4.8,115238,中细软集团,北京中细软移动互联科技有限公司,500-2000人,洛龙区,大专,未融资,"企业服务,移动互联网",112.49824,34.62439,全职,1-3年,"['五险一金', '绩效奖金', '带薪年假', '通讯津贴']"
368,3083314,PHP开发,深圳,2018-05-02 11:11:30,28.0,144396,恒大珠三角公司,恒大地产集团珠三角房地产开发有限公司,2000人以上,南山区,本科,上市公司,"移动互联网,生活服务",113.943073,22.518898,全职,3-5年,[]
369,3853042,高级PHP开发工程师,北京,2018-05-02 10:21:37,24.0,202067,优信集团,优舫（北京）信息科技有限公司,2000人以上,朝阳区,本科,D轮及以上,"电子商务,移动互联网",116.480615,39.996373,全职,3-5年,"['绩效奖金', '通讯津贴', '带薪年假', '交通补助']"
370,3808727,高级PHP开发工程师,上海,2018-05-02 10:03:41,21.0,154554,小象生活,上海潜象网络科技有限公司,50-150人,徐汇区,本科,天使轮,"移动互联网,生活服务",0.0,0.0,全职,1-3年,"['绩效奖金', '弹性工作', '扁平管理', '领导好']"
371,4497791,PHP工程师,广州,2018-05-02 09:37:19,15.2,28482,欧派,欧派家居集团有限公司,2000人以上,白云区,本科,上市公司,"生活服务,硬件",113.250551,23.17528,全职,3-5年,"['绩效奖金', '五险一金', '通讯津贴', '带薪年假']"
372,1591227,PHP,深圳,2018-05-02 08:35:11,14.0,51478,小鹅（小鹅通）,深圳小鹅网络技术有限公司,50-150人,南山区,本科,A轮,"移动互联网,社交网络",113.945711,22.545916,全职,不限,"['技能培训', '年底双薪', '股票期权', '带薪年假']"
373,4453846,PHP工程师,上海,2018-04-28 18:02:45,15.2,152672,上海永利宝,上海永利宝网络信息科技有限公司,150-500人,浦东新区,本科,B轮,"金融,移动互联网",121.57275,31.149826,全职,3-5年,"['带薪年假', '交通补助', '定期体检', '绩效奖金']"
374,4500885,PHP开发工程师,北京,2018-04-28 17:03:14,24.0,129,陌陌,北京陌陌科技有限公司,500-2000人,朝阳区,本科,上市公司,社交网络,115.99339,39.99426,全职,3-5年,"['岗位晋升', '帅哥多', '管理规范', '技能培训']"
375,4098780,PHP研发工程师,北京,2018-04-27 19:20:41,10.8,62538,掌上先机-旺店通ERP,北京掌上先机网络科技有限公司,500-2000人,海淀区,本科,不需要融资,"移动互联网,电子商务",116.363483,39.973296,全职,1-3年,"['技能培训', '节日礼物', '专项奖金', '带薪年假']"
376,3399180,PHP研发工程师,武汉,2018-04-27 11:06:11,7.0,7936,武汉安天,武汉安天信息技术有限责任公司,150-500人,东湖新技术开发区,本科,未融资,移动互联网,114.492964,30.559387,全职,1-3年,"['绩效奖金', '专项奖金', '五险一金', '带薪年假']"
377,3692834,PHP开发工程师,北京,2018-04-26 17:18:30,17.8,7535,什么值得买,北京值得买科技股份有限公司,150-500人,丰台区,本科,A轮,"电子商务,文化娱乐",115.99339,39.99426,全职,1-3年,"['技能培训', '带薪年假', '各种主题趴', '海量产品体验']"
378,3394644,php开发工程师,北京,2018-04-21 11:44:15,21.0,74722,惠金所,北京中关村融汇金融信息服务有限公司,150-500人,海淀区,本科,不需要融资,"移动互联网,金融",116.331334,39.993099,全职,3-5年,"['节日礼物', '带薪年假', '绩效奖金', '通讯津贴']"
379,4072781,PHP开发工程师（BH1805）,杭州,2018-05-02 18:27:28,10.8,593,边锋,杭州边锋网络技术有限公司,500-2000人,西湖区,本科,不需要融资,"移动互联网,游戏",120.11663,30.290164,全职,1-3年,"['五险一金', '交通补助', '绩效奖金', '节日礼物']"
380,4506999,php开发工程师,杭州,2018-05-02 15:27:02,17.2,116532,新蓝网,浙江新蓝网络传媒有限公司,150-500人,萧山区,本科,不需要融资,移动互联网,120.290175,30.24644,全职,3-5年,"['带薪年假', '绩效奖金', '通讯津贴', '午餐补助']"
381,4506932,PHP,西安,2018-05-02 15:21:55,7.0,330562,应用时代,深圳应用时代科技有限公司,少于15人,高新技术产业开发区,不限,不需要融资,"移动互联网,电子商务",108.837036,34.20777,全职,1-3年,"['""""']"
382,4506651,php工程师,厦门,2018-05-02 15:03:49,10.8,41221,深觉信息,厦门深觉信息技术有限公司,少于15人,思明区,大专,天使轮,"移动互联网,电子商务",0.0,0.0,全职,3-5年,"['技能培训', '带薪年假', '绩效奖金', '扁平管理']"
383,4376597,php开发工程师（20k-40K）,北京,2018-05-02 14:17:09,28.0,23039,好大夫在线,互动峰科技(北京)有限公司,500-2000人,朝阳区,本科,D轮及以上,医疗健康,116.50986,39.9118,全职,不限,"['五险一金', '带薪年假', '绩效奖金', '专项奖金']"
384,4082481,资深PHP开发工程师,上海,2018-05-02 10:51:55,31.0,46792,捞月狗,上海竟跃网络科技有限公司,50-150人,徐汇区,本科,C轮,移动互联网,121.411654,31.169569,全职,3-5年,"['年底双薪', '每天必打游戏', '年度旅游', '发放期权']"
385,4481458,PHP,北京,2018-05-02 10:28:23,12.0,73130,宠知道,北京宠知道科技有限公司,15-50人,东城区,本科,A轮,"企业服务,O2O",116.413473,39.896928,全职,3-5年,"['节日礼物', '技能培训', '股票期权', '带薪年假']"
386,3844584,高级PHP开发工程师,上海,2018-05-02 10:17:29,17.0,251737,享换机,晋松（上海）网络信息技术有限公司,50-150人,杨浦区,本科,A轮,"移动互联网,金融",121.510403,31.306124,全职,3-5年,"['相互成就', '敢想敢做', '消费场景', '趋势改变习惯']"
387,4493632,PHP开发工程师,广州,2018-05-02 09:55:37,9.8,50681,腾讯•大粤网,广东腾南网络信息科技有限公司,150-500人,越秀区,本科,未融资,"移动互联网,O2O",112.993461,22.994261,全职,1-3年,"['技能培训', '节日礼物', '年底双薪', '带薪年假']"
388,105683,PHP工程师,杭州,2018-05-02 09:39:23,14.0,7868,阔知网络,杭州阔知网络科技有限公司,150-500人,滨江区,本科,A轮,"企业服务,教育",120.157677,30.178842,全职,3-5年,"['技术一流', '期权奖励', '领导好', '体育锻炼奖励']"
389,3942276,PHP开发工程师,厦门,2018-04-26 17:45:44,8.4,86867,步云科技,厦门步云信息科技有限公司,15-50人,湖里区,不限,不需要融资,"移动互联网,O2O",118.16113,24.525084,全职,1-3年,"['节日礼物', '年底双薪', '扁平管理', '五险一金']"
390,4105220,php工程师,北京,2018-04-24 15:13:17,34.8,5832,新浪微博,微梦创科网络科技（中国）有限公司,2000人以上,海淀区,本科,上市公司,移动互联网,0.0,0.0,全职,3-5年,"['年底双薪', '专项奖金', '股票期权', '五险一金']"
391,4326714,PHP工程师,杭州,2018-04-24 08:06:33,9.8,182230,优学国际,杭州优学国际教育科技有限公司,15-50人,西湖区,本科,A轮,"教育,移动互联网",120.133289,30.286085,全职,1-3年,"['带薪年假', '绩效奖金', '双休', '五险一金']"
392,3991859,PHP工程师,韶关,2018-04-20 18:17:11,18.2,211701,大金科技,安徽立品网络科技有限公司,150-500人,武江区,大专,不需要融资,"移动互联网,数据服务",0.0,0.0,全职,3-5年,"['机票签证全包', '生日礼金', '年终分红', '年底双薪']"
393,2114090,PHP开发工程师,上海,2018-04-19 19:07:17,26.0,4670,The NetCircle,人英网络（上海）有限公司,50-150人,普陀区,本科,不需要融资,"社交网络,数据服务",121.43034,31.24249987,全职,5-10年,"['年终分红', '五险一金', '交通补助', '带薪年假']"
394,3094728,高级PHP开发工程师,济南,2018-05-03 08:48:47,15.8,67576,车满满,车满满（北京）信息技术有限公司,150-500人,高新区,本科,B轮,移动互联网,0.0,0.0,全职,3-5年,"['业内第一', '技能培训', '股票期权', '弹性工作']"
395,3909234,PHP开发工程师,上海,2018-05-02 18:55:19,21.0,202104,趣头条,上海基分文化传播有限公司,500-2000人,浦东新区,本科,不需要融资,移动互联网,121.624653,31.226515,全职,3-5年,"['专项奖金', '带薪年假', '弹性工作', '管理规范']"
396,1455541,PHP,北京,2018-05-02 18:53:08,19.0,123763,斗米,北京斗米优聘科技发展有限公司,500-2000人,海淀区,本科,B轮,"移动互联网,O2O",116.299995,40.04255506,全职,3-5年,"['股票期权', '扁平管理', '管理规范', '技能培训']"
397,4301635,php开发工程师,汕头,2018-05-02 17:17:50,4.2,126467,商米科技,上海商米科技有限公司,150-500人,龙湖区,大专,C轮,O2O,116.716534,23.371476,全职,3-5年,"['股票期权', '绩效奖金', '定期体检', '带薪年假']"
398,4033367,PHP开发工程师,广州,2018-05-02 16:47:27,10.8,309028,小树科技,广州小树网络科技有限公司,50-150人,天河区,大专,不需要融资,"移动互联网,数据服务",113.356072,23.16205,全职,不限,"['带薪年假', '绩效奖金', '年底双薪', '年终分红']"
399,4507722,PHP软件工程师,武汉,2018-05-02 16:26:04,7.0,346242,武汉邻盛智能设备有限公司,武汉邻盛智能设备有限公司,15-50人,汉阳区,大专,未融资,"移动互联网,O2O",114.267561,30.555469,全职,3-5年,"['""""']"
400,4507257,PHP开发工程师,深圳,2018-05-02 15:46:30,12.0,80443,声呐互动,广州市声呐网络科技有限公司,15-50人,盐田区,大专,不需要融资,广告营销,114.23745,22.55412,全职,1-3年,"['绩效奖金', '年度旅游', '领导好', '美女多']"
401,4506445,PHP开发工程师,杭州,2018-05-02 14:47:04,12.0,303270,星嘉合科技,浙江星嘉合科技有限公司,50-150人,下城区,本科,天使轮,金融,120.167676,30.270361,全职,3-5年,"['""""']"
402,2786216,php开发,深圳,2018-05-02 14:01:07,15.0,12745,英威诺,深圳市英威诺科技有限公司,150-500人,南山区,本科,C轮,"移动互联网,数据服务",113.993578,22.99368,全职,3-5年,"['五险一金', '带薪年假', '节日礼物', '岗位晋升']"
403,4246309,php工程师,西安,2018-05-02 11:11:48,4.8,330562,应用时代,深圳应用时代科技有限公司,少于15人,高新技术产业开发区,不限,不需要融资,"移动互联网,电子商务",108.837036,34.20777,全职,不限,"['""""']"
404,4438420,高级PHP开发工程师,北京,2018-05-02 10:16:52,24.8,202067,优信集团,优舫（北京）信息科技有限公司,2000人以上,朝阳区,本科,D轮及以上,"电子商务,移动互联网",116.481049,39.996796,全职,5-10年,"['绩效奖金', '通讯津贴', '带薪年假', '交通补助']"
405,4014903,PHP工程师（API）,北京,2018-05-02 10:06:49,28.0,172285,猎户星空,北京猎户星空科技有限公司,150-500人,朝阳区,不限,A轮,"移动互联网,硬件",116.458741,39.932851,全职,1-3年,"['年度旅游', '弹性工作', '领导好', '五险一金']"
406,4245037,高级PHP开发工程师,北京,2018-05-02 09:56:49,19.0,91963,乐学一百,北京乐学一百在线教育科技有限公司,150-500人,海淀区,本科,未融资,"移动互联网,教育",0.0,0.0,全职,3-5年,"['节日礼物', '带薪年假', '绩效奖金', '年度旅游']"
407,2941145,PHP开发工程师,杭州,2018-05-02 09:17:15,8.4,137388,顺联动力,浙江顺联网络科技有限公司,150-500人,滨江区,大专,不需要融资,"移动互联网,电子商务",119.993921,29.993843,全职,3-5年,"['年终分红', '绩效奖金', '定期体检', '年底双薪']"
408,4493380,php,长沙,2018-04-27 14:01:02,10.2,103897,新航动力,湖南新航动力信息科技有限公司,150-500人,雨花区,大专,未融资,移动互联网、企业服务,113.0352,28.11354,全职,3-5年,"['五险一金', '绩效奖金', '技能培训', '岗位晋升']"
409,2905671,PHP开发工程师,北京,2018-04-27 10:57:51,19.0,129,陌陌,北京陌陌科技有限公司,500-2000人,朝阳区,本科,上市公司,社交网络,115.99339,39.99426,全职,不限,"['岗位晋升', '帅哥多', '管理规范', '技能培训']"
410,4371916,PHP应用开发工程师,北京,2018-04-25 15:35:33,14.0,83192,衣川文化,衣川文化（北京）有限公司,50-150人,朝阳区,本科,B轮,移动互联网,116.464353,39.978038,全职,1-3年,"['股票期权', '靠谱项目', '扁平化管理', '五险一金']"
411,3987448,PHP工程师,中山,2018-04-20 18:17:12,18.2,211701,大金科技,安徽立品网络科技有限公司,150-500人,,大专,不需要融资,"移动互联网,数据服务",113.392782,22.517645,全职,3-5年,"['机票签证全包', '生日礼金', '年终分红', '年底双薪']"
412,4105239,高级PHP开发工程师,北京,2018-05-03 09:25:59,19.0,72034,天下秀,北京天下秀科技股份有限公司,500-2000人,朝阳区,本科,C轮,"移动互联网,广告营销",116.453438,39.942747,全职,3-5年,"['技能培训', '节日礼物', '绩效奖金', '年度旅游']"
413,4253871,PHP,北京,2018-05-03 08:31:11,7.0,341273,酷绅,北京酷绅服装有限公司,50-150人,海淀区,大专,未融资,电子商务,116.157565,40.04759,全职,1-3年,"['""""']"
414,3887037,PHP工程师（南京）,南京,2018-05-02 19:27:02,14.0,112992,美篇,南京蓝鲸人网络科技有限公司,50-150人,雨花台区,本科,A轮,"移动互联网,社交网络",118.76433,31.97122,全职,1-3年,"['扁平管理', '弹性工作', '氛围融洽', '牛人多']"
415,4386045,高级PHP开发工程师,北京,2018-05-02 16:03:11,24.0,121798,全民共赢,北京全民共赢网络科技有限公司,15-50人,朝阳区,本科,A轮,"移动互联网,企业服务",116.4511,39.962026,全职,3-5年,"['定期体检', '带薪年假', '五险一金', '弹性工作']"
416,4507247,PHP工程师,厦门,2018-05-02 15:45:52,9.8,342139,集网,厦门集网文化传播有限公司,150-500人,集美区,大专,未融资,"电子商务,游戏",118.051453,24.607836,全职,1-3年,"['年底双薪', '带薪年假', '午餐补助', '定期体检']"
417,4420188,PHP开发工程师,广州,2018-05-02 14:50:40,7.0,199511,广州顶域,广州市顶域科技有限公司,50-150人,天河区,大专,不需要融资,移动互联网,113.890614,22.947919,全职,1-3年,[]
418,4018813,php开发工程师--标配mac,杭州,2018-05-02 13:21:31,13.2,213185,滚马网络,杭州滚马网络有限公司,50-150人,余杭区,本科,A轮,移动互联网,120.008494,30.2825,全职,1-3年,"['带薪年假', '定期体检', '晋升无障碍', '年底双薪']"
419,4151851,PHP高级工程师,北京,2018-05-02 10:36:05,20.8,413,微车,北京步鼎方舟科技有限公司,150-500人,海淀区,本科,B轮,"移动互联网,O2O",116.29650099,39.96770307,全职,3-5年,[]
420,3991851,PHP工程师,赣州,2018-04-20 18:17:12,18.2,211701,大金科技,安徽立品网络科技有限公司,150-500人,章贡区,大专,不需要融资,"移动互联网,数据服务",114.921171,25.817816,全职,3-5年,"['机票签证全包', '生日礼金', '年终分红', '年底双薪']"
421,4397578,中高级PHP工程师,北京,2018-05-02 10:10:28,19.0,42833,大特保,大特保商务信息咨询（上海）有限公司,50-150人,朝阳区,本科,B轮,金融,116.476266,39.986009,全职,3-5年,"['带薪年假', '扁平管理', '五险一金', '股票期权']"
422,4399891,高级PHP开发工程师,武汉,2018-05-02 09:51:05,13.2,111342,EG365,湖北易及文化传播有限公司,150-500人,洪山区,大专,A轮,"移动互联网,文化娱乐",114.410752,30.483846,全职,3-5年,"['带薪年假', '绩效奖金', '年度旅游', '节日礼物']"
423,4046124,PHP,青岛,2018-05-02 09:17:56,8.4,313967,投道科技,青岛投道网络科技发展有限公司,15-50人,黄岛区,大专,未融资,"移动互联网,企业服务",120.158366,35.948964,全职,不限,"['""""']"
424,3408267,PHP工程师,北京,2018-04-29 22:11:17,28.0,107423,瓜子二手车直卖网,车好多旧机动车经纪(北京)有限公司,2000人以上,海淀区,本科,C轮,O2O,116.29993611,40.04311563,全职,3-5年,"['带薪年假', '弹性工作', '免费班车', '美女多']"
425,4005021,PHP,广州,2018-04-27 16:12:47,14.4,109597,Offerslook,广州逸趣信息科技有限公司,50-150人,天河区,本科,天使轮,"移动互联网,广告营销",113.358134,23.127655,全职,3-5年,"['绩效奖金', '股票期权', '通讯津贴', '定期体检']"
426,4264124,PHP开发工程师,武汉,2018-04-26 11:30:09,8.8,15507,云沃客,北京云族佳科技有限公司,150-500人,东湖新技术开发区,本科,A轮,移动互联网,114.44164,30.506042,全职,1-3年,"['数字化开发', '软件众包事业', '结果付酬', '实践远程办公']"
427,4252922,PHP程序员,北京,2018-05-03 08:31:29,7.0,341273,酷绅,北京酷绅服装有限公司,50-150人,海淀区,大专,未融资,电子商务,116.157565,40.04759,全职,1-3年,"['""""']"
428,3616512,高级PHP开发工程师,北京,2018-05-02 20:47:19,26.0,94014,腾跃校长在线,北京腾跃智汇网络科技有限公司,150-500人,海淀区,本科,A轮,"移动互联网,教育",116.309049,39.981732,全职,3-5年,"['股票期权', '午餐补助', '领导好', '扁平管理']"
429,4363081,PHP程序员,广州,2018-05-02 19:09:40,7.6,301605,臻鑫商务,广州市臻鑫商务服务有限公司,15-50人,越秀区,大专,未融资,金融,113.255022,23.132208,全职,1-3年,"['""""']"
430,449162,PHP开发工程师,广州,2018-05-02 12:07:24,12.0,37199,曦和,广州曦和信息科技有限公司,15-50人,天河区,本科,天使轮,"企业服务,金融",113.316442,23.12571301,全职,3-5年,"['节日礼物', '技能培训', '股票期权', '带薪年假']"
431,1922513,PHP,上海,2018-05-02 11:49:00,17.0,24995,泛微,上海泛微网络科技股份有限公司,2000人以上,闵行区,本科,上市公司,"移动互联网,企业服务",121.525236,31.080356,全职,3-5年,"['技能培训', '带薪年假', '绩效奖金', '岗位晋升']"
432,2810044,PHP研发工程师,上海,2018-05-02 11:09:31,22.0,3820,商派软件,上海商派网络科技有限公司,500-2000人,徐汇区,不限,D轮及以上,"移动互联网,电子商务",121.41816202,31.16814784,全职,5-10年,"['午餐补助', '绩效奖金', '定期体检', '帅哥多']"
433,4460372,高级PHP开发工程师,深圳,2018-05-02 10:04:32,18.4,15865,辣妈帮,深圳市辣妈帮科技有限公司,500-2000人,南山区,本科,D轮及以上,移动互联网,113.94334,22.527049,全职,5-10年,"['节日礼物', '年度旅游', '岗位晋升', '扁平管理']"
434,2194991,资深PHP开发,上海,2018-05-02 09:58:43,19.0,142324,旭胜金融信息服务股份有限公司,上海旭胜金融信息服务股份有限公司,150-500人,浦东新区,本科,B轮,金融,121.60522456,31.29906523,全职,5-10年,"['绩效奖金', '定期体检', '带薪年假', '领导好']"
435,2867881,PHP开发工程师,上海,2018-05-02 09:57:47,14.0,118569,SenseLuxury,上海墅假网络科技有限公司,15-50人,浦东新区,本科,B轮,"O2O,旅游",0.0,0.0,全职,3-5年,"['岗位晋升', '扁平管理', '美女多', '高端旅游']"
436,4339072,PHP开发工程师,广州,2018-05-02 09:37:19,9.6,28482,欧派,欧派家居集团有限公司,2000人以上,白云区,本科,上市公司,"生活服务,硬件",113.250551,23.17528,全职,3-5年,"['绩效奖金', '五险一金', '通讯津贴', '带薪年假']"
437,4199234,PHP开发工程师,北京,2018-04-27 16:47:45,18.2,22666,会小二网,北京云动数字媒体技术有限公司,150-500人,朝阳区,本科,B轮,"企业服务,移动互联网",116.501724,39.92885,全职,1-3年,"['精英化团队', '顶尖VC背书', '行业领先', '扁平化管理']"
438,4417166,PHP开发工程师,深圳,2018-04-26 18:10:27,14.0,23291,美图公司,厦门美图之家科技有限公司,500-2000人,南山区,本科,上市公司,"移动互联网,硬件",113.951672,22.540834,全职,1-3年,"['节日礼物', '与大牛共事', '福利健全', '五险一金']"
439,2133030,PHP开发工程师,上海,2018-04-19 19:07:17,24.0,4670,The NetCircle,人英网络（上海）有限公司,50-150人,普陀区,本科,不需要融资,"社交网络,数据服务",121.43034,31.24249987,全职,3-5年,"['年终分红', '五险一金', '交通补助', '带薪年假']"
440,4436457,PHP开发,北京,2018-04-17 16:51:05,14.0,210070,深睿医疗,北京深睿博联科技有限责任公司,50-150人,海淀区,本科,B轮,"移动互联网,医疗健康",116.312183,39.981536,全职,1-3年,"['股票期权', '年底双薪', '定期体检', '弹性工作']"
441,4433465,php研发工程师,北京,2018-04-17 12:45:19,10.8,62538,掌上先机-旺店通ERP,北京掌上先机网络科技有限公司,500-2000人,海淀区,本科,不需要融资,"移动互联网,电子商务",116.36229,39.97337305,全职,1-3年,"['技能培训', '节日礼物', '专项奖金', '带薪年假']"
442,2440194,PHP程序员,杭州,2018-04-16 14:12:18,12.0,69091,浙报集团,浙江日报报业集团,2000人以上,下城区,不限,不需要融资,"移动互联网,文化娱乐",119.993591,29.993662,全职,不限,"['带薪年假', '美女多', '定期体检', '人才公寓']"
443,3969946,高级PHP开发工程师,厦门,2018-05-03 09:34:36,19.0,26742,趣游（厦门）科技有限公司,趣游（厦门）科技有限公司,150-500人,湖里区,本科,不需要融资,移动互联网,118.156696,24.524271,全职,5-10年,"['绩效奖金', '年底双薪', '五险一金', '带薪年假']"
444,4498412,PHP工程师,上海,2018-05-03 09:14:04,12.0,69152,博奥特科技,深圳市博奥特科技有限公司,150-500人,浦东新区,本科,未融资,"移动互联网,金融",121.619985,31.256986,全职,3-5年,"['绩效奖金', '领导好', '帅哥多', '美女多']"
445,3810187,PHP,广州,2018-05-03 09:10:27,6.8,281289,泰商服,广州市泰商服信息科技有限公司,15-50人,番禺区,本科,不需要融资,"移动互联网,企业服务",113.364917,23.017308,全职,1-3年,"['绩效奖金', '年度旅游', '领导好', '五险一金']"
446,4508615,php开发工程师,深圳,2018-05-02 17:38:39,26.0,315614,深圳兴东,深圳兴东企业管理咨询有限公司,少于15人,福田区,大专,不需要融资,移动互联网,0.0,0.0,全职,3-5年,"['""""']"
447,4453588,高级PHP开发,广州,2018-05-02 14:03:16,10.8,64666,索菲亚家居,索菲亚家居股份有限公司,2000人以上,天河区,大专,上市公司,硬件,113.329393,23.132064,全职,3-5年,"['节日礼物', '技能培训', '绩效奖金', '年度旅游']"
448,4017384,php开发工程师,天津,2018-05-02 11:56:51,6.8,23777,聚成网络,天津和智聚成科技有限公司,15-50人,南开区,大专,天使轮,移动互联网,117.146491,39.137258,全职,1-3年,"['年终分红', '股票期权', '五险一金', '午餐补助']"
449,4006333,PHP初级工程师,北京,2018-05-02 09:59:54,11.2,14745,以太创服,艾普拉斯投资顾问（北京）有限公司,150-500人,朝阳区,本科,B轮,金融,116.471469,39.910169,全职,不限,"['绩效奖金', '股票期权', '投资机会', '其他公司股票']"
450,4282590,PHP工程师,北京,2018-05-02 09:54:03,26.0,4286,竞技世界,竞技世界（北京）网络技术有限公司,500-2000人,海淀区,本科,不需要融资,"移动互联网,游戏",116.312144,40.037377,全职,5-10年,"['节日礼物', '技能培训', '年底双薪', '年度旅游']"
451,4403849,PHP研发工程师,北京,2018-05-02 09:46:58,28.0,25592,新浪网,新浪网技术（中国）有限公司,2000人以上,海淀区,本科,上市公司,文化娱乐,116.276393,40.041208,全职,不限,"['免费班车', '岗位晋升', '五险一金', '定期体检']"
452,3791476,php工程师,北京,2018-05-02 09:18:15,14.0,3024,第一车网,北京阳光第一车网科技有限公司,150-500人,东城区,本科,B轮,"移动互联网,电子商务",116.432224,39.921837,全职,1-3年,"['技能培训', '自由空间', '带薪年假', '岗位晋升']"
453,314389,PHP开发工程师,中山,2018-05-02 08:48:49,8.2,28003,读书郎,中山市读书郎电子有限公司,500-2000人,中山市市辖区,本科,不需要融资,移动互联网,113.41829768,22.48849411,全职,1-3年,"['绩效奖金', '年底双薪', '五险一金', '通讯津贴']"
454,3152657,高级PHP开发工程师,北京,2018-05-01 23:00:19,33.6,50702,美团点评,北京三快在线科技有限公司,2000人以上,朝阳区,本科,D轮及以上,"移动互联网,O2O",116.466554,39.995147,全职,3-5年,"['技能培训', '绩效奖金', '岗位晋升', '领导好']"
455,3041918,PHP开发攻城狮,北京,2018-04-27 19:25:32,21.0,107423,瓜子二手车直卖网,车好多旧机动车经纪(北京)有限公司,2000人以上,海淀区,本科,C轮,O2O,116.29845,40.04261006,全职,1-3年,"['带薪年假', '弹性工作', '免费班车', '美女多']"
456,4495835,PHP开发工程师,上海,2018-04-27 17:53:02,13.2,127826,校妆网,上海校妆科技有限公司,500-2000人,嘉定区,大专,不需要融资,"电子商务,移动互联网",121.321867,31.289674,全职,3-5年,"['带薪年假', '午餐补助', '节日福利', '年终奖']"
457,3467029,资深PHP开发工程师,上海,2018-05-03 09:20:28,19.0,23912,好食期&爱抢购,上海多维度网络科技股份有限公司,150-500人,徐汇区,本科,上市公司,"电子商务,O2O",120.993464,30.994061,全职,3-5年,"['节日礼物', '股票期权', '带薪年假', '岗位晋升']"
458,3094866,高级PHP开发工程师,济南,2018-05-03 08:48:46,13.2,67576,车满满,车满满（北京）信息技术有限公司,150-500人,高新区,本科,B轮,移动互联网,0.0,0.0,全职,3-5年,"['业内第一', '技能培训', '股票期权', '弹性工作']"
459,4445603,高级PHP开发工程师,上海,2018-05-02 18:27:12,15.8,251737,享换机,晋松（上海）网络信息技术有限公司,50-150人,杨浦区,本科,A轮,"移动互联网,金融",121.51243,31.304638,全职,3-5年,"['相互成就', '敢想敢做', '消费场景', '趋势改变习惯']"
460,4178487,PHP资深工程师,深圳,2018-05-02 18:12:42,19.0,103271,白熊事务所,深圳找份工作科技有限公司,15-50人,南山区,不限,天使轮,"移动互联网,招聘",113.957553,22.538258,全职,3-5年,"['年底双薪', '带薪年假', '扁平管理', '领导好']"
461,4046255,PHP开发工程师,上海,2018-05-02 17:41:29,8.2,53541,Master达人,北京时时科技股份有限公司,15-50人,黄浦区,本科,天使轮,"移动互联网,教育",121.47889,31.22244,全职,1-3年,"['技能培训', '节日礼物', '年底双薪', '股票期权']"
462,4131174,PHP开发工程师,深圳,2018-05-02 16:40:14,12.0,192318,车网联盟,深圳市车网联盟科技有限公司,50-150人,罗湖区,大专,未融资,"O2O,其他",114.120147,22.555643,全职,3-5年,"['年底双薪', '股票期权', '带薪年假', '定期体检']"
463,3990698,PHP开发,北京,2018-05-02 16:06:34,14.0,298156,弧光之源,北京弧光之源文化传播有限公司,15-50人,大兴区,本科,未融资,移动互联网 广告营销,116.540577,39.765711,全职,3-5年,"['""""']"
464,4088311,高级PHP开发工程师,广州,2018-05-02 15:58:18,24.0,242768,阿米巴,汕头市阿米巴网络科技有限公司,150-500人,越秀区,本科,不需要融资,"移动互联网,电子商务",113.295453,23.136383,全职,3-5年,"['年底双薪', '定期体检', '五险一金', '带薪年假']"
465,2426842,PHP应用研发工程师,北京,2018-05-02 15:40:55,21.0,740,时趣social-touch,时趣互动（北京）科技有限公司,500-2000人,朝阳区,本科,D轮及以上,移动互联网,116.468271,39.892736,全职,1-3年,"['弹性工作', '年终奖金', '个性福利', '带薪年假']"
466,4425291,PHP开发工程师,上海,2018-05-02 13:56:47,12.0,134763,点美,上海点美投资咨询有限公司,50-150人,闵行区,大专,不需要融资,"O2O,生活服务",121.379627,31.179584,全职,3-5年,[]
467,4234268,PHP开发工程师,金华,2018-05-02 13:54:26,11.2,226556,流金科技,金华流金科技有限公司,50-150人,婺城区,大专,未融资,"游戏,移动互联网",119.628003,29.089004,全职,1-3年,[]
468,2982136,PHP开发工程师,北京,2018-05-02 10:23:37,25.2,436,360,奇虎360科技有限公司,2000人以上,朝阳区,本科,上市公司,"移动互联网,游戏",116.49131503,39.96517336,全职,3-5年,[]
469,4327382,PHP工程师,北京,2018-05-02 09:21:16,12.0,173801,龙源通惠,北京龙源通惠投资集团有限公司,50-150人,朝阳区,本科,未融资,教育,116.510689,39.904364,全职,1-3年,"['带薪年假', '绩效奖金', '节日礼物', '管理规范']"
470,2726092,PHP工程师,北京,2018-05-01 17:54:57,12.0,40618,盖娅互娱,北京盖娅互娱网络科技股份有限公司,500-2000人,朝阳区,本科,上市公司,"移动互联网,游戏",116.486624,40.000825,全职,1-3年,"['史上最牛团队', '五险一金', '超豪华办公室', '弹性工作']"
471,4311727,PHP开发工程师,杭州,2018-04-30 09:05:54,14.0,275288,子不语,浙江子不语电子商务有限公司,500-2000人,江干区,大专,未融资,"电子商务,移动互联网",120.308876,30.406,全职,3-5年,"['股票期权', '带薪年假', '绩效奖金', '定期体检']"
472,4471741,php工程师,成都,2018-04-28 10:45:18,15.2,676,小猪短租,北京快跑信息科技有限公司,150-500人,锦江区,本科,D轮及以上,电子商务,104.092827,30.587554,全职,3-5年,"['岗位晋升', '领导好', '管理规范', '带薪年假']"
473,2209450,PHP,深圳,2018-04-27 15:18:45,16.2,41889,脑洞科技,深圳市脑洞科技有限公司,50-150人,南山区,大专,不需要融资,"移动互联网,教育",113.94062999,22.54108,全职,5-10年,"['专项奖金', '股票期权', '绩效奖金', '领导好']"
474,3293029,PHP开发,深圳,2018-05-03 09:32:37,7.6,99937,联信通科技,深圳市联信通科技股份有限公司,50-150人,,大专,不需要融资,"移动互联网,其他",,,全职,1-3年,"['节日礼物', '绩效奖金', '午餐补助', '定期体检']"
475,3657281,PHP开发工程师,深圳,2018-05-02 18:27:52,16.8,94109,天天看看,深圳天天看看信息技术有限公司,150-500人,南山区,本科,不需要融资,"移动互联网,文化娱乐",113.919981,22.496842,全职,1-3年,"['年底双薪', '股票期权', '带薪年假', '绩效奖金']"
476,3699202,PHP工程师,济南,2018-05-02 18:11:03,7.0,250485,山东大众海蓝,山东大众海蓝信息科技有限公司,50-150人,历下区,大专,不需要融资,电子商务、企业服务,0.0,0.0,全职,1-3年,"['交通补助', '通讯津贴', '带薪年假', '定期体检']"
477,4028457,PHP开发工程师,广州,2018-05-02 14:51:35,10.8,20473,广州棒谷科技股份有限公司,广州棒谷科技股份有限公司,2000人以上,白云区,大专,不需要融资,电子商务,113.271506,23.175202,全职,1-3年,"['项目奖金', '绩效奖金', '年终奖', '五险一金']"
478,4228345,高级PHP开发工程师,北京,2018-05-02 14:29:17,35.0,3234,孔夫子旧书网,北京古城堡图书有限公司,50-150人,朝阳区,本科,未融资,电子商务,116.493216,40.038117,全职,5-10年,"['节日礼物', '水果敞开吃', '领导好', '美女多']"
479,4505969,PHP研发工程师,武汉,2018-05-02 14:00:54,7.6,376686,珞珈新图,武汉珞珈新图科技有限公司,15-50人,洪山区,本科,未融资,"移动互联网,企业服务",114.355548,30.533514,全职,不限,"['""""']"
480,664930,PHP,成都,2018-05-02 13:13:56,10.8,56340,盛趣时代,四川盛趣时代网络科技有限公司,150-500人,高新区,本科,不需要融资,"移动互联网,电子商务",104.05529485,30.58713522,全职,3-5年,"['节日礼物', '美女多', '领导好', '五险一金']"
481,4428668,高级PHP研发工程师,北京,2018-05-02 11:02:52,29.0,202067,优信集团,优舫（北京）信息科技有限公司,2000人以上,朝阳区,本科,D轮及以上,"电子商务,移动互联网",116.481049,39.996796,全职,5-10年,"['绩效奖金', '通讯津贴', '带薪年假', '交通补助']"
482,2220543,PHP工程师,上海,2018-05-02 11:01:23,14.0,42899,小蚁,上海小蚁科技有限公司,150-500人,,本科,C轮,"移动互联网,硬件",121.60033681,31.20751133,全职,1-3年,"['年底双薪', '节日礼物', '技能培训', '年度旅游']"
483,4309986,PHP,合肥,2018-05-02 10:38:26,6.2,349729,席城网络,合肥市席城网络科技有限公司,少于15人,高新区,不限,未融资,移动互联网、电子商务,,,全职,1-3年,"['""""']"
484,3844640,资深PHP开发工程师,上海,2018-05-02 10:17:29,22.8,251737,享换机,晋松（上海）网络信息技术有限公司,50-150人,杨浦区,本科,A轮,"移动互联网,金融",121.510403,31.306124,全职,5-10年,"['相互成就', '敢想敢做', '消费场景', '趋势改变习惯']"
485,3300296,初中级PHP开发工程师,广州,2018-05-02 09:41:44,14.0,6580,美甲帮,广州牧云网络科技有限公司,150-500人,天河区,本科,B轮,移动互联网,113.340722,23.175132,全职,1-3年,"['节日礼物', '年底双薪', '专项奖金', '股票期权']"
486,1444889,PHP开发工程师,厦门,2018-05-02 09:19:47,5.6,74438,亿动,厦门亿动网络科技有限公司,15-50人,思明区,大专,天使轮,移动互联网,,,全职,不限,"['节日礼物', '年底双薪', '带薪年假', '岗位晋升']"
487,3667661,PHP,上海,2018-05-02 09:19:06,21.0,126467,商米科技,上海商米科技有限公司,150-500人,杨浦区,本科,C轮,O2O,121.512935,31.307607,全职,3-5年,"['股票期权', '绩效奖金', '定期体检', '带薪年假']"
488,3847442,PHP开发工程师,成都,2018-04-28 10:03:47,12.0,44600,天府·星空购物集团,成都天府星空网络科技有限公司,150-500人,高新区,本科,不需要融资,电子商务,104.079742,30.653146,全职,3-5年,"['技能培训', '节日礼物', '带薪年假', '绩效奖金']"
489,4463365,PHP开发工程师,深圳,2018-04-28 09:30:51,10.6,170289,安印科技,深圳市安印科技有限公司,150-500人,南山区,本科,不需要融资,"移动互联网,信息安全",113.93499,22.543393,全职,1-3年,"['年底双薪', '带薪年假', '绩效奖金', '定期体检']"
490,4288645,PHP开发工程师,北京,2018-04-26 18:53:37,19.0,28659,奥琦玮,奥琦玮信息科技（北京）有限公司,150-500人,海淀区,本科,B轮,"移动互联网,O2O",116.351271,40.06135,全职,3-5年,"['年底双薪', '带薪年假', '交通补助', '定期体检']"
491,4372089,PHP应用开发工程师,北京,2018-04-25 15:35:33,8.4,83192,衣川文化,衣川文化（北京）有限公司,50-150人,朝阳区,本科,B轮,移动互联网,116.464353,39.978038,全职,应届毕业生,"['股票期权', '靠谱项目', '扁平化管理', '五险一金']"
492,4279462,PHP,上海,2018-05-03 09:35:56,17.8,72838,雷速体育,上海炫体信息科技有限公司,50-150人,虹口区,不限,不需要融资,"移动互联网,社交网络",121.487197,31.250622,全职,3-5年,"['节日礼物', '年底双薪', '专项奖金', '带薪年假']"
493,3184371,php开发工程师-深圳-01168,深圳,2018-05-03 09:23:06,12.0,19313,网宿科技,网宿科技股份有限公司北京分公司,2000人以上,光明新区,大专,上市公司,移动互联网,113.895025,22.805262,全职,3-5年,"['年底双薪', '五险一金', '交通补助', '带薪年假']"
494,3756161,PHP研发工程师,北京,2018-05-02 18:46:01,24.8,278671,网信,北京网信金服信息科技有限公司,500-2000人,朝阳区,本科,不需要融资,"金融,移动互联网",116.465647,39.958355,全职,5-10年,"['定期体检', '午餐补助', '带薪年假', '弹性工作']"
495,2553911,高级PHP开发工程师,北京,2018-05-02 16:10:13,24.0,121798,全民共赢,北京全民共赢网络科技有限公司,15-50人,朝阳区,本科,A轮,"移动互联网,企业服务",116.4511,39.962026,全职,3-5年,"['定期体检', '带薪年假', '五险一金', '弹性工作']"
496,3472164,php工程师,厦门,2018-05-02 13:34:54,10.8,103360,美华通,美华通（厦门）网络科技有限公司,15-50人,思明区,大专,未融资,"旅游,分类信息",118.184529,24.485507,全职,3-5年,"['节日礼物', '年底双薪', '股票期权', '带薪年假']"
497,4212041,高级PHP研发工程师,北京,2018-05-02 12:08:13,21.0,202067,优信集团,优舫（北京）信息科技有限公司,2000人以上,朝阳区,本科,D轮及以上,"电子商务,移动互联网",116.481049,39.996796,全职,3-5年,"['绩效奖金', '通讯津贴', '带薪年假', '交通补助']"
498,4303493,PHP工程师,广州,2018-05-02 11:39:57,10.8,93656,火舞游戏,广州火舞软件开发股份有限公司,150-500人,天河区,大专,上市公司,游戏,112.993461,22.994261,全职,1-3年,"['年底双薪', '专项奖金', '带薪年假', '年终分红']"
499,4504752,PHP工程师,广州,2018-05-02 11:06:37,7.0,157207,云石动力,广州云石动力科技有限公司,50-150人,白云区,大专,不需要融资,"移动互联网,企业服务",113.233494,23.21051,全职,1-3年,"['专项奖金', '绩效奖金', '年度旅游', '弹性工作']"
500,4374852,PHP开发工程师,杭州,2018-05-02 10:48:29,19.0,10483,abc360,杭州旦悦科技有限公司,500-2000人,滨江区,本科,B轮,教育,119.993591,29.993662,全职,3-5年,"['专项奖金', '年底双薪', '绩效奖金', '五险一金']"
501,4351374,高级PHP开发工程师,广州,2018-05-02 10:07:59,14.0,211382,手趣,广州手趣网络科技有限公司,50-150人,天河区,大专,不需要融资,"移动互联网,游戏",113.347341,23.143817,全职,1-3年,"['扁平管理', '领导好', '工作餐', '周末双休']"
502,3760977,PHP开发工程师,重庆,2018-05-02 09:51:45,11.2,278793,马泽福,重庆马泽福电子商务有限公司,50-150人,渝北区,本科,不需要融资,电子商务,0.0,0.0,全职,3-5年,"['""""']"
503,220797,PHP,天津,2018-05-02 09:26:02,7.0,34492,晟轩科技,天津晟轩网络科技有限公司,15-50人,河北区,不限,未融资,"移动互联网,O2O",0.0,0.0,全职,1-3年,"['带薪年假', '年度旅游', '帅哥多', '美女多']"
504,2474321,PHP研发工程师,厦门,2018-05-02 09:22:10,5.6,151196,林讯科技,厦门林讯信息科技有限公司,少于15人,思明区,大专,未融资,"移动互联网,文化娱乐",118.187738,24.488763,全职,不限,"['午餐补助', '弹性工作', '岗位晋升', '老板好']"
505,4338081,PHP工程师,佛山,2018-05-02 09:11:49,12.0,29157,联塑集团,广东联塑科技实业有限公司,2000人以上,顺德区,本科,上市公司,生活服务,113.07374,22.86874,全职,1-3年,"['技能培训', '岗位晋升', '管理规范', '上市公司']"
506,4248138,PHP程序员,珠海,2018-05-02 08:41:15,6.6,178021,端点科技,珠海端点科技有限公司,少于15人,香洲区,大专,未融资,"移动互联网,O2O",113.5595,22.271293,全职,1-3年,"['专项奖金', '绩效奖金', '弹性工作', '年度旅游']"
507,493822,PHP,潍坊,2018-05-02 07:57:19,6.2,54573,中呼集团,山东中呼信息科技有限公司,500-2000人,奎文区,大专,不需要融资,"移动互联网,其他",119.1658,36.721313,全职,1-3年,"['节日礼物', '技能培训', '专项奖金', '绩效奖金']"
508,4066519,PHP开发工程师,深圳,2018-04-30 10:24:47,13.2,158309,Topkee Media,信迪网络资讯有限公司,150-500人,福田区,本科,不需要融资,"广告营销,社交网络",114.023844,22.530687,全职,1-3年,"['年底双薪', '带薪年假', '弹性工作', '领导好']"
509,4467409,PHP开发,深圳,2018-04-27 09:58:14,11.2,2044,金斧子,深圳市金斧子网络科技有限公司,500-2000人,南山区,本科,C轮,"金融,移动互联网",113.943551,22.548179,全职,1-3年,"['股票期权', '绩效奖金', '年底双薪', '五险一金']"
510,4132747,资深PHP/PHP专家,北京,2018-04-25 11:19:14,31.0,109,马蜂窝,北京蚂蜂窝网络科技有限公司,500-2000人,朝阳区,本科,D轮及以上,"移动互联网,旅游",0.0,0.0,全职,5-10年,"['弹性工作', '扁平管理', '氛围好', '年度体检']"
511,4117089,PHP开发,上海,2018-04-19 19:07:17,24.0,4670,The NetCircle,人英网络（上海）有限公司,50-150人,普陀区,本科,不需要融资,"社交网络,数据服务",120.993464,30.994061,全职,5-10年,"['年终分红', '五险一金', '交通补助', '带薪年假']"
512,1017676,PHP,长沙,2018-04-19 10:51:20,8.2,91446,纳联科技,长沙纳联网络科技有限公司,15-50人,天心区,大专,天使轮,"移动互联网,广告营销",112.972041,28.15041,全职,1-3年,"['年底双薪', '绩效奖金', '年度旅游', '扁平管理']"
513,3974839,PHP开发工程师,深圳,2018-04-17 09:12:09,12.0,26864,亿乐谷,深圳市亿乐谷科技有限公司,150-500人,宝安区,大专,D轮及以上,电子商务,113.838846,22.605872,全职,3-5年,"['绩效奖金', '五险一金', '带薪年假', '年度旅游']"
514,4380718,资深架构设计师-PHP,北京,2018-05-02 16:21:28,36.0,4286,竞技世界,竞技世界（北京）网络技术有限公司,500-2000人,海淀区,本科,不需要融资,"移动互联网,游戏",116.312136,40.037381,全职,10年以上,"['节日礼物', '技能培训', '年底双薪', '年度旅游']"
515,3025115,PHP开发工程师,武汉,2018-05-02 15:32:46,6.2,131956,博览财经,武汉博览财经金融服务股份有限公司,150-500人,洪山区,大专,不需要融资,"金融,移动互联网",114.39845,30.49766,全职,1-3年,"['年底双薪', '带薪年假', '五险一金']"
516,4389867,PHP开发工程师,上海,2018-05-02 11:50:18,8.4,213472,麦广互娱,上海麦广互娱文化传媒股份有限公司,50-150人,浦东新区,本科,不需要融资,"移动互联网,广告营销",121.602647,31.201072,全职,不限,[]
517,1604101,PHP开发工程师,广州,2018-05-02 11:43:50,10.8,12195,要出发,广州酷旅旅行社有限公司,500-2000人,天河区,本科,D轮及以上,"电子商务,生活服务",113.373772,23.12407,全职,1-3年,"['牛人云集', '技能培训', '豪华下午茶', '酒店预订']"
518,3691679,高级PHP研发工程师,北京,2018-05-02 11:15:33,18.6,111175,ZingFront智线,智线云科技（北京）有限公司,50-150人,朝阳区,本科,A轮,"移动互联网,数据服务",116.472483,39.93868,全职,3-5年,"['绩效奖金', '股票期权', '带薪年假', '弹性工作']"
519,3773990,资深PHP开发工程师,北京,2018-05-02 10:53:30,28.0,107423,瓜子二手车直卖网,车好多旧机动车经纪(北京)有限公司,2000人以上,海淀区,本科,C轮,O2O,116.299936,40.043116,全职,5-10年,"['带薪年假', '弹性工作', '免费班车', '美女多']"
520,3772060,PHP工程师,北京,2018-05-02 10:03:58,21.0,142041,奇虎360金融,上海淇毓信息科技有限公司,500-2000人,朝阳区,本科,未融资,"移动互联网,金融",116.4901,39.982669,全职,3-5年,"['年底双薪', '股票期权', '带薪年假', '定期体检']"
521,3945619,php程序员,郑州,2018-05-02 10:00:16,6.8,275564,卡农社区,郑州卡农企业管理咨询有限公司,15-50人,管城区,不限,未融资,"电子商务,社交网络",113.681751,34.752398,全职,1-3年,[]
522,3945656,php程序员,郑州,2018-05-02 09:59:47,8.8,282893,郑州高星金融服务有限公司,郑州高星金融服务有限公司,15-50人,管城区,不限,未融资,金融,113.682018,34.747117,全职,3-5年,[]
523,4250082,PHP高级工程师,深圳,2018-05-02 09:30:28,33.6,64620,久趣英语,厦门千时科技有限公司,150-500人,南山区,本科,B轮,教育,0.0,0.0,全职,5-10年,"['带薪年假', '年度旅游', '管理规范', '领导好']"
524,4425652,PHP高级工程师,广州,2018-05-02 09:17:38,17.0,114491,智安天使科技,广州智安天使网络科技有限公司,50-150人,天河区,本科,不需要融资,"移动互联网,广告营销",113.338715,23.12602,全职,3-5年,"['年底双薪', '绩效奖金', '带薪年假', '年终分红']"
525,2753682,PHP程序开发,深圳,2018-04-27 14:08:55,10.8,119848,国人在线,深圳市国人在线信息技术有限公司,150-500人,龙华新区,大专,不需要融资,"电子商务,企业服务",0.0,0.0,全职,1-3年,"['管理规范', '启动上市计划', '外部学习机会', '岗位晋升']"
526,2208943,PHP,合肥,2018-04-26 17:28:24,8.4,36272,飞常准,飞友科技有限公司,150-500人,蜀山区,本科,A轮,移动互联网,,,全职,1-3年,"['节日礼物', '年度旅游', '管理规范', '五险一金']"
527,4349695,PHP开发工程师,深圳,2018-04-25 11:12:32,15.2,267905,上海炽聚,上海炽聚网络科技有限公司,50-150人,南山区,本科,A轮,"电子商务,企业服务",113.906419,22.49691,全职,1-3年,"['绩效奖金', '交通补助', '带薪年假', '定期体检']"
528,4434164,PHP开发工程师,北京,2018-04-23 13:02:45,26.0,133382,百乘金控,北京百乘科技有限公司,500-2000人,朝阳区,本科,上市公司,金融,116.387716,39.999053,全职,5-10年,"['带薪年假', '午餐补助', '扁平管理', '技能培训']"
529,1469993,PHP,大连,2018-05-03 09:04:44,7.0,66655,青年黑卡,大连溦风科技有限公司,50-150人,中山区,大专,A轮,"移动互联网,旅游",121.654538,38.924548,全职,3-5年,"['年终分红', '年底双薪', '股票期权', '专项奖金']"
530,4449648,PHP工程师,厦门,2018-05-02 18:05:10,6.8,170789,麦口科技,福建麦口信息科技有限公司,15-50人,思明区,大专,未融资,移动互联网,118.177655,24.490626,全职,1-3年,"['年底双薪', '专项奖金', '交通补助', '绩效奖金']"
531,4142610,PHP开发工程师-品牌活动研发,北京,2018-05-02 10:20:47,29.0,5832,新浪微博,微梦创科网络科技（中国）有限公司,2000人以上,海淀区,本科,上市公司,移动互联网,0.0,0.0,全职,3-5年,"['年底双薪', '专项奖金', '股票期权', '五险一金']"
532,3972663,高级PHP开发工程师,北京,2018-05-02 10:04:33,28.0,172285,猎户星空,北京猎户星空科技有限公司,150-500人,朝阳区,本科,A轮,"移动互联网,硬件",116.458741,39.932851,全职,5-10年,"['年度旅游', '弹性工作', '领导好', '五险一金']"
533,4336988,php开发工程师,郑州,2018-05-02 10:00:16,6.8,275564,卡农社区,郑州卡农企业管理咨询有限公司,15-50人,管城区,不限,未融资,"电子商务,社交网络",,,全职,1-3年,[]
534,3409085,PHP工程师,南阳,2018-05-02 09:56:01,5.2,178032,E-投牛,河南投牛科技有限公司,50-150人,宛城区,本科,未融资,移动互联网,112.57951,33.01419,全职,1-3年,"['年底双薪', '股票期权', '带薪年假', '年终分红']"
535,3714677,高级PHP开发工程师,长沙,2018-05-02 09:48:07,12.0,24931,九春教育,海南九春教育科技股份有限公司,150-500人,岳麓区,大专,上市公司,"移动互联网,教育",112.9544,28.22342,全职,3-5年,"['五险一金', '带薪年假', '节日礼物', '午餐补助']"
536,3600920,PHP开发工程师,厦门,2018-05-02 09:43:57,10.8,6980,WiFi 伴侣,厦门众联世纪科技有限公司,50-150人,思明区,本科,A轮,移动互联网,117.993493,23.994066,全职,1-3年,"['13-15薪', '六险一金', '弹性工作', '带薪年假']"
537,4436060,php工程师,北京,2018-05-02 09:43:17,14.0,113761,企鹅创新,企鹅创新（北京）科技有限公司,15-50人,朝阳区,本科,天使轮,"硬件,移动互联网",116.480792,39.996,全职,1-3年,[]
538,661268,PHP工程师,北京,2018-05-01 17:54:57,14.0,40618,盖娅互娱,北京盖娅互娱网络科技股份有限公司,500-2000人,朝阳区,本科,上市公司,"移动互联网,游戏",116.486103,40.00037806,全职,1-3年,"['史上最牛团队', '五险一金', '超豪华办公室', '弹性工作']"
539,3364884,PHP高级研发工程师,北京,2018-04-30 22:49:10,19.0,83363,乐惠,乐惠（北京）科技有限公司,150-500人,海淀区,本科,A轮,"移动互联网,电子商务",116.35267,40.000958,全职,3-5年,"['扁平管理', '五险一金', '股票期权', '带薪年假']"
540,4279187,PHP开发工程师,杭州,2018-04-27 13:13:43,12.0,344288,杭州智团,杭州智团信息技术有限公司,15-50人,滨江区,本科,不需要融资,医疗健康,120.179643,30.18819,全职,1-3年,"['""""']"
541,4266269,PHP开发工程师,北京,2018-04-26 14:09:21,28.0,956,金山云,北京金山云网络技术有限公司,500-2000人,海淀区,本科,C轮,"移动互联网,数据服务",116.310195,40.039018,全职,3-5年,"['技能培训', '节日礼物', '瑜伽房', '免费班车']"
542,4290362,php软件开发,北京,2018-04-23 14:21:06,24.8,286452,今晨盛辉,北京今晨盛辉信息技术有限公司,50-150人,朝阳区,本科,不需要融资,金融,116.492054,39.996385,全职,3-5年,"['带薪年假', '年终分红', '扁平管理', '合规有牌照']"
543,4022120,高级PHP开发工程师,厦门,2018-05-03 09:34:36,17.8,26742,趣游（厦门）科技有限公司,趣游（厦门）科技有限公司,150-500人,湖里区,本科,不需要融资,移动互联网,118.156696,24.524271,全职,5-10年,"['绩效奖金', '年底双薪', '五险一金', '带薪年假']"
544,3076678,PHP开发工程师,东莞,2018-05-03 08:45:02,8.8,50243,多宝贷,广东莞贷互联网信息服务有限公司,150-500人,东莞市市辖区,大专,A轮,金融,113.738947,23.008995,全职,1-3年,"['通讯津贴', '带薪年假', '绩效奖金', '年底双薪']"
545,3912399,PHP开发工程师,广州,2018-05-02 18:30:16,19.0,658,三七互娱,三七互娱（上海）科技有限公司,2000人以上,天河区,本科,上市公司,游戏,112.993461,22.994261,全职,应届毕业生,"['绩效奖金', '五险一金', '通讯津贴', '交通补助']"
546,4261825,PHP开发工程师,厦门,2018-05-02 14:52:28,5.2,82763,联图,厦门联图网络科技有限公司,15-50人,思明区,大专,A轮,"移动互联网,旅游",118.178805,24.491003,全职,1-3年,"['节日礼物', '年底双薪', '免费班车', '专项奖金']"
547,4165058,中级php开发工程师,广州,2018-05-02 14:37:25,14.0,4206,汇桔网,广州博鳌纵横网络科技有限公司,2000人以上,萝岗区,本科,C轮,"企业服务,O2O",113.45678124,23.17165026,全职,3-5年,"['股票期权', '带薪年假', '绩效奖金', '岗位晋升']"
548,3203655,PHP工程师,上海,2018-05-02 13:08:59,13.2,173487,千城智联,千城智联（上海）网络科技有限公司,50-150人,长宁区,大专,不需要融资,移动互联网,121.396233,31.205624,全职,3-5年,"['午餐补助', '带薪年假', '五险一金', '全勤奖']"
549,4213050,PHP开发工程师,北京,2018-05-02 11:54:54,24.0,54448,云像数字,云像（上海）数字技术有限公司,150-500人,朝阳区,本科,B轮,"数据服务,广告营销",116.494172,39.974093,全职,3-5年,"['技能培训', '节日礼物', '绩效奖金', '年度旅游']"
550,3886123,PHP高级开发,北京,2018-05-02 10:50:45,19.0,157387,水母基因,北京水母科技有限公司,50-150人,通州区,本科,A轮,"医疗健康,移动互联网",116.570329,39.781515,全职,3-5年,"['年底双薪', '午餐补助', '股票期权', '带薪年假']"
551,4405593,php应用开发工程师,北京,2018-05-02 10:20:44,24.0,5832,新浪微博,微梦创科网络科技（中国）有限公司,2000人以上,海淀区,本科,上市公司,移动互联网,0.0,0.0,全职,1-3年,"['年底双薪', '专项奖金', '股票期权', '五险一金']"
552,3957541,PHP工程师,无锡,2018-05-02 10:17:32,5.2,270871,数据百家,无锡数据百家科技有限公司,15-50人,滨湖区,本科,A轮,"移动互联网,数据服务",120.269542,31.468059,全职,应届毕业生,[]
553,3875584,PHP,北京,2018-05-02 10:05:21,14.0,1992,有利网,北京弘合柏基金融信息服务有限责任公司,500-2000人,朝阳区,本科,A轮,金融,116.456076,39.948051,全职,3-5年,"['岗位晋升', '股票期权', '绩效奖金', '定期体检']"
554,4458471,初级PHP开发工程师,广州,2018-05-02 10:04:48,4.4,156247,每日V,广州百帆信息科技有限公司,15-50人,天河区,大专,A轮,移动互联网,113.317184,23.140335,全职,1-3年,"['绩效奖金', '带薪年假', '年终分红', '包餐/餐补']"
555,3945668,PHP开发工程师,郑州,2018-05-02 09:59:47,8.8,282893,郑州高星金融服务有限公司,郑州高星金融服务有限公司,15-50人,管城区,不限,未融资,金融,113.682018,34.747117,全职,应届毕业生,[]
556,3836629,PHP工程师,郑州,2018-05-02 09:59:30,8.8,282903,河南红尘智慧电子科技有限公司,河南红尘智慧电子科技有限公司,15-50人,管城回族区,大专,未融资,金融,113.682018,34.747117,全职,1-3年,[]
557,3919955,PHP工程师,北京,2018-05-02 09:38:36,20.2,7094,The ONE,小叶子（北京）科技有限公司,150-500人,朝阳区,本科,C轮,"硬件,教育",116.469451,40.018758,全职,3-5年,"['优秀团队', '篮球羽毛球队', '13薪', '技术大牛多']"
558,4272057,资深PHP,深圳,2018-05-01 23:22:09,17.0,31745,找靓机网,深圳市万事富科技有限公司,50-150人,福田区,大专,B轮,"移动互联网,电子商务",114.083397,22.539045,全职,5-10年,"['技能培训', '绩效奖金', '岗位晋升', '扁平管理']"
559,3218595,PHP高级研发工程师,北京,2018-04-30 22:49:10,21.0,83363,乐惠,乐惠（北京）科技有限公司,150-500人,海淀区,本科,A轮,"移动互联网,电子商务",116.35267,40.000958,全职,3-5年,"['扁平管理', '五险一金', '股票期权', '带薪年假']"
560,4354713,PHP开发工程师-中高级,上海,2018-04-28 14:43:52,21.0,202104,趣头条,上海基分文化传播有限公司,500-2000人,浦东新区,大专,不需要融资,移动互联网,121.624653,31.226515,全职,3-5年,"['专项奖金', '带薪年假', '弹性工作', '管理规范']"
561,3038382,PHP研发工程师！,北京,2018-04-27 19:25:31,21.0,107423,瓜子二手车直卖网,车好多旧机动车经纪(北京)有限公司,2000人以上,海淀区,本科,C轮,O2O,116.29845,40.04261006,全职,1-3年,"['带薪年假', '弹性工作', '免费班车', '美女多']"
562,922828,PHP,北京,2018-04-26 11:14:14,26.0,17751,人人车,北京善义善美科技有限公司,2000人以上,朝阳区,本科,D轮及以上,O2O,116.440419,40.04146206,全职,不限,"['岗位晋升', '扁平管理', '个人成长快', '牛人多']"
563,4368470,初级PHP工程师,广州,2018-04-23 23:51:29,5.4,70967,移步到微,广州三尺信息科技有限公司,15-50人,天河区,本科,A轮,"移动互联网,企业服务",113.32081,23.16259,全职,不限,"['股票期权', '绩效奖金', '扁平管理', '弹性工作']"
564,1386721,PHP,北京,2018-05-03 09:25:55,15.2,111646,北京模卡,北京模卡互动科技有限公司,50-150人,朝阳区,不限,A轮,"移动互联网,社交网络",116.490124,39.966085,全职,3-5年,"['年底双薪', '股票期权', '专项奖金', '带薪年假']"
565,2633860,PHP开发工程师,常州,2018-05-03 09:14:50,6.8,92867,货运宝,常州易呼通物流科技有限公司,50-150人,武进区,大专,不需要融资,"移动互联网,O2O",119.858261,31.706029,全职,3-5年,"['技能培训', '专项奖金', '带薪年假', '岗位晋升']"
566,4172421,PHP开发,广州,2018-05-03 09:10:26,6.8,281289,泰商服,广州市泰商服信息科技有限公司,15-50人,,本科,不需要融资,"移动互联网,企业服务",113.364917,23.017308,全职,1-3年,"['绩效奖金', '年度旅游', '领导好', '五险一金']"
567,2814160,PHP开发工程师（应届生）,北京,2018-05-02 15:31:34,14.0,99903,环球优学教育集团,环球优学（北京）教育咨询有限公司,500-2000人,海淀区,本科,上市公司,"移动互联网,教育",116.32353221,39.96078481,实习,应届毕业生,"['节日礼物', '股票期权', '带薪年假', '绩效奖金']"
568,4311886,高级PHP开发工程师,北京,2018-05-02 11:24:47,24.0,27129,巧达数据,巧达科技（北京）有限公司,50-150人,海淀区,本科,B轮,"企业服务,数据服务",116.311797,39.983663,全职,5-10年,"['工作居住证', '股票期权', '五险一金', '弹性工作']"
569,4165526,PHP开发工程师,深圳,2018-05-02 11:20:01,10.8,97752,消费保,深圳市消费宝网络科技有限公司,50-150人,南山区,大专,天使轮,移动互联网,0.0,0.0,全职,1-3年,"['股票期权', '绩效奖金', '年度旅游', '领导好']"
570,3595573,PHP开发工程师,广州,2018-05-02 11:09:02,12.0,120196,广州国开信息科技有限公司,广州国开信息科技有限公司,50-150人,天河区,本科,不需要融资,移动互联网,0.0,0.0,全职,3-5年,[]
571,4380959,PHP开发,杭州,2018-05-02 10:46:50,7.6,52124,极爱网络,杭州极爱网络科技有限公司,15-50人,西湖区,大专,天使轮,移动互联网,120.078646,30.290994,全职,1-3年,"['股票期权', '岗位晋升', '扁平管理', '帅哥多']"
572,4089781,PHP软件工程师,沈阳,2018-05-02 10:33:12,4.8,250369,西信科技,沈阳西信科技有限责任公司,15-50人,和平区,大专,未融资,数据服务,,,全职,1-3年,[]
573,4176947,PHP开发工程师,广州,2018-05-02 10:08:40,5.8,25626,每日Q,广州市千云信息科技有限公司,50-150人,天河区,本科,A轮,"移动互联网,游戏",113.317184,23.140335,全职,1-3年,"['技能培训', '年底双薪', '带薪年假', '包餐']"
574,3460765,PHP开发工程师,深圳,2018-05-02 09:27:40,12.0,108621,爱玩网络,深圳爱玩网络科技股份有限公司,150-500人,南山区,大专,上市公司,游戏,113.943551,22.548179,全职,1-3年,"['专项奖金', '带薪年假', '年终分红', '一周五天7H']"
575,3434137,PHP工程师,深圳,2018-04-28 18:31:03,12.0,51688,TOPFUN,中联畅想（深圳）网络科技有限公司,50-150人,南山区,大专,不需要融资,游戏,0.0,0.0,全职,1-3年,"['绩效奖金', '年底双薪', '带薪年假', '定期体检']"
576,3977540,PHP工程师,厦门,2018-04-28 17:13:59,8.8,183122,掌酷科技,厦门掌酷信息科技有限公司,150-500人,思明区,大专,不需要融资,"移动互联网,电子商务",118.117439,24.494323,全职,1-3年,"['年底双薪', '绩效奖金', '带薪年假', '定期体检']"
577,4211717,PHP开发工程师-中高级,上海,2018-04-28 14:43:52,21.0,202104,趣头条,上海基分文化传播有限公司,500-2000人,浦东新区,大专,不需要融资,移动互联网,121.624653,31.226515,全职,3-5年,"['专项奖金', '带薪年假', '弹性工作', '管理规范']"
578,2517344,PHP,北京,2018-04-27 19:20:41,10.8,62538,掌上先机-旺店通ERP,北京掌上先机网络科技有限公司,500-2000人,海淀区,本科,不需要融资,"移动互联网,电子商务",116.363483,39.973296,全职,1-3年,"['技能培训', '节日礼物', '专项奖金', '带薪年假']"
579,2728635,高级PHP开发工程师,北京,2018-04-27 10:57:50,31.0,129,陌陌,北京陌陌科技有限公司,500-2000人,朝阳区,本科,上市公司,社交网络,115.99339,39.99426,全职,3-5年,"['岗位晋升', '帅哥多', '管理规范', '技能培训']"
580,4142020,PHP开发工程师,北京,2018-04-26 15:31:26,22.8,49187,惠民网,中商惠民（北京）电子商务有限公司,2000人以上,朝阳区,本科,B轮,电子商务,116.466628,40.01786985,全职,5-10年,"['岗位晋升', '领导好', '弹性工作', '午餐补助']"
581,4400457,PHP开发高级工程师,广州,2018-05-03 08:54:11,19.0,293535,飞跑科技,广州飞跑科技有限公司,50-150人,海珠区,大专,不需要融资,游戏,113.371047,23.099756,全职,不限,[]
582,4116790,PHP研发工程师,北京,2018-05-02 16:36:03,19.0,308752,分布式科技,北京分布式科技有限公司,15-50人,朝阳区,本科,不需要融资,金融 移动互联网,116.481109,39.996775,全职,3-5年,"['年底双薪', '带薪年假', '年终分红', '绩效奖金']"
583,4127718,php开发工程师,福州,2018-05-02 14:08:07,5.2,260305,崴创极客,福州市晋安区崴创极客信息有限公司,,台江区,不限,,,119.29178,26.06408,全职,1-3年,[]
584,3988453,PHP研发工程师,成都,2018-05-02 13:50:46,16.0,77250,链商,北京链商电子商务有限公司,150-500人,高新区,本科,A轮,"移动互联网,电子商务",104.064652,30.547911,全职,5-10年,"['绩效奖金', '五险一金', '股票期权', '美女多']"
585,4273429,高级PHP研发工程师,北京,2018-05-02 13:20:38,19.0,55071,帕拉旅行,北京阳光帕拉国际旅行社有限公司,15-50人,朝阳区,本科,不需要融资,"移动互联网,生活服务",116.454274,39.994449,全职,5-10年,"['技能培训', '年底双薪', '节日礼物', '绩效奖金']"
586,4222748,PHP开发工程师,上海,2018-05-02 13:17:47,10.8,331729,上海职达网络科技有限公司,上海职达网络科技有限公司,15-50人,闵行区,不限,未融资,"移动互联网,电子商务",121.42779,31.109763,全职,3-5年,"['""""']"
587,2075311,PHP,上海,2018-05-02 11:49:03,15.2,24995,泛微,上海泛微网络科技股份有限公司,2000人以上,闵行区,本科,上市公司,"移动互联网,企业服务",121.525236,31.080356,全职,1-3年,"['技能培训', '带薪年假', '绩效奖金', '岗位晋升']"
588,4401452,php研发工程师,广州,2018-05-02 11:46:59,14.4,65572,奇艺果,广州奇艺果信息科技有限公司,50-150人,番禺区,本科,C轮,"移动互联网,电子商务",113.384129,22.937244,全职,3-5年,"['全员期权', '扁平管理', '弹性工作', '任性待遇']"
589,3715477,高级PHP开发工程师,北京,2018-05-02 11:15:34,17.0,111175,ZingFront智线,智线云科技（北京）有限公司,50-150人,朝阳区,本科,A轮,"移动互联网,数据服务",116.472483,39.93868,全职,3-5年,"['绩效奖金', '股票期权', '带薪年假', '弹性工作']"
590,4422419,PHP程序员,中山,2018-05-02 10:23:45,4.2,207550,云网科技,中山市云网信息科技有限公司,15-50人,中山市市辖区,大专,天使轮,"移动互联网,企业服务",113.411767,22.499879,全职,1-3年,[]
591,108465,PHP开发工程师,北京,2018-05-02 09:26:31,14.0,15725,摩点网,北京摩点会想科技有限公司,50-150人,朝阳区,本科,B轮,"社交网络,文化娱乐",,,全职,1-3年,"['带薪年假', '绩效奖金', '五险一金', '免费早餐']"
592,4503473,php开发工程师,东莞,2018-05-01 20:54:22,6.6,313185,吉特信息科技,深圳前海吉特信息科技有限公司,15-50人,东莞市市辖区,不限,不需要融资,硬件,113.732695,23.010692,全职,1-3年,"['""""']"
593,2253127,PHP资深工程师,北京,2018-04-28 15:08:31,28.0,587,伙伴网,伙伴聚力（北京）科技有限公司,50-150人,,本科,A轮,企业服务,116.30850961,40.03628269,全职,5-10年,"['Geek', '超爽协作', '有愿景有落地', '六险一金']"
594,3899600,PHP开发工程师,北京,2018-04-24 14:40:43,14.0,51295,数盟网络,北京数字联盟网络科技有限公司,50-150人,海淀区,本科,B轮,"移动互联网,企业服务",116.348748,39.975866,全职,不限,"['股票期权', '绩效奖金', '岗位晋升', '带薪假期']"
595,2994211,PHP开发工程师,深圳,2018-05-03 09:26:25,21.0,153033,英思奇,深圳市英思奇信息咨询有限公司,50-150人,宝安区,本科,未融资,"移动互联网,电子商务",113.861602,22.572035,全职,3-5年,"['年底双薪', '股票期权', '包吃\\包住']"
596,3947832,PHP,杭州,2018-05-02 18:46:20,21.0,152584,空岛,杭州空岛科技有限公司,15-50人,余杭区,大专,不需要融资,"移动互联网,企业服务",119.996181,30.275849,全职,不限,"['股票期权', '年终分红', '带薪年假', '弹性工作']"
597,341579,PHP工程师-中级,广州,2018-05-02 17:46:48,10.8,2688,播种网,广州启康信息科技有限公司,50-150人,海珠区,大专,天使轮,"移动互联网,医疗健康",,,全职,3-5年,"['带薪年假', '弹性工作', '健康医疗', '扁平管理']"
598,3556908,php开发工程师,南昌,2018-05-02 15:11:05,4.2,183928,江西快鱼科技有限公司,江西快鱼科技有限公司,15-50人,青山湖区,不限,未融资,"移动互联网,信息安全",115.832665,28.735156,全职,不限,[]
599,4311637,PHP开发工程师,济南,2018-05-02 13:53:00,8.4,328543,国曦科技,山东国曦信息科技有限公司,15-50人,历下区,大专,未融资,"移动互联网,文化娱乐",,,全职,3-5年,"['""""']"
600,3964661,100099-高级PHP开发工程师,广州,2018-05-02 11:41:10,17.0,22045,Mobvista,广州汇量信息科技有限公司,500-2000人,天河区,大专,上市公司,移动互联网,113.369834,23.111614,全职,3-5年,"['优秀团队', '节日礼物', '股票期权', '带薪年假']"
601,2735715,高级PHP工程师,武汉,2018-05-02 11:15:32,12.4,111175,ZingFront智线,智线云科技（北京）有限公司,50-150人,洪山区,本科,A轮,"移动互联网,数据服务",0.0,0.0,全职,3-5年,"['绩效奖金', '股票期权', '带薪年假', '弹性工作']"
602,4187788,PHP开发工程师,上海,2018-05-02 11:11:53,12.0,54514,怪猫游戏,上海咕么信息科技有限公司,50-150人,普陀区,大专,不需要融资,"移动互联网,游戏",121.421858,31.23459,全职,1-3年,"['专项奖金', '带薪年假', '定期体检', '年终分红']"
603,4249595,高级PHP工程师,上海,2018-05-02 10:18:44,26.0,262285,上海鲲觉,上海鲲觉信息科技有限公司,150-500人,浦东新区,本科,A轮,其他,121.628472,31.210674,全职,5-10年,[]
604,4418741,PHP工程师,北京,2018-05-02 10:03:59,24.0,142041,奇虎360金融,上海淇毓信息科技有限公司,500-2000人,朝阳区,本科,未融资,"移动互联网,金融",116.490414,39.982773,全职,3-5年,"['年底双薪', '股票期权', '带薪年假', '定期体检']"
605,237253,PHP高级开发工程师,重庆,2018-05-02 09:40:58,11.0,35338,重庆鸿巨网络科技有限公司,重庆鸿巨网络科技有限公司,150-500人,渝中区,本科,不需要融资,"移动互联网,电子商务",106.55443,29.56603001,全职,3-5年,"['老板靠谱', '行业标杆', '年轻有活力', '居家办公环境']"
606,4379602,PHP开发工程师,福州,2018-05-02 09:35:17,6.8,69662,在乎,在乎（厦门）信息技术有限公司,少于15人,晋安区,大专,未融资,移动互联网,119.334046,26.092441,全职,1-3年,"['节日礼物', '股票期权', '岗位晋升', '扁平管理']"
607,4498027,初级PHP开发工程师,长沙,2018-05-02 09:20:04,4.8,103897,新航动力,湖南新航动力信息科技有限公司,150-500人,雨花区,大专,未融资,移动互联网、企业服务,113.0352,28.11354,全职,1-3年,"['五险一金', '绩效奖金', '技能培训', '岗位晋升']"
608,3578748,php工程师,青岛,2018-05-02 09:15:58,8.8,96763,忆烨网络文化传媒,青岛忆烨网络文化传媒有限公司,少于15人,李沧区,大专,未融资,"移动互联网,电子商务",120.44141,36.161061,全职,3-5年,"['绩效奖金', '管理规范', '领导好', '年终分红']"
609,4336525,PHP开发工程师（中高级）,北京,2018-05-02 09:08:30,19.0,51952,信达天下,北京信达天下科技有限公司,50-150人,海淀区,本科,A轮,移动互联网,116.332289,39.993798,全职,3-5年,"['年底双薪', '五险一金', '带薪年假', '交通通讯补贴']"
610,3663206,php高级研发工程师,杭州,2018-05-02 09:05:04,16.8,89557,量康科技,杭州量康科技有限公司,50-150人,滨江区,本科,A轮,"移动互联网,医疗健康",120.200109,30.190246,全职,3-5年,"['节日礼物', '带薪年假', '年度旅游', '定期体检']"
611,3061207,PHP研发工程师,杭州,2018-04-27 15:49:04,11.2,78386,一周CP,杭州晓宇科技有限公司,15-50人,西湖区,本科,A轮,"移动互联网,社交网络",120.124444,30.277356,全职,1-3年,"['技能培训', '股票期权', '专项奖金', '带薪年假']"
612,4176555,TT005——PHP开发工程师,深圳,2018-04-23 11:30:11,17.8,60434,加油宝,加油宝金融科技服务（深圳）有限公司,150-500人,南山区,大专,不需要融资,金融,113.993578,22.99368,全职,3-5年,[]
613,3797594,PHP开发工程师,北京,2018-04-18 13:27:07,28.0,2474,滴滴出行,北京嘀嘀无限科技发展有限公司,2000人以上,海淀区,本科,不需要融资,移动互联网,116.290143,40.04348,全职,3-5年,"['弹性工作', '节日礼物', '岗位晋升', '技能培训']"
614,4483977,PHP开发工程师（可接受应届生）,广州,2018-05-03 09:36:58,6.6,28480,广州趣炫,广东趣炫网络股份有限公司,500-2000人,天河区,本科,未融资,游戏,112.993461,22.994261,实习,应届毕业生,"['绩效奖金', '年底双薪', '带薪年假', '节日礼物']"
615,384744,PHP高级开发工程师,杭州,2018-05-03 09:30:56,21.0,9551,杭州悠可,杭州悠可化妆品有限公司,500-2000人,江干区,本科,上市公司,电子商务,120.34997948,30.30177597,全职,3-5年,"['绩效奖金', '股票期权', '专项奖金', '五险一金']"
616,4269520,高级php开发工程师,上海,2018-05-02 23:03:34,18.4,107291,方趣网络,上海方趣网络科技有限公司,50-150人,闵行区,本科,A轮,游戏,121.392813,31.170524,全职,3-5年,[]
617,4435526,PHP开发（实习）,杭州,2018-05-02 18:27:28,3.8,593,边锋,杭州边锋网络技术有限公司,500-2000人,西湖区,本科,不需要融资,"移动互联网,游戏",120.1172,30.29085,实习,应届毕业生,"['五险一金', '交通补助', '绩效奖金', '节日礼物']"
618,4329944,PHP高级开发工程师,北京,2018-05-02 17:07:29,24.0,72185,万题库,北京美好明天科技有限公司,150-500人,海淀区,本科,上市公司,"移动互联网,教育",116.32361,39.95921,全职,3-5年,"['节日礼物', '年底双薪', '股票期权', '带薪年假']"
