,职位编码,职位名称,所在城市,发布日期,薪资待遇(k),公司编码,公司名称,公司全称,公司规模,所在区域,最低学历,融资状态,公司类型,经度,纬度,全职/实习,工作经验,吸引条件
0,316997,iOS,北京,2018-05-02 10:09:13,14.0,41030,小肚皮App,北京九识佳科技有限公司,15-50人,朝阳区,本科,A轮,移动互联网,116.472885,39.912253,全职,1-3年,"['年度旅游', '美女CEO', '五险一金', '午餐补助']"
1,4505922,iOS工程师,北京,2018-05-02 13:55:27,22.8,110502,洋钱罐,北京瓴岳信息技术有限公司,150-500人,朝阳区,本科,不需要融资,"移动互联网,金融",116.460666,39.929746,全职,1-3年,"['14薪', '弹性工作', '零食水果', '午餐晚餐']"
2,4210663,IOS开发工程师,杭州,2018-05-03 09:31:17,9.2,16319,电魂网络,杭州电魂网络科技股份有限公司,500-2000人,滨江区,本科,上市公司,游戏,120.214912,30.186691,实习,应届毕业生,"['技能培训', '年底双薪', '节日礼物', '绩效奖金']"
3,4491900,iOS,北京,2018-04-27 10:38:58,28.0,61921,人人行(借贷宝),人人行科技有限公司,2000人以上,朝阳区,不限,C轮,"移动互联网,金融",39.897445,116.331398,全职,不限,"['年底双薪', '节日礼物', '绩效奖金', '岗位晋升']"
4,3324222,IOS开发工程师,苏州,2018-05-02 09:45:21,8.4,225665,惠龙易通,惠龙易通国际物流股份有限公司,150-500人,,本科,A轮,"移动互联网,电子商务",120.980737,31.385598,全职,3-5年,"['管理规范', '技能培训', '五险一金', '岗位晋升']"
5,4508960,IOS工程师(J10675),杭州,2018-05-02 18:15:27,12.0,33618,微贷网,微贷（杭州）金融信息服务有限公司,2000人以上,江干区,本科,C轮,金融,120.210795,30.241803,全职,1-3年,"['年底双薪', '专项奖金', '绩效奖金', '岗位晋升']"
6,4505010,iOS开发工程师,北京,2018-05-02 11:27:03,21.0,124192,闲徕互娱,北京闲徕互娱网络科技有限公司,500-2000人,朝阳区,本科,不需要融资,游戏,116.414211,40.032234,全职,3-5年,"['年底双薪', '股票期权', '带薪年假', '专项奖金']"
7,1848210,iOS工程师,广州,2018-05-02 10:12:43,8.8,55142,数商云,广州市数商云网络科技有限公司,50-150人,,本科,未融资,"移动互联网,电子商务",,,全职,1-3年,"['弹性工作', '扁平管理', '帅哥多', '美女多']"
8,4387732,IOS开发工程师,上海,2018-05-02 11:21:14,19.0,163790,探知数据,上海勃池信息技术有限公司,50-150人,静安区,本科,天使轮,"金融,数据服务",121.472214,31.240835,全职,3-5年,"['股票期权', '扁平管理', '岗位晋升', '五险一金']"
9,3910111,蚂蚁金服财富-高级Android/IOS工程师,上海,2018-05-02 09:01:00,35.0,153849,蚂蚁金服集团,支付宝(杭州)信息技术有限公司,2000人以上,浦东新区,本科,B轮,"金融,移动互联网",121.505385,31.233526,全职,3-5年,"['年底双薪', '带薪年假', '股票期权', '绩效奖金']"
10,4102946,iOS开发工程师,广州,2018-05-03 09:18:29,12.4,47413,微咔WECUT,广州微咔世纪信息科技有限公司,50-150人,海珠区,本科,A轮,"移动互联网,社交网络",113.3665,23.0973,全职,1-3年,"['六险一金', '周末双休', '营养工作餐', '暖心下午茶']"
11,4456244,IOS开发,上海,2018-05-03 08:49:57,12.0,78102,网达软件,上海网达软件股份有限公司,500-2000人,浦东新区,本科,上市公司,"移动互联网,电子商务",121.592153,31.244662,全职,3-5年,"['股票期权', '带薪年假', '绩效奖金', '岗位晋升']"
12,4116382,ios开发,珠海,2018-05-03 08:40:19,14.0,66311,方付通,上海方付通商务服务有限公司,150-500人,香洲区,本科,不需要融资,"移动互联网,金融",113.570081,22.245251,全职,5-10年,"['技能培训', '节日礼物', '岗位晋升', '五险一金']"
13,4384495,iOS,北京,2018-05-02 15:48:50,28.0,95651,玩吧,北京默契破冰科技有限公司,50-150人,东城区,本科,B轮,"移动互联网,社交网络",116.436939,39.940498,全职,5-10年,"['去他的考勤', '高手云集', '股票期权', '年底N薪']"
14,4436367,ios开发工程师,北京,2018-05-03 09:57:51,28.0,1880,快手,北京达佳互联信息技术有限公司,500-2000人,海淀区,本科,D轮及以上,移动互联网,116.316508,39.984066,全职,3-5年,"['股票期权', '弹性工作', '定期体检', '岗位晋升']"
15,3321993,高级iOS,北京,2018-05-02 10:09:13,19.0,41030,小肚皮App,北京九识佳科技有限公司,15-50人,朝阳区,本科,A轮,移动互联网,116.473079,39.91331,全职,3-5年,"['年度旅游', '美女CEO', '五险一金', '午餐补助']"
16,3545447,IOS开发,杭州,2018-05-03 09:21:27,16.8,24287,腾展叮咚（Dingtone）,杭州腾展科技股份有限公司,50-150人,西湖区,本科,上市公司,"移动互联网,社交网络",119.993591,29.993662,全职,1-3年,"['出国旅游', '股票期权', '精英团队', '强悍的创始人']"
17,2877069,ios工程师,北京,2018-05-02 11:08:05,25.2,30816,蜻蜓FM,上海倾听信息技术有限公司,150-500人,朝阳区,本科,D轮及以上,移动互联网,116.454812,39.920432,全职,3-5年,"['明星直播', '男女1:1', '带薪年假', '扁平管理']"
18,4507251,iOS开发工程师,西安,2018-05-03 09:45:15,10.0,234788,摩亦,摩亦（上海）医药技术有限公司,50-150人,经济技术开发区,本科,不需要融资,医疗健康,108.947651,34.318238,全职,3-5年,"['年底双薪', '绩效奖金', '带薪年假', '定期体检']"
19,4406888,iOS开发工程师,厦门,2018-05-02 11:26:41,14.0,23291,美图公司,厦门美图之家科技有限公司,500-2000人,思明区,本科,上市公司,"移动互联网,硬件",118.179899,24.489558,全职,3-5年,"['节日礼物', '与大牛共事', '福利健全', '五险一金']"
20,3324229,iOS工程师,南京,2018-05-02 09:45:22,8.4,225665,惠龙易通,惠龙易通国际物流股份有限公司,150-500人,雨花台区,本科,A轮,"移动互联网,电子商务",118.779073,31.991347,全职,1-3年,"['管理规范', '技能培训', '五险一金', '岗位晋升']"
21,4501665,iOS开发工程师,南京,2018-05-02 08:47:37,28.0,82347,运满满,北京满运物流信息有限公司,500-2000人,雨花台区,本科,D轮及以上,"移动互联网,O2O",0.0,0.0,全职,不限,"['节日礼物', '年底双薪', '股票期权', '带薪年假']"
22,4139613,IOS开发工程师,武汉,2018-05-03 09:17:01,8.2,16377,掌游科技,武汉掌游科技有限公司,150-500人,洪山区,大专,B轮,"移动互联网,游戏",114.323086,30.471766,全职,1-3年,"['绩效奖金', '带薪年假', '节日礼物', '定期体检']"
23,3129614,iOS开发工程师,成都,2018-05-02 15:39:08,9.6,41710,四川商通实业有限公司,四川商通实业有限公司,150-500人,锦江区,本科,A轮,电子商务,104.091094,30.647171,全职,1-3年,"['技能培训', '节日礼物', '年底双薪', '带薪年假']"
24,3193224,IOS开发,杭州,2018-05-02 10:01:44,14.0,2380,浙江执御信息技术有限公司,浙江执御信息技术有限公司,2000人以上,拱墅区,不限,B轮,"移动互联网,数据服务",120.11362,30.33344,全职,不限,"['五险一金', '带薪年假', '节日礼物', '年度旅游']"
25,2334198,iOS开发工程师,上海,2018-05-03 09:19:38,19.0,101010,小狗在家,上海乙豆信息科技有限公司,15-50人,徐汇区,本科,A轮,"移动互联网,O2O",121.417809,31.170736,全职,3-5年,"['节日礼物', '年底双薪', '股票期权', '带薪年假']"
26,4288216,iOS,北京,2018-04-25 09:32:39,42.0,61921,人人行(借贷宝),人人行科技有限公司,2000人以上,朝阳区,本科,C轮,"移动互联网,金融",116.416771,40.015961,全职,3-5年,"['年底双薪', '节日礼物', '绩效奖金', '岗位晋升']"
27,3866495,ios工程师,上海,2018-05-03 09:48:44,10.8,128998,江苏亿科达,上海海万信息科技股份有限公司,500-2000人,浦东新区,本科,不需要融资,"移动互联网,金融",0.0,0.0,全职,5-10年,[]
28,3844211,IOS,北京,2018-05-03 09:16:54,24.0,25439,Udesk－企业级智能客服平台,北京沃丰时代数据科技有限公司,150-500人,西城区,本科,B轮,其他,116.357353,39.939211,全职,5-10年,"['股票期权', '高成长', '云服务', '高并发']"
29,4262527,iOS开发,重庆,2018-05-03 08:50:28,8.4,31076,重庆融特通信技术有限公司,重庆融特通信技术有限公司,50-150人,九龙坡区,本科,未融资,"移动互联网,文化娱乐",106.48575,29.53096,全职,1-3年,"['技能培训', '年底双薪', '节日礼物', '绩效奖金']"
30,3324251,iOS工程师,上海,2018-05-02 09:45:21,8.4,225665,惠龙易通,惠龙易通国际物流股份有限公司,150-500人,浦东新区,本科,A轮,"移动互联网,电子商务",121.544379,31.221517,全职,1-3年,"['管理规范', '技能培训', '五险一金', '岗位晋升']"
31,4436052,iOS工程师,广州,2018-05-02 10:00:05,6.2,158926,阳光康众,广东天泽阳光康众医疗投资管理有限公司,50-150人,海珠区,大专,A轮,"移动互联网,医疗健康",113.3724,23.102768,全职,1-3年,"['带薪年假', '专项奖金', '弹性工作', '节日礼物']"
32,3704384,iOS研发工程师,北京,2018-05-02 15:48:50,24.0,95651,玩吧,北京默契破冰科技有限公司,50-150人,东城区,本科,B轮,"移动互联网,社交网络",116.436939,39.940498,全职,3-5年,"['去他的考勤', '高手云集', '股票期权', '年底N薪']"
33,4437383,ios开发工程师,上海,2018-05-02 09:40:33,17.0,47821,麦秸,上海麦秸网络科技有限公司,50-150人,徐汇区,大专,不需要融资,游戏,0.0,0.0,全职,5-10年,"['节日礼物', '技能培训', '绩效奖金', '年度旅游']"
34,4397280,iOS开发工程师,北京,2018-05-02 09:32:04,28.0,29795,罗辑思维,北京思维造物信息科技有限公司,150-500人,朝阳区,本科,B轮,"移动互联网,文化娱乐",115.99339,39.99426,全职,3-5年,"['专项奖金', '扁平管理', '帅哥多', '领导好']"
35,2078199,iOS,杭州,2018-05-03 09:21:26,21.0,24287,腾展叮咚（Dingtone）,杭州腾展科技股份有限公司,50-150人,西湖区,本科,上市公司,"移动互联网,社交网络",120.12563,30.27736004,全职,3-5年,"['出国旅游', '股票期权', '精英团队', '强悍的创始人']"
36,4235389,IOS开发工程师,上海,2018-05-03 09:04:06,17.0,128998,江苏亿科达,上海海万信息科技股份有限公司,500-2000人,浦东新区,大专,不需要融资,"移动互联网,金融",121.531974,31.224473,全职,3-5年,[]
37,3928347,IOS,广州,2018-05-02 16:14:15,12.0,296888,东怡源,东怡源科技（广州）有限公司,15-50人,南沙区,大专,未融资,"移动互联网,电子商务",113.539812,22.799813,全职,3-5年,"['""""']"
38,3981166,iOS开发工程师,北京,2018-05-02 14:13:15,28.0,1561,Face++,北京旷视科技有限公司,500-2000人,海淀区,本科,C轮,"移动互联网,硬件",116.325436,39.984273,全职,3-5年,"['科技大牛公司', '自助三餐', '年终多薪', '超长带薪假期']"
39,2121004,iOS,杭州,2018-05-03 09:49:32,16.8,8169,点我达,点我达网络科技有限公司,500-2000人,下城区,不限,D轮及以上,O2O,120.16579197,30.31569396,全职,3-5年,"['扁平管理', '弹性工作', '软妹子集中营', '股票期权']"
40,4258888,iOS开发工程师,杭州,2018-05-02 10:35:45,11.2,20337,会搜股份,杭州会搜科技有限公司,150-500人,江干区,大专,上市公司,移动互联网,120.25935,30.30846,全职,3-5年,"['技能培训', '节日礼物', '股票期权', '带薪年假']"
41,4065848,iOS 工程师,深圳,2018-05-02 16:54:59,12.0,7099,健康160（原就医160）,深圳市宁远科技股份有限公司,500-2000人,南山区,本科,上市公司,移动互联网,113.91871,22.50899,全职,1-3年,"['年底双薪', '技能培训', '节日礼物', '绩效奖金']"
42,4477466,iOS开发工程师,上海,2018-05-02 11:26:57,16.8,23291,美图公司,厦门美图之家科技有限公司,500-2000人,静安区,本科,上市公司,"移动互联网,硬件",121.454025,31.227385,全职,3-5年,"['节日礼物', '与大牛共事', '福利健全', '五险一金']"
43,697964,iOS开发工程师,北京,2018-05-02 10:48:12,19.0,61692,Max+&小黑盒,清枫（北京）科技有限公司,50-150人,朝阳区,本科,A轮,游戏,116.481255,39.99671,全职,1-3年,"['带薪年假', '扁平管理', '五险一金', '弹性工作']"
44,3582720,IOS开发工程师,上海,2018-05-03 09:12:49,15.8,1738,有鱼金融科技,上海彩亿信息技术有限公司,500-2000人,徐汇区,本科,B轮,"移动互联网,金融",121.40391012,31.1640189,全职,1-3年,"['股票期权', '年底双薪', '五险一金', '带薪年假']"
45,3816304,iOS研发工程师,杭州,2018-05-02 20:28:17,15.2,26564,贝贝网,杭州贝购科技有限公司,500-2000人,江干区,本科,D轮及以上,电子商务,120.258897,30.308363,全职,1-3年,"['生日趴', '每月腐败基金', '每月补贴', '年度旅游']"
46,4253030,IOS 开发工程师,北京,2018-05-02 11:06:24,21.0,133920,百度视频,北京小度互娱科技有限公司,150-500人,海淀区,本科,A轮,移动互联网,116.283797,40.044435,全职,1-3年,"['年底双薪', '带薪年假', '定期体检', '通讯津贴']"
47,3092489,ios,北京,2018-05-02 14:23:48,11.2,102022,江山如画网络科技,北京江山如画网路科技有限责任公司,少于15人,海淀区,本科,天使轮,"移动互联网,社交网络",116.260539,39.90695,全职,1-3年,"['专项奖金', '股票期权', '绩效奖金', '岗位晋升']"
48,4367343,IOS开发工程师,广州,2018-05-02 11:31:37,12.0,112,爱拍原创,广州爱拍网络科技有限公司,150-500人,天河区,本科,D轮及以上,文化娱乐,113.37144,23.123598,全职,1-3年,"['团队牛掰', '企业文化温馨', '绩效奖金丰厚', '内部孵化项目']"
49,4075538,iOS开发,北京,2018-05-02 18:07:06,42.0,3786,宜信,普信恒业科技发展（北京）有限公司,2000人以上,朝阳区,本科,上市公司,金融,116.470208,39.906158,全职,5-10年,"['管理规范', '技能培训', '扁平管理', '弹性工作']"
50,4493538,IOS开发工程师,杭州,2018-05-02 09:40:14,10.8,172326,优量科技,杭州优量科技有限公司,50-150人,滨江区,本科,A轮,移动互联网,120.225851,30.208562,全职,1-3年,"['股票期权', '带薪年假', '定期体检', '年度旅游']"
51,3463505,IOS开发工程师,北京,2018-05-03 09:54:04,24.0,168991,老虎证券,北京优虎商务服务有限公司,150-500人,朝阳区,本科,B轮,"移动互联网,金融",116.460172,39.952787,全职,3-5年,"['绩效奖金', '年底双薪', '带薪年假', '定期体检']"
52,3513816,ios软件工程师,北京,2018-05-03 08:35:33,16.8,31590,四维图新,北京四维图新科技股份有限公司,2000人以上,海淀区,本科,上市公司,"移动互联网,生活服务",116.245368,40.072979,全职,不限,"['技能培训', '节日礼物', '带薪年假', '岗位晋升']"
53,4501388,ios研发工程师,上海,2018-05-02 19:13:57,12.0,221657,花动传媒,上海动搜网络科技有限公司,50-150人,闵行区,本科,B轮,电子商务,121.383882,31.175921,全职,1-3年,"['带薪年假', '年底双薪', '弹性工作', '免费班车']"
54,4483194,ios开发工程师,长沙,2018-05-02 11:03:51,7.6,261837,钱多多,湖南省钱多多商务咨询有限公司,500-2000人,开福区,大专,不需要融资,金融,112.970682,28.201783,全职,1-3年,"['年终分红', '绩效奖金', '午餐补助', '专项奖金']"
55,4164069,Ios研发工程师,上海,2018-05-02 13:41:04,19.0,6044,拍拍贷,上海拍拍贷金融信息服务有限公司,2000人以上,浦东新区,本科,上市公司,金融,0.0,0.0,全职,3-5年,"['绩效奖金', '五险一金', '带薪年假', '午餐补助']"
56,4352524,IOS开发工程师,广州,2018-05-02 12:08:14,14.0,13241,互爱(北京)科技有限公司,互爱(北京)科技有限公司,500-2000人,天河区,不限,C轮,"移动互联网,游戏",113.338715,23.12602,全职,1-3年,"['五险一金', '岗位晋升', '帅哥多', '弹性工作']"
57,4323767,ios开发工程师,深圳,2018-05-03 09:20:11,7.0,65521,泽林信息,深圳市泽林信息咨询有限公司,500-2000人,南山区,大专,不需要融资,教育,113.953534,22.542215,全职,1-3年,"['节日礼物', '技能培训', '绩效奖金', '年度旅游']"
58,3945334,iOS工程师,北京,2018-05-02 10:06:27,19.0,929,最右,北京小川在线网络技术有限公司,150-500人,海淀区,本科,B轮,移动互联网,116.368056,39.980092,全职,1-3年,"['技能培训', '连续创业团队', '年度旅游', '扁平管理']"
59,4445582,iOS开发工程师,杭州,2018-05-02 10:35:46,8.4,20337,会搜股份,杭州会搜科技有限公司,150-500人,江干区,大专,上市公司,移动互联网,120.25935,30.30846,全职,1-3年,"['技能培训', '节日礼物', '股票期权', '带薪年假']"
60,1642487,iOS,北京,2018-05-02 14:23:48,14.0,102022,江山如画网络科技,北京江山如画网路科技有限责任公司,少于15人,东城区,本科,天使轮,"移动互联网,社交网络",116.26104504,39.90680361,全职,1-3年,"['专项奖金', '股票期权', '绩效奖金', '岗位晋升']"
61,4445788,iOS开发工程师,广州,2018-05-01 17:05:48,7.0,30923,华盈,肇庆市华盈体育文化发展有限公司,150-500人,天河区,本科,A轮,文化娱乐,113.331592,23.115529,全职,不限,"['高提成奖金', '高成长公司', '股份期权', '团队创新高效']"
62,4431115,IOS开发工程师,济南,2018-05-03 08:48:47,9.0,67576,车满满,车满满（北京）信息技术有限公司,150-500人,高新区,本科,B轮,移动互联网,0.0,0.0,全职,3-5年,"['业内第一', '技能培训', '股票期权', '弹性工作']"
63,4509655,资深iOS工程师,上海,2018-05-02 20:59:43,35.0,82347,运满满,北京满运物流信息有限公司,500-2000人,长宁区,本科,D轮及以上,"移动互联网,O2O",121.350933,31.220591,全职,5-10年,"['节日礼物', '年底双薪', '股票期权', '带薪年假']"
64,4261471,IOS开发工程师,北京,2018-05-02 17:28:01,14.0,206560,比链科技,北京比链科技有限公司,150-500人,海淀区,本科,A轮,"金融,电子商务",116.37609,40.032213,全职,3-5年,"['午餐补助', '下午茶', '互联网金融', '领导nice']"
65,3814910,ios开发工程师,广州,2018-05-02 15:17:54,8.2,199511,广州顶域,广州市顶域科技有限公司,50-150人,天河区,大专,不需要融资,移动互联网,113.890614,22.947919,全职,不限,[]
66,4506322,iOS开发工程师,北京,2018-05-02 14:35:58,24.8,6702,Zenjoy,北京创智优品科技有限公司,150-500人,东城区,本科,不需要融资,"移动互联网,游戏",116.433097,39.921566,全职,3-5年,"['节日礼物', '顶配Mac', '小而美', '扁平管理']"
67,4224013,iOS高级工程师,北京,2018-05-02 11:33:30,24.0,29496,闪银奇异,北京闪银奇异科技有限公司,500-2000人,朝阳区,本科,D轮及以上,"移动互联网,金融",116.466553,39.934441,全职,5-10年,"['13~15薪', '晋升空间大', '定期体检', '能力定薪']"
68,1223364,IOS开发工程师,上海,2018-05-02 11:23:52,9.6,40119,聚鹏,上海聚鹏科技有限公司,50-150人,徐汇区,本科,不需要融资,移动互联网,121.396525,31.16635,全职,1-3年,"['年底双薪', '定期体检', '带薪年假', '绩效奖金']"
69,4380070,ios开发工程师,北京,2018-05-02 10:03:59,22.0,142041,奇虎360金融,上海淇毓信息科技有限公司,500-2000人,朝阳区,本科,未融资,"移动互联网,金融",116.4901,39.982669,全职,1-3年,"['年底双薪', '股票期权', '带薪年假', '定期体检']"
70,4439124,iOS高级开发工程师,北京,2018-04-25 09:32:39,48.0,61921,人人行(借贷宝),人人行科技有限公司,2000人以上,朝阳区,本科,C轮,"移动互联网,金融",116.416771,40.015961,全职,3-5年,"['年底双薪', '节日礼物', '绩效奖金', '岗位晋升']"
71,3517890,ios开发工程师,上海,2018-05-03 09:13:14,15.2,48988,雅其信息技术（上海）有限公司,雅其信息技术（上海）有限公司,50-150人,普陀区,本科,不需要融资,"移动互联网,广告营销",121.41438,31.23616,全职,1-3年,"['年底双薪', '节日礼物', '带薪年假', '绩效奖金']"
72,2378646,iOS,杭州,2018-05-02 11:29:48,14.0,148393,万家乐科技,杭州万家乐网络科技有限公司,150-500人,江干区,本科,不需要融资,"移动互联网,金融",120.147316,30.294588,全职,3-5年,"['年底双薪', '绩效奖金', '带薪年假', '定期体检']"
73,4243074,ios开发工程师,汕头,2018-05-02 15:58:18,7.8,242768,阿米巴,汕头市阿米巴网络科技有限公司,150-500人,龙湖区,大专,不需要融资,"移动互联网,电子商务",116.72734,23.365887,全职,不限,"['年底双薪', '定期体检', '五险一金', '带薪年假']"
74,2494961,iOS开发工程师,上海,2018-05-02 10:25:12,20.8,28059,纳米盒,上海进馨网络科技有限公司,50-150人,浦东新区,本科,B轮,"移动互联网,教育",121.628188,31.209511,全职,3-5年,"['股票期权', '岗位晋升', '扁平管理', '五险一金']"
75,4081145,ios工程师,北京,2018-05-02 14:23:47,17.6,102022,江山如画网络科技,北京江山如画网路科技有限责任公司,少于15人,海淀区,本科,天使轮,"移动互联网,社交网络",116.260539,39.90695,全职,3-5年,"['专项奖金', '股票期权', '绩效奖金', '岗位晋升']"
76,3688934,iOS工程师,广州,2018-05-03 09:38:12,14.0,34872,奇志信息科技,广州奇志信息科技有限公司,15-50人,海珠区,本科,A轮,移动互联网,113.325553,23.098929,全职,1-3年,"['年底双薪', '带薪年假', '岗位晋升', '扁平管理']"
77,2339514,iOS开发工程师,上海,2018-05-03 09:19:39,14.0,101010,小狗在家,上海乙豆信息科技有限公司,15-50人,徐汇区,本科,A轮,"移动互联网,O2O",121.416149,31.171114,全职,3-5年,"['节日礼物', '年底双薪', '股票期权', '带薪年假']"
78,3900605,IOS开发工程师,东莞,2018-05-03 08:30:25,12.0,171993,数夫软件,广州数夫软件科技有限公司,150-500人,东莞市市辖区,大专,未融资,移动互联网,113.726237,22.986539,全职,3-5年,[]
79,4325260,iOS开发工程师,北京,2018-05-02 16:24:57,28.0,110628,JoyCastle,北京乐城堡科技有限公司,15-50人,朝阳区,本科,不需要融资,"移动互联网,游戏",116.453971,39.932248,全职,5-10年,"['带薪年假', '年底双薪', '专项奖金', '股票期权']"
80,2863067,iOS 开发工程师,昆明,2018-05-02 15:13:06,8.4,157269,EMQ,杭州小莉科技有限公司,15-50人,,本科,天使轮,"数据服务,硬件",102.67845,25.062193,全职,1-3年,"['股票期权', '午餐补助', '交通补助', '年底双薪']"
81,3444386,iOS开发工程师,武汉,2018-05-02 11:50:34,14.0,2438,悦然心动,武汉悦然心动网络科技有限公司,50-150人,洪山区,本科,上市公司,"移动互联网,社交网络",114.414309,30.500826,全职,1-3年,"['带薪年假', '年度出国旅游', '扁平管理', '午餐补助']"
82,4467178,ios开发,杭州,2018-05-02 09:48:28,10.8,20493,新移传媒,浙江新华移动传媒股份有限公司,50-150人,上城区,本科,不需要融资,移动互联网,120.15424,30.20754,全职,1-3年,"['五险一金', '绩效奖金', '专项奖金', '年度旅游']"
83,4076779,iOS开发工程师,成都,2018-05-02 09:41:22,10.8,117174,奇思客,北京奇思客网络科技有限公司,150-500人,高新区,本科,B轮,移动互联网,104.068536,30.554872,全职,1-3年,"['带薪年假', '扁平管理', '五险一金', '弹性工作']"
84,4419303,iOS开发工程师（全球化）,北京,2018-05-03 09:57:50,42.0,1880,快手,北京达佳互联信息技术有限公司,500-2000人,海淀区,本科,D轮及以上,移动互联网,116.316508,39.984066,全职,3-5年,"['股票期权', '弹性工作', '定期体检', '岗位晋升']"
85,4120702,iOS开发工程师,上海,2018-05-03 09:20:21,17.0,23314,MXCHIP,上海庆科信息技术有限公司,150-500人,普陀区,本科,B轮,硬件,121.391865,31.258039,全职,3-5年,"['互联网风口', '物联网、高新', 'Wi-Fi', '午餐补助']"
86,1560962,iOS开发工程师,南京,2018-05-02 15:13:46,14.0,53992,苏宁易购,南京苏宁软件技术有限公司,2000人以上,玄武区,本科,上市公司,"O2O,移动互联网",118.89237019,32.08490014,全职,3-5年,"['专项奖金', '绩效奖金', '股票期权', '帅哥多']"
87,4155398,IOS开发工程师,杭州,2018-05-02 13:47:20,11.2,77306,零零无限,北京零零无限科技有限公司,50-150人,余杭区,不限,A轮,硬件,119.993591,29.993662,全职,不限,"['智能硬件', '弹性工作', '五险一金', '股票期权']"
88,4329001,iOS开发工程师,苏州,2018-05-02 09:35:53,12.0,40270,名片全能王,上海合合信息科技发展有限公司,150-500人,工业园区,本科,C轮,移动互联网,120.776008,31.308358,全职,1-3年,"['团队建设', '技能培训', '节日礼物', '年底分红']"
89,3208477,IOS开发工程师,广州,2018-05-02 09:13:01,10.8,134697,北通游戏手柄,广州市品众电子科技有限公司,50-150人,天河区,本科,不需要融资,移动互联网、游戏,113.32643,23.12685,全职,1-3年,"['年底双薪', '带薪年假', '定期体检', '年终奖金']"
90,4081154,ios研发,北京,2018-05-02 14:23:48,19.0,102022,江山如画网络科技,北京江山如画网路科技有限责任公司,少于15人,海淀区,本科,天使轮,"移动互联网,社交网络",116.260539,39.90695,全职,3-5年,"['专项奖金', '股票期权', '绩效奖金', '岗位晋升']"
91,3815080,iOS开发工程师,杭州,2018-05-03 09:49:29,21.0,8169,点我达,点我达网络科技有限公司,500-2000人,下城区,本科,D轮及以上,O2O,120.16579198,30.31569396,全职,3-5年,"['扁平管理', '弹性工作', '软妹子集中营', '股票期权']"
92,3599899,ios,北京,2018-05-02 18:52:42,28.0,5706,洋葱数学,光合新知（北京）科技有限公司,150-500人,朝阳区,大专,C轮,"移动互联网,教育",116.500139,39.991999,全职,3-5年,"['产品领先行业', '关注学习本源', '明星跨界团队', '股票期权']"
93,4252824,iOS开发工程师,广州,2018-05-02 15:49:49,6.2,212954,米美科技,广州米美科技有限公司,15-50人,天河区,本科,未融资,"数据服务,企业服务",113.316337,23.123687,全职,1-3年,"['岗位晋升', '扁平管理', '专项奖金', '带薪年假']"
94,4398235,IOS工程师,上海,2018-05-02 14:49:14,12.0,134233,立木征信,上海康成电子商务有限公司,50-150人,浦东新区,本科,未融资,"金融,电子商务",121.510217,31.229108,全职,3-5年,"['弹性工作', '扁平管理', '节日礼物', '绩效奖金']"
95,3955937,iOS开发工程师,北京,2018-05-02 11:30:59,33.0,50702,美团点评,北京三快在线科技有限公司,2000人以上,朝阳区,本科,D轮及以上,"移动互联网,O2O",121.417969,31.217836,全职,3-5年,"['技能培训', '绩效奖金', '岗位晋升', '领导好']"
96,2642602,IOS,上海,2018-05-02 09:50:22,19.0,1738,有鱼金融科技,上海彩亿信息技术有限公司,500-2000人,徐汇区,本科,B轮,"移动互联网,金融",121.40437233,31.16440487,全职,3-5年,"['股票期权', '年底双薪', '五险一金', '带薪年假']"
97,4334098,iOS开发工程师,北京,2018-04-27 16:21:35,28.0,168991,老虎证券,北京优虎商务服务有限公司,150-500人,朝阳区,本科,B轮,"移动互联网,金融",116.460172,39.952787,全职,不限,"['绩效奖金', '年底双薪', '带薪年假', '定期体检']"
98,4477076,IOS开发工程师,广州,2018-05-03 09:36:59,14.0,346143,芥末圈,深圳云介信息科技有限公司,15-50人,海珠区,本科,A轮,"移动互联网,社交网络",113.372332,23.096272,全职,3-5年,"['年底双薪', '股票期权', '绩效奖金', '定期体检']"
99,4062224,IOS开发工程师,佛山,2018-05-02 21:38:21,12.0,173318,易诚互动,北京易诚互动网络技术有限公司,500-2000人,南海区,本科,不需要融资,"其他,金融",0.0,0.0,全职,3-5年,"['绩效奖金', '带薪年假', '通讯津贴', '午餐补助']"
100,3577705,iOS开发工程师,广州,2018-05-02 21:12:07,9.6,257806,前海易物,前海易物（深圳）电子商务有限公司广州分公司,150-500人,海珠区,大专,A轮,"电子商务,移动互联网",113.368263,23.096482,全职,1-3年,"['绩效奖金', '交通补助', '定期体检', '带薪年假']"
101,4080936,IOS工程师,北京,2018-05-02 10:35:02,21.0,127084,北京拍店电子商务有限公司,北京拍店电子商务有限公司,15-50人,朝阳区,本科,A轮,"电子商务,移动互联网",116.480042,39.997266,全职,3-5年,"['绩效奖金', '年终分红', '股票期权', '交通补助']"
102,2643385,IOS工程师,北京,2018-05-02 09:55:07,19.0,123700,花圃科技,花圃（北京）科技有限公司,50-150人,朝阳区,本科,天使轮,"移动互联网,电子商务",116.520366,39.967207,全职,1-3年,"['年底双薪', '年终分红', '股票期权', '五险一金']"
103,4373344,IOS开发工程师,上海,2018-05-02 16:24:31,21.0,30830,哔哩哔哩,上海幻电信息科技有限公司,2000人以上,杨浦区,本科,上市公司,"移动互联网,文化娱乐",121.506437,31.308258,全职,3-5年,"['带薪年假', '绩效奖金', '交通补助', '午餐补助']"
104,3867621,iOS研发工程师,上海,2018-04-27 13:37:08,19.0,221657,花动传媒,上海动搜网络科技有限公司,50-150人,闵行区,本科,B轮,电子商务,121.383882,31.175921,全职,3-5年,"['带薪年假', '年底双薪', '弹性工作', '免费班车']"
105,2262147,iOS,上海,2018-05-02 09:50:15,19.4,1738,有鱼金融科技,上海彩亿信息技术有限公司,500-2000人,徐汇区,硕士,B轮,"移动互联网,金融",121.4031811,31.1646535,全职,3-5年,"['股票期权', '年底双薪', '五险一金', '带薪年假']"
106,3845238,IOS开发工程师,广州,2018-05-03 09:52:57,17.0,120175,祺曜互娱,海南祺曜互动娱乐有限公司,150-500人,天河区,大专,不需要融资,游戏,113.384912,23.118062,全职,3-5年,"['交通补助', '带薪年假', '定期体检', '绩效奖金']"
107,3758849,iOS开发工程师,成都,2018-05-03 09:23:49,21.0,7522,百词斩,成都超有爱科技有限公司,150-500人,武侯区,不限,C轮,"移动互联网,教育",104.070279,30.538067,全职,3-5年,"['股票期权', '年底双薪', '管饭！', '超爱学习']"
108,4459958,iOS开发工程师(增长）,北京,2018-05-02 21:32:33,28.0,1880,快手,北京达佳互联信息技术有限公司,500-2000人,海淀区,本科,D轮及以上,移动互联网,116.316508,39.984066,全职,不限,"['股票期权', '弹性工作', '定期体检', '岗位晋升']"
109,347554,iOS开发工程师,广州,2018-05-02 15:53:51,9.4,42366,大洋信息,广州市大洋信息技术股份有限公司,150-500人,天河区,大专,上市公司,"移动互联网,电子商务",113.344723,23.140492,全职,1-3年,"['技能培训', '年底双薪', '带薪年假', '领导好']"
110,4324445,IOS工程师,深圳,2018-05-02 15:19:16,21.0,180468,星炫科技,深圳市星炫科技有限公司,15-50人,南山区,本科,A轮,移动互联网,113.946882,22.546157,全职,3-5年,"['年底双薪', '交通补助', '弹性工作', '领导好']"
111,4008330,iOS开发工程师,北京,2018-05-02 12:50:28,12.0,163328,小叶收银,小叶云(北京)信息技术有限公司,15-50人,大兴区,不限,未融资,"移动互联网,电子商务",116.568841,39.782176,全职,1-3年,"['弹性工作', '扁平管理', '岗位晋升', '股票期权']"
112,4505156,iOS开发工程师（上海）,上海,2018-05-02 11:38:09,18.2,40270,名片全能王,上海合合信息科技发展有限公司,150-500人,静安区,本科,C轮,移动互联网,121.439769,31.294568,全职,1-3年,"['团队建设', '技能培训', '节日礼物', '年底分红']"
113,4193835,iOS开发工程师,北京,2018-05-02 11:32:26,21.0,284128,NewsJet,北京智分科技有限公司,50-150人,海淀区,本科,不需要融资,移动互联网,116.351631,39.977163,全职,1-3年,"['年底双薪', '免费两餐', 'Geek范', '免费健身']"
114,4480083,iOS开发工程师,郑州,2018-05-02 09:03:14,14.0,57353,中移在线服务有限公司,中移在线服务有限公司,2000人以上,高新区,本科,不需要融资,移动互联网,113.539949,34.804757,全职,3-5年,[]
115,3214324,iOS开发工程师,杭州,2018-05-03 09:49:43,17.0,2380,浙江执御信息技术有限公司,浙江执御信息技术有限公司,2000人以上,拱墅区,本科,B轮,"移动互联网,数据服务",120.11375,30.33331,全职,1-3年,"['五险一金', '带薪年假', '节日礼物', '年度旅游']"
116,4363842,IOS开发工程师,广州,2018-05-03 09:19:27,14.4,67221,百倍科技,广州百倍网络科技有限公司,150-500人,海珠区,大专,不需要融资,"移动互联网,电子商务",113.369667,23.097407,全职,3-5年,"['周末双休', '五险一金', '加班费', '岗位晋升']"
117,4180712,iOS软件开发工程师,广州,2018-05-03 09:10:55,3.8,257650,广州玖维信息科技有限公司,广州玖维信息科技有限公司,150-500人,天河区,大专,上市公司,"移动互联网,数据服务",113.407233,23.129143,全职,1年以下,"['年底双薪', '专项奖金', '年终分红', '带薪年假']"
118,3176778,IOS研发工程师,福州,2018-05-02 17:08:51,9.0,175982,福建日报新媒体,福建报业新媒体发展有限公司,50-150人,鼓楼区,本科,未融资,"移动互联网,电子商务",119.299179,26.100988,全职,3-5年,[]
119,4423699,ios开发工程师,长沙,2018-05-02 16:41:22,8.8,298735,长沙起名网,长沙起名信息科技有限公司,15-50人,岳麓区,大专,不需要融资,移动互联网,112.886825,28.207408,全职,3-5年,[]
120,2641730,ios开发,上海,2018-05-02 09:50:16,16.8,1738,有鱼金融科技,上海彩亿信息技术有限公司,500-2000人,徐汇区,本科,B轮,"移动互联网,金融",121.40437233,31.16440487,全职,3-5年,"['股票期权', '年底双薪', '五险一金', '带薪年假']"
121,3360431,IOS开发工程师,北京,2018-05-02 10:08:20,19.0,126957,北京算云联科,北京算云联科科技有限公司,150-500人,海淀区,本科,不需要融资,"移动互联网,硬件",116.308144,40.045415,全职,5-10年,"['午餐补助', '定期体检', '弹性工作', '五险一金']"
122,4069976,iOS开发工程师,上海,2018-05-02 09:35:52,18.2,40270,名片全能王,上海合合信息科技发展有限公司,150-500人,静安区,本科,C轮,移动互联网,121.439769,31.294568,全职,1-3年,"['团队建设', '技能培训', '节日礼物', '年底分红']"
123,2400944,iOS开发工程师,东莞,2018-05-02 09:12:58,19.0,25576,团贷网,广东俊特团贷网络信息服务股份有限公司,2000人以上,[],大专,C轮,"移动互联网,金融",113.73892,23.00902,全职,3-5年,"['节日礼物', '带薪年假', '年度旅游', '定期体检']"
124,3330298,IOS开发工程师,上海,2018-04-27 18:03:26,9.6,82712,缔安,上海缔安科技股份有限公司,50-150人,长宁区,本科,B轮,移动互联网,121.356187,31.220756,全职,1-3年,"['技能培训', '节日礼物', '股票期权', '绩效奖金']"
125,4184641,iOS软件开发工程师,广州,2018-05-03 08:23:27,3.8,257650,广州玖维信息科技有限公司,广州玖维信息科技有限公司,150-500人,海珠区,大专,上市公司,"移动互联网,数据服务",113.322983,23.096894,全职,1年以下,"['年底双薪', '专项奖金', '年终分红', '带薪年假']"
126,2905234,ios,北京,2018-05-02 18:04:22,11.2,149034,骏嘉财通,北京骏嘉财通科技有限公司,500-2000人,东城区,本科,未融资,金融,116.448998,39.893648,全职,1-3年,"['专项奖金', '绩效奖金', '年终分红', '带薪年假']"
127,3776941,IOS开发工程师,武汉,2018-05-02 17:23:54,7.6,193755,理工数字,武汉理工数字传播工程有限公司,150-500人,洪山区,本科,C轮,"移动互联网,电子商务",114.347592,30.52172,全职,1-3年,"['一年16薪', '通讯津贴', '交通补助', '过节福利']"
128,3704848,ios工程师,杭州,2018-05-02 14:03:52,8.8,87100,信用管家,杭州信牛网络科技有限公司,150-500人,西湖区,大专,A轮,"移动互联网,金融",120.069706,30.2916,全职,1-3年,"['绩效奖金', '股票期权', '带薪年假', '定期体检']"
129,3844310,IOS开发工程师,北京,2018-05-02 09:28:01,14.0,141955,嘀嗒出行,拼途（北京）信息技术有限公司,150-500人,朝阳区,本科,D轮及以上,"移动互联网,O2O",116.473119,40.019247,全职,应届毕业生,"['绩效奖金', '年底双薪', '交通补助', '管理规范']"
130,431201,iOS,广州,2018-05-01 13:14:41,10.8,22450,MAKA,深圳格莱珉文化传播有限公司广州分公司,50-150人,海珠区,本科,A轮,"企业服务,移动互联网",,,全职,1-3年,"['牛人云集', '年底双薪', '技能培训', '定期体检']"
131,4354071,iOS,北京,2018-04-24 20:49:49,28.0,50702,美团点评,北京三快在线科技有限公司,2000人以上,朝阳区,本科,D轮及以上,"移动互联网,O2O",116.48776,40.008007,全职,5-10年,"['技能培训', '绩效奖金', '岗位晋升', '领导好']"
132,2983522,iOS开发工程师,南京,2018-05-02 23:38:22,16.8,1768,ivtime,北京爱唯光石信息技术有限公司,15-50人,江宁区,本科,A轮,"移动互联网,企业服务",118.827108,31.868127,全职,3-5年,"['年底双薪', '股票期权', '专项奖金', '人性化管理']"
133,4494320,ios开发工程师,杭州,2018-05-02 17:30:36,13.2,38306,阿拉丁信息科技,浙江阿拉丁电子商务股份有限公司,150-500人,滨江区,本科,上市公司,移动互联网,120.212651,30.212415,全职,1-3年,"['技能培训', '节日礼物', '带薪年假', '绩效奖金']"
134,2638251,iOS开发工程师,上海,2018-05-02 17:17:00,17.8,69993,凯石财富,上海凯石财富基金销售有限公司,150-500人,黄浦区,本科,不需要融资,金融,120.993464,30.994061,全职,3-5年,"['技能培训', '年底双薪', '节日礼物', '绩效奖金']"
135,4504478,高级iOS研发工程师,北京,2018-05-02 15:04:26,17.0,307965,看理想,北京看理想文化传媒有限公司,50-150人,东城区,本科,A轮,其他,116.416151,39.960673,全职,5-10年,"['带薪年假', '定期体检', '扁平管理', '五险一金']"
136,4020782,ios开发工程师,杭州,2018-05-02 13:21:31,11.8,213185,滚马网络,杭州滚马网络有限公司,50-150人,余杭区,本科,A轮,移动互联网,120.008494,30.2825,全职,1-3年,"['带薪年假', '定期体检', '晋升无障碍', '年底双薪']"
137,4430286,ios工程师,北京,2018-05-02 10:51:27,12.0,149034,骏嘉财通,北京骏嘉财通科技有限公司,500-2000人,东城区,本科,未融资,金融,116.448998,39.893648,全职,3-5年,"['专项奖金', '绩效奖金', '年终分红', '带薪年假']"
138,936743,ios工程师,成都,2018-05-02 10:47:42,6.8,57477,艾美互娱,成都艾美互娱科技有限公司,50-150人,武侯区,大专,不需要融资,移动互联网,104.071409,30.55326,全职,1-3年,"['节日礼物', '技能培训', '带薪年假', '年度旅游']"
139,2689095,iOS开发工程师,北京,2018-05-02 10:23:36,22.4,436,360,奇虎360科技有限公司,2000人以上,朝阳区,本科,上市公司,"移动互联网,游戏",116.49131503,39.96517336,全职,3-5年,[]
140,4483021,IOS开发工程师,上海,2018-05-02 10:12:54,14.0,5674,华尔街见闻,上海阿牛信息科技有限公司,150-500人,黄浦区,本科,B轮,"金融,移动互联网",121.47806,31.206338,全职,1-3年,"['技能培训', '节日礼物', '岗位晋升', '年度旅游']"
141,4045371,IOS开发,肇庆,2018-05-02 08:46:52,8.4,30923,华盈,肇庆市华盈体育文化发展有限公司,150-500人,端州区,本科,A轮,文化娱乐,112.497383,23.084687,全职,1-3年,"['高提成奖金', '高成长公司', '股份期权', '团队创新高效']"
142,2211416,iOS开发工程师,镇江,2018-05-03 09:52:41,8.4,112355,斯诺物联,江苏斯诺物联科技有限公司,15-50人,京口区,本科,未融资,"移动互联网,O2O",119.514729,32.157663,全职,1-3年,"['绩效奖金', '午餐补助', '弹性工作', '年度旅游']"
143,4504182,IOS开发工程师,深圳,2018-05-02 18:53:58,28.0,3058,无秘,深圳无觅科技有限公司,150-500人,南山区,本科,B轮,"移动互联网,金融",113.950732,22.553181,全职,不限,"['高速增长', '股票期权', '小而精', '扁平管理']"
144,3799172,IOS开发工程师,成都,2018-05-02 17:38:17,14.0,29209,优客逸家,优客逸家(成都)信息科技有限公司,500-2000人,高新区,本科,C轮,O2O,104.060731,30.584751,全职,3-5年,"['节日礼物', '年底双薪', '绩效奖金', '年度旅游']"
145,4250613,iOS开发工程师,北京,2018-05-02 10:29:58,24.0,2176,时光网-Mtime,影时光网络技术（北京）有限公司,500-2000人,朝阳区,本科,不需要融资,"移动互联网,文化娱乐",116.476595,39.912924,全职,3-5年,"['带薪年假', '绩效奖金', '补充商业保险', '定期体检']"
146,3582085,IOS开发工程师,深圳,2018-05-02 09:26:12,15.8,50241,Symbio-Freeborders,信必优(深圳)信息技术有限公司,2000人以上,罗湖区,大专,未融资,"移动互联网,电子商务",114.11065,22.542724,全职,3-5年,"['节日礼物', '年底双薪', '带薪年假', '年度旅游']"
147,4091835,IOS开发,杭州,2018-05-02 09:18:42,10.8,287036,校开花,杭州校开花科技有限公司,150-500人,拱墅区,大专,不需要融资,"移动互联网,社交网络",120.119348,30.335848,全职,1-3年,"['股票期权', '绩效奖金', '带薪年假', '定期体检']"
148,3286440,Ios开发工程师,广州,2018-05-01 22:52:28,24.8,129877,航仕科技,上海航仕企业管理有限公司,150-500人,天河区,本科,C轮,"移动互联网,O2O",113.383363,23.118036,全职,3-5年,"['年底双薪', '午餐补助', '专项奖金', '绩效奖金']"
149,4149473,IOS开发工程师,沈阳,2018-05-03 09:37:51,10.8,201059,致学教育,成都致学教育科技有限公司,50-150人,浑南区,本科,A轮,教育,123.458023,41.718073,全职,3-5年,"['股票期权', '绩效奖金', '带薪年假', '定期体检']"
150,4322659,ios开发工程师(东莞),东莞,2018-05-03 09:20:10,6.2,65521,泽林信息,深圳市泽林信息咨询有限公司,500-2000人,东莞市市辖区,大专,不需要融资,教育,113.739182,23.025818,全职,1-3年,"['节日礼物', '技能培训', '绩效奖金', '年度旅游']"
151,4479708,iOS开发工程师,保定,2018-05-02 10:09:25,9.8,288177,哈弗租赁,哈弗汽车租赁有限公司,50-150人,南市区,大专,不需要融资,移动互联网,115.465603,38.816119,全职,不限,"['弹性工作', '法定节假日', '初创型公司', '稳定持续性']"
152,4359509,iOS开发工程师,广州,2018-05-02 09:58:40,9.6,128945,梦映动漫,广州梦映动漫网络科技有限公司,50-150人,海珠区,本科,A轮,"移动互联网,文化娱乐",113.404327,23.09236,全职,1-3年,"['股票期权', '领导好', '五险一金', '扁平管理']"
153,3576918,IOS&amp;Android专家-P7-菜鸟-北京/杭州,北京,2018-05-02 09:00:59,35.0,153849,蚂蚁金服集团,支付宝(杭州)信息技术有限公司,2000人以上,朝阳区,本科,B轮,"金融,移动互联网",116.473565,39.903578,全职,3-5年,"['年底双薪', '带薪年假', '股票期权', '绩效奖金']"
154,4453706,iOS开发工程师,武汉,2018-04-28 09:44:23,12.6,7682,极验,武汉极意网络科技有限公司,50-150人,东湖新技术开发区,本科,B轮,"信息安全,数据服务",114.410747,30.455303,全职,3-5年,"['股票期权', '绩效奖金', '交通补助', '带薪年假']"
155,4463568,iOS开发工程师,西安,2018-05-02 16:36:58,8.2,113698,秦学教育集团,陕西伊顿文化发展有限公司,500-2000人,雁塔区,大专,A轮,"教育,O2O",108.906363,34.225457,全职,3-5年,[]
156,3592868,IOS开发设计师,北京,2018-05-02 13:19:47,12.0,149034,骏嘉财通,北京骏嘉财通科技有限公司,500-2000人,东城区,本科,未融资,金融,116.448998,39.893648,全职,3-5年,"['专项奖金', '绩效奖金', '年终分红', '带薪年假']"
157,4051606,IOS开发工程师,重庆,2018-05-03 09:49:05,8.8,14567,重庆易宠科技有限公司,重庆易宠科技有限公司,150-500人,渝北区,本科,B轮,电子商务,106.490205,29.621586,全职,不限,"['年底双薪', '节日礼物', '技能培训', '绩效奖金']"
158,4506012,IOS开发工程师,杭州,2018-05-02 14:04:59,18.0,7101,海康威视,杭州海康威视数字技术股份有限公司,2000人以上,滨江区,本科,上市公司,不限,120.219113,30.208219,全职,3-5年,"['绩效奖金', '年终分红', '股票期权', '五险一金']"
159,2853512,IOS开发工程师,北京,2018-05-02 10:50:45,17.0,157387,水母基因,北京水母科技有限公司,50-150人,通州区,本科,A轮,"医疗健康,移动互联网",116.570329,39.781515,全职,3-5年,"['年底双薪', '午餐补助', '股票期权', '带薪年假']"
160,2789537,ios 开发工程师,深圳,2018-05-02 09:56:44,14.4,115637,万汇互联,万汇互联（深圳）科技有限公司,150-500人,南山区,本科,天使轮,"社交网络,金融",113.94727,22.5466,全职,3-5年,"['年终分红', '绩效奖金', '股票期权', '带薪年假']"
161,2208709,iOS,广州,2018-05-02 09:41:27,12.4,46944,云智易,广州云湾信息技术有限公司,50-150人,海珠区,本科,B轮,"移动互联网,硬件",113.362968,23.099621,全职,1-3年,"['岗位晋升', '扁平管理', '年底双薪', '六险一金']"
162,4339161,iOS软件开发工程师,广州,2018-05-03 09:25:27,4.8,257650,广州玖维信息科技有限公司,广州玖维信息科技有限公司,150-500人,天河区,大专,上市公司,"移动互联网,数据服务",113.346731,23.148056,全职,1年以下,"['年底双薪', '专项奖金', '年终分红', '带薪年假']"
163,3927531,iOS工程师,上海,2018-05-02 17:12:25,21.0,213786,咪咕,咪咕文化科技有限公司,2000人以上,黄浦区,本科,不需要融资,"移动互联网,文化娱乐",121.472807,31.236962,全职,3-5年,"['定期体检', '带薪年假', '绩效奖金', '专项奖金']"
164,301519,iOS开发工程师,广州,2018-05-02 11:31:37,14.0,112,爱拍原创,广州爱拍网络科技有限公司,150-500人,天河区,本科,D轮及以上,文化娱乐,113.371417,23.123497,全职,1-3年,"['团队牛掰', '企业文化温馨', '绩效奖金丰厚', '内部孵化项目']"
165,3905240,IOS,上海,2018-05-02 10:40:23,12.4,130659,舟恩信息,上海舟恩信息技术有限公司,150-500人,徐汇区,大专,不需要融资,移动互联网,121.462683,31.1871,全职,3-5年,[]
166,4401021,iOS开发工程师,广州,2018-05-02 09:49:32,12.0,97045,合利宝,广州合利宝支付科技有限公司,150-500人,天河区,本科,上市公司,"移动互联网,金融",113.326316,23.124065,全职,3-5年,"['股票期权', '带薪年假', '绩效奖金', '岗位晋升']"
167,3305566,iOS/Android技术专家-P7-商家-杭州,杭州,2018-05-02 09:29:43,35.0,153849,蚂蚁金服集团,支付宝(杭州)信息技术有限公司,2000人以上,余杭区,本科,B轮,"金融,移动互联网",120.026208,30.279212,全职,3-5年,"['年底双薪', '带薪年假', '股票期权', '绩效奖金']"
168,4454414,iOS工程师/iOS开发工程师,深圳,2018-05-02 09:10:36,17.8,70686,哎吖科技,深圳市哎吖科技有限公司,15-50人,南山区,本科,天使轮,"移动互联网,社交网络",113.954869,22.534231,全职,3-5年,"['年底双薪', '节日礼物', '绩效奖金', '年度旅游']"
169,4448240,IOS开发,贵阳,2018-05-02 09:08:00,9.0,303846,多彩贵州印象网络传媒股份有限公司,多彩贵州印象网络传媒股份有限公司,150-500人,南明区,本科,未融资,"移动互联网,数据服务",106.714694,26.572599,全职,3-5年,"['年底双薪', '专项奖金', '交通补助', '通讯津贴']"
170,3332323,IOS开发工程师,上海,2018-04-28 17:31:48,14.8,128998,江苏亿科达,上海海万信息科技股份有限公司,500-2000人,静安区,大专,不需要融资,"移动互联网,金融",121.458959,31.266934,全职,3-5年,[]
171,4231152,IOS研发工程师,广州,2018-04-28 17:14:55,15.2,5726,翼课网,广州摩翼信息科技有限公司,500-2000人,番禺区,本科,不需要融资,"移动互联网 ,教育",0.0,0.0,全职,1-3年,"['节日礼物', '在线教育', '岗位晋升', '五险一金']"
172,2375385,iOS开发工程师,北京,2018-04-25 09:43:52,11.2,40924,挖酒网,北京挖玖电子商务有限公司,150-500人,东城区,本科,B轮,电子商务,0.0,0.0,全职,1-3年,"['股票期权', '带薪年假', '岗位晋升', '帅哥多']"
173,4287518,Android / iOS / RN工程师,北京,2018-04-25 09:32:39,42.0,61921,人人行(借贷宝),人人行科技有限公司,2000人以上,朝阳区,本科,C轮,"移动互联网,金融",116.416771,40.015961,全职,3-5年,"['年底双薪', '节日礼物', '绩效奖金', '岗位晋升']"
174,4510092,IOS软件工程师,广州,2018-05-03 09:24:31,8.4,173479,墨海科技,广州墨海信息科技有限公司,少于15人,天河区,大专,A轮,"移动互联网,游戏",113.377018,23.125227,全职,1-3年,"['年底双薪', '专项奖金', '股票期权', '绩效奖金']"
175,4426908,iOS开发工程师,广州,2018-05-02 16:47:27,10.8,309028,小树科技,广州小树网络科技有限公司,50-150人,天河区,大专,不需要融资,"移动互联网,数据服务",113.356072,23.16205,全职,1-3年,"['带薪年假', '绩效奖金', '年底双薪', '年终分红']"
176,4397655,ios开发工程师,杭州,2018-05-02 15:36:13,10.8,61105,利尔达,利尔达科技集团股份有限公司,500-2000人,余杭区,本科,上市公司,"移动互联网,硬件",119.99215,30.27645,全职,1-3年,"['技能培训', '节日礼物', '绩效奖金', '岗位晋升']"
177,3422232,iOS 工程师,上海,2018-05-02 14:49:42,22.2,3422,英语流利说,上海流利说信息技术有限公司,500-2000人,杨浦区,本科,C轮,"移动互联网,教育",121.99341,30.994275,全职,1-3年,"['弹性工作', '五险一金', '年度旅游', '年底双薪']"
178,4395155,IOS开发工程师,北京,2018-05-02 14:29:06,24.0,236936,原始空气,加丁（天津）科技有限公司,50-150人,朝阳区,本科,天使轮,"硬件,移动互联网",116.423428,39.980945,全职,3-5年,"['股票期权', '年终分红', '扁平管理', '弹性工作']"
179,4486684,IOS开发工程师,杭州,2018-05-02 12:07:47,9.8,85833,创建科技,浙江创建科技有限公司,150-500人,西湖区,本科,未融资,"移动互联网,企业服务",0.0,0.0,全职,1-3年,"['免费班车', '带薪年假', '绩效奖金', '定期体检']"
180,4025792,IOS开发工程师,广州,2018-05-02 11:17:29,10.8,246130,广东原动力,广东原动力信息科技有限责任公司,50-150人,天河区,本科,未融资,"移动互联网,信息安全",113.328507,23.113394,全职,3-5年,[]
181,2015861,iOS开发工程师,武汉,2018-05-02 09:55:17,7.6,81341,点智科技,武汉点智科技有限公司,150-500人,青山区,大专,B轮,移动互联网,114.40163,30.638735,全职,1-3年,"['年底双薪', '专项奖金', '带薪年假', '绩效奖金']"
182,3759972,Ios开发工程师,长沙,2018-05-02 09:54:12,10.8,26785,芒果tv,湖南快乐阳光互动娱乐传媒有限公司,500-2000人,开福区,本科,B轮,文化娱乐,0.0,0.0,全职,3-5年,"['节日礼物', '免费班车', '带薪年假', '领导好']"
183,3277874,ios开发工程师,广州,2018-05-02 09:47:13,12.0,35776,寄锦教育,广州寄锦教育科技有限公司,150-500人,天河区,本科,不需要融资,教育,113.333276,23.132749,全职,3-5年,"['技能培训', '节日礼物', '专项奖金', '绩效奖金']"
184,3814699,iOS开发,杭州,2018-05-02 09:19:18,9.6,112666,浙江远图互联科技股份有限公司,浙江远图互联科技股份有限公司,150-500人,西湖区,本科,上市公司,"移动互联网,医疗健康",120.064595,30.308078,全职,1年以下,"['带薪年假', '定期体检', '专项奖金', '股票期权']"
185,3747004,IOS开发工程师,郑州,2018-05-02 09:03:15,14.0,57353,中移在线服务有限公司,中移在线服务有限公司,2000人以上,高新区,本科,不需要融资,移动互联网,39.897445,116.331398,全职,3-5年,[]
186,154987,iOS开发工程师,深圳,2018-05-03 09:49:07,11.4,26399,云图TV,珠海云迈网络科技有限公司,50-150人,南山区,大专,A轮,移动互联网,113.90929514,22.55018629,全职,不限,"['带薪年假', '绩效奖金', '年度旅游', '扁平管理']"
187,3781151,iOS,广州,2018-05-03 09:10:26,8.4,281289,泰商服,广州市泰商服信息科技有限公司,15-50人,番禺区,本科,不需要融资,"移动互联网,企业服务",113.364917,23.017308,全职,1-3年,"['绩效奖金', '年度旅游', '领导好', '五险一金']"
188,3861965,IOS开发工程师,长沙,2018-05-02 17:56:32,6.8,122035,中融汇智信息科技公司,湖南中融汇智信息科技股份有限公司,50-150人,天心区,不限,天使轮,"数据服务,企业服务",112.98562,28.162508,全职,1-3年,[]
189,4402397,iOS,北京,2018-05-02 12:03:49,28.0,286568,音娱时光,北京音娱时光科技有限公司,50-150人,海淀区,本科,A轮,移动互联网,0.0,0.0,全职,3-5年,"['年底双薪', '绩效奖金', '带薪年假', '扁平管理']"
190,4380702,IOS上架,深圳,2018-05-02 09:46:13,19.0,206935,奇乐互娱,深圳市奇乐互娱科技有限公司,15-50人,宝安区,不限,不需要融资,"移动互联网,游戏",113.864422,22.574423,全职,1-3年,"['绩效奖金', '带薪年假', '交通补助', '年度旅游']"
191,4270251,IOS开发工程师（可转正）,广州,2018-05-01 17:41:48,6.8,4126,POCO.CN,广州数联软件技术有限公司,150-500人,越秀区,本科,B轮,"移动互联网,文化娱乐",113.30819,23.12011,全职,应届毕业生,"['专项奖金', '带薪年假', '绩效奖金', '岗位晋升']"
192,2409204,iOS,长沙,2018-05-03 09:47:41,9.6,69072,蜂投网,深圳前海大众互联网金融服务有限公司湖南分公司,150-500人,天心区,本科,不需要融资,金融,112.99100019,28.06871996,全职,3-5年,"['包吃', '五险一金', '绩效奖金', '定期体检']"
193,4508783,ios开发工程师,广州,2018-05-02 17:55:11,8.4,377086,华林珠宝,广州华林珠宝有限公司,150-500人,荔湾区,大专,不需要融资,"电子商务,金融",113.2476,23.11544,全职,1-3年,"['""""']"
194,3578376,iOS开发工程师,北京,2018-05-02 14:19:56,24.0,329,网易,网易（杭州）有限公司,2000人以上,海淀区,本科,上市公司,"电子商务,移动互联网",115.99339,39.99426,全职,不限,"['节日礼物', '技能培训', '免费班车', '带薪年假']"
195,1513991,iOS开发工程师,上海,2018-05-02 11:13:57,22.0,3112,沪江,沪江教育科技（上海）股份有限公司,500-2000人,浦东新区,本科,D轮及以上,"移动互联网,教育",121.60409,31.20250986,全职,3-5年,"['技能培训', '节日礼物', '年底双薪', '专项奖金']"
196,3782298,iOS&amp;Andriod工程师-P7-淘宝-杭州北京,杭州,2018-05-02 09:29:42,35.0,153849,蚂蚁金服集团,支付宝(杭州)信息技术有限公司,2000人以上,西湖区,本科,B轮,"金融,移动互联网",120.026208,30.279212,全职,3-5年,"['年底双薪', '带薪年假', '股票期权', '绩效奖金']"
197,558738,iOS研发工程师,杭州,2018-05-01 20:25:37,12.0,23599,触手,杭州开迅科技有限公司,150-500人,西湖区,本科,D轮及以上,移动互联网,120.05950765,30.2865939,全职,1-3年,"['年底双薪', '五险一金', '通讯津贴', '带薪年假']"
198,4233940,IOS开发工程师,广州,2018-04-28 10:47:20,14.0,237567,锦峰,广东锦峰集团有限公司广州分公司,500-2000人,天河区,大专,不需要融资,移动互联网,113.321766,23.11644,全职,3-5年,"['绩效奖金', '年度旅游', '领导好', '美女多']"
199,3719798,iOS工程师,深圳,2018-04-27 10:22:32,16.0,25317,金证股份,深圳市金证科技股份有限公司,2000人以上,南山区,本科,上市公司,金融,0.0,0.0,全职,3-5年,"['激情的团队', '股票期权', '努力变大牛', '有舞台给您跳']"
200,3689131,iOS工程师（杭州）,杭州,2018-05-03 09:38:33,14.0,34872,奇志信息科技,广州奇志信息科技有限公司,15-50人,西湖区,本科,A轮,移动互联网,120.124737,30.27873,全职,1-3年,"['年底双薪', '带薪年假', '岗位晋升', '扁平管理']"
201,4036850,IOS工程师,郑州,2018-05-02 18:22:56,8.8,116333,象聚集团,河南象聚实业有限公司,500-2000人,高新区,大专,不需要融资,"移动互联网,金融",113.566392,34.817257,全职,3-5年,"['定期体检', '派对旅游', '六险一金', '绩效奖金']"
202,4464772,IOS开发工程师,成都,2018-05-02 11:34:26,12.0,34551,对啊网,北京对啊网教育科技有限公司,500-2000人,成华区,大专,C轮,移动互联网,104.101255,30.660122,全职,1-3年,"['技能培训', '节日礼物', '带薪年假', '绩效奖金']"
203,678672,iOS,北京,2018-05-02 10:52:46,17.0,29337,和信贷,和信电子商务有限公司,150-500人,朝阳区,本科,上市公司,金融,,,全职,3-5年,"['节日礼物', '专项奖金', '股票期权', '绩效奖金']"
204,3721774,iOS开发工程师,上海,2018-05-02 09:45:07,31.0,49653,人人视频,上海众多美网络科技有限公司,150-500人,杨浦区,本科,B轮,"移动互联网,文化娱乐",121.51979,31.29904,全职,5-10年,"['股票期权', '岗位晋升', '打车补贴', '美剧福利']"
205,4233220,iOS工程师,北京,2018-04-28 11:53:51,18.4,53137,家园网,家园网络科技有限公司,2000人以上,东城区,本科,不需要融资,O2O,115.99339,39.99426,全职,3-5年,"['节日礼物', '带薪年假', '绩效奖金', '管理规范']"
206,4447356,ios开发工程师,北京,2018-04-19 10:37:57,21.0,124192,闲徕互娱,北京闲徕互娱网络科技有限公司,500-2000人,朝阳区,本科,不需要融资,游戏,116.414211,40.032234,全职,3-5年,"['年底双薪', '股票期权', '带薪年假', '专项奖金']"
207,4451620,iOS开发工程师,广州,2018-05-02 11:39:42,8.4,66619,智悅网络,广州智悦网络科技有限公司,50-150人,天河区,大专,A轮,"移动互联网,电子商务",113.372277,23.12281,全职,1-3年,"['五险一金', '年底双薪', '专项奖金', '带薪年假']"
208,4086054,iOS 开发工程师,北京,2018-05-02 11:35:23,21.0,116093,Castbox,克鲁（北京）网络科技有限公司,50-150人,朝阳区,本科,B轮,"移动互联网,文化娱乐",116.476555,39.989643,全职,3-5年,"['股票期权', '弹性工作', '六险一金', '免费按摩']"
209,4444769,iOS开发工程师,北京,2018-05-02 10:17:47,21.0,248005,红赢科技,北京红赢科技有限公司,50-150人,海淀区,本科,不需要融资,"移动互联网,金融",116.320755,39.976715,全职,3-5年,"['专项奖金', '年终分红', '带薪年假', '定期体检']"
210,690907,iOS开发工程师,广州,2018-05-02 09:41:27,10.8,46944,云智易,广州云湾信息技术有限公司,50-150人,海珠区,本科,B轮,"移动互联网,硬件",113.3308908,23.08053665,全职,1-3年,"['岗位晋升', '扁平管理', '年底双薪', '六险一金']"
211,3258196,IOS开发,合肥,2018-05-02 09:36:51,10.8,164634,百得思维,安徽百得思维信息科技有限公司,500-2000人,高新区,本科,未融资,其他,117.144594,31.831305,全职,3-5年,[]
212,4058270,iOS开发工程师,深圳,2018-05-02 09:09:46,10.8,293568,Navatics,深圳纳瓦科技有限公司,15-50人,南山区,大专,A轮,"移动互联网,硬件",0.0,0.0,全职,不限,"['定期体检', '股票期权', '弹性工作', '年度旅游']"
213,4510402,IOS开发工程师,杭州,2018-05-03 09:54:51,8.8,305118,灼跃科技,杭州灼跃互联网科技有限公司,50-150人,,不限,不需要融资,金融,,,全职,1-3年,"['""""']"
214,3464458,高级IOS开发工程师,北京,2018-05-03 09:54:04,24.0,168991,老虎证券,北京优虎商务服务有限公司,150-500人,朝阳区,本科,B轮,"移动互联网,金融",116.460172,39.952787,全职,3-5年,"['绩效奖金', '年底双薪', '带薪年假', '定期体检']"
215,4450629,IOS开发工程师,武汉,2018-05-03 09:46:08,9.6,34738,贝护佳,广州贝护佳医疗科技有限公司,15-50人,武昌区,大专,未融资,医疗健康,,,全职,1-3年,"['节日礼物', '股票期权', '带薪年假', '绩效奖金']"
216,4096700,iOS开发工程师,上海,2018-05-03 09:32:05,19.0,246971,Vechain,上海唯链信息科技有限公司,50-150人,静安区,大专,A轮,"移动互联网,信息安全",121.438506,31.221671,全职,3-5年,"['弹性工作', '五险一金', '老司机驾校', '年底N薪']"
217,4470947,iOS开发工程师,广州,2018-05-03 09:26:06,14.0,7358,美的集团IT,美的集团股份有限公司,2000人以上,番禺区,本科,上市公司,硬件,113.269462,22.988878,全职,3-5年,"['五险一金', '带薪年假', '免费班车', '年度旅游']"
218,3798942,ios开发工程师,杭州,2018-05-03 09:18:54,12.0,11501,天鸽互动,天格科技（杭州）有限公司,500-2000人,上城区,本科,上市公司,"移动互联网,电子商务",121.496072,31.227203,全职,1-3年,"['年终分红', '绩效奖金', '股票期权', '年底双薪']"
219,4494100,ios工程师,深圳,2018-05-03 09:06:50,10.4,21101,英迈思,深圳英迈思文化科技有限公司,500-2000人,宝安区,本科,B轮,移动互联网,113.863714,22.569319,全职,1-3年,"['五险一金', '扁平管理', '岗位晋升', '技能培训']"
220,4509581,iOS工程师-北京-00934,北京,2018-05-02 20:29:42,18.2,21539,比特大陆,北京比特大陆科技有限公司,150-500人,海淀区,本科,不需要融资,"移动互联网,硬件",116.377238,40.031997,全职,1-3年,"['丰厚底薪', '年底双薪', '六险一金', '午餐补助']"
221,4481936,iOS开发工程师,上海,2018-05-02 14:04:11,12.0,90537,Voyageone,上海沃易智电子商务有限公司,150-500人,浦东新区,本科,不需要融资,电子商务,121.99341,30.994275,全职,3-5年,"['带薪年假', '年度旅游', '扁平管理', '五险一金']"
222,4212885,IOS开发工程师,深圳,2018-05-02 10:12:45,14.0,141836,万威,深圳万威科技有限公司,500-2000人,南山区,本科,不需要融资,其他,113.95433,22.528797,全职,3-5年,"['带薪年假', '午餐补助', '定期体检', '年底双薪']"
223,4081678,ios开发工程师J10686,深圳,2018-05-02 09:51:54,15.2,41178,货拉拉手机打车软件,深圳依时货拉拉科技有限公司,500-2000人,福田区,本科,C轮,"移动互联网,O2O",114.055901,22.563101,全职,3-5年,"['技能培训', '专项奖金', '绩效奖金', '扁平管理']"
224,4442658,iOS 开发,上海,2018-05-02 09:04:17,15.8,17693,神州数码通用软件,神州数码通用软件（北京）有限公司,500-2000人,静安区,本科,不需要融资,企业服务,121.452581,31.226442,全职,3-5年,[]
225,3339160,iOS开发工程师,北京,2018-04-26 14:35:02,26.0,1561,Face++,北京旷视科技有限公司,500-2000人,海淀区,本科,C轮,"移动互联网,硬件",0.0,0.0,全职,3-5年,"['科技大牛公司', '自助三餐', '年终多薪', '超长带薪假期']"
226,1608890,iOS工程师,北京,2018-04-24 09:45:29,21.0,46956,快看漫画,快看世界（北京）科技有限公司,150-500人,朝阳区,本科,D轮及以上,"移动互联网,文化娱乐",116.47971721,39.99502389,全职,1-3年,"['节日礼物', '带薪年假', '每日水果零食', '股票期权']"
227,3490664,ios工程师,重庆,2018-05-03 09:44:39,9.6,157809,九吨科技,重庆市九吨科技有限公司,150-500人,渝北区,本科,不需要融资,移动互联网,106.500767,29.608046,全职,1-3年,"['年底双薪', '绩效奖金', '定期体检', '午餐补助']"
228,3730914,iOS开发工程师,厦门,2018-05-03 09:36:55,12.0,42270,他趣,厦门海豹他趣信息技术股份有限公司,150-500人,思明区,不限,上市公司,"移动互联网,电子商务",118.186,24.48207,全职,1-3年,"['年底双薪', '带薪年假', '年度旅游', '扁平管理']"
229,2651434,ios开发工程师,北京,2018-05-03 09:30:56,14.0,70634,彩视,迅捷联动（北京）科技有限公司,15-50人,朝阳区,本科,A轮,移动互联网,116.443108,39.92147,全职,1-3年,"['技能培训', '年底双薪', '股票期权', '带薪年假']"
230,3264881,IOS工程师,东莞,2018-05-02 18:11:22,10.8,213391,腾讯汽车区域运营中心,东莞顺为广告有限公司,150-500人,东莞市市辖区,本科,未融资,"广告营销,移动互联网",113.755505,23.007973,全职,1-3年,"['腾讯平台', '年轻团队', '五险一金', '气氛活跃']"
231,4508838,ios开发工程师,上海,2018-05-02 17:59:55,14.0,259838,上海友动,上海友动网络科技有限公司,少于15人,闸北区,本科,不需要融资,"移动互联网,广告营销",121.440653,31.281782,全职,1-3年,[]
232,4483578,IOS开发工程师,北京,2018-05-02 17:46:02,12.6,56363,安易信,北京安易信科技有限公司,50-150人,海淀区,本科,上市公司,"金融,数据服务",116.351057,39.977249,全职,1-3年,"['技能培训', '年底双薪', '专项奖金', '带薪年假']"
233,4508189,IOS开发工程师,深圳,2018-05-02 17:01:29,8.4,182836,德盟互联,深圳市德盟互联科技有限公司,15-50人,龙岗区,大专,不需要融资,"电子商务,企业服务",114.271532,22.721364,全职,1-3年,[]
234,4404011,"Software Engineer, iOS",北京,2018-05-02 14:31:36,21.0,173284,印象笔记,艾沃诺特（北京）科技有限公司,150-500人,朝阳区,本科,D轮及以上,"移动互联网,企业服务",116.487867,39.999765,全职,3-5年,"['高端医疗保险', '股票期权', '交通补助', '午餐补助']"
235,4337358,Ios工程师,上海,2018-05-02 05:55:19,19.0,299620,Runx跑先体育传媒,上海答派体育文化发展有限公司,50-150人,闵行区,本科,不需要融资,"移动互联网,游戏",121.31577,31.201078,全职,3-5年,[]
236,1595347,iOS,福州,2018-04-28 10:09:17,14.0,8288,网龙网络有限公司,福建网龙计算机网络信息技术有限公司,2000人以上,仓山区,本科,上市公司,"移动互联网,教育",118.191445,24.494958,全职,3-5年,"['技能培训', '节日礼物', '绩效奖金', '岗位晋升']"
237,4031640,IOS开发工程师,昆明,2018-04-27 09:26:03,14.0,309094,云南腾云,云南腾云信息产业有限公司,50-150人,五华区,本科,未融资,"移动互联网,旅游",102.652837,25.078408,全职,3-5年,"['绩效奖金', '带薪年假', '弹性工作', '年度旅游']"
238,4486565,ios开发工程师,北京,2018-04-26 13:20:36,28.0,165649,混沌大学,混沌时代（北京）教育科技有限公司,150-500人,海淀区,本科,不需要融资,"移动互联网,教育",116.33356,39.971488,全职,3-5年,"['弹性工作', '扁平管理', '领导好', '五险一金']"
239,3767841,IOS开发工程师,成都,2018-05-03 09:37:51,13.2,201059,致学教育,成都致学教育科技有限公司,50-150人,高新区,本科,A轮,教育,104.055597,30.586056,全职,3-5年,"['股票期权', '绩效奖金', '带薪年假', '定期体检']"
240,4134817,IOS开发工程师,杭州,2018-05-03 09:18:58,11.0,272040,霖梓网络,杭州霖梓网络科技有限公司,150-500人,滨江区,本科,A轮,"移动互联网,金融",120.160786,30.184456,全职,1-3年,"['股票期权', '专项奖金', '带薪年假', '年底双薪']"
241,4045551,IOS开发工程师,深圳,2018-05-02 18:37:38,15.0,30100,Hua.com 花礼网,深圳市百易信息技术有限公司,50-150人,南山区,本科,不需要融资,"电子商务,移动互联网",113.993578,22.99368,全职,3-5年,"['节日礼物', '带薪年假', '年度旅游', '岗位晋升']"
242,4223875,IOS,北京,2018-05-02 18:04:23,12.0,149034,骏嘉财通,北京骏嘉财通科技有限公司,500-2000人,东城区,本科,未融资,金融,116.448998,39.893648,全职,3-5年,"['专项奖金', '绩效奖金', '年终分红', '带薪年假']"
243,1352581,iOS开发工程师,厦门,2018-05-02 12:40:14,10.8,54777,优倍快 (UBNT),优倍快网络技术咨询(上海)有限公司,150-500人,思明区,不限,上市公司,"移动互联网,硬件",118.1918365,24.47437351,全职,1-3年,"['扁平管理', '创业氛围', '开放', '高福利']"
244,3264665,iOS工程师,深圳,2018-05-02 09:51:45,14.0,179243,云集,浙江集商优选电子商务有限公司,500-2000人,宝安区,大专,B轮,"电子商务,移动互联网",113.864071,22.584243,全职,3-5年,"['绩效奖金', '股票期权', '五险一金', '午餐补助']"
245,4068309,iOS 开发工程师,长沙,2018-04-28 10:09:13,11.2,37483,湖南芒果优秀网络科技有限公司,湖南芒果优秀网络科技有限公司,50-150人,开福区,本科,A轮,移动互联网,112.999887,28.216525,全职,3-5年,"['节日礼物', '技能培训', '绩效奖金', '岗位晋升']"
246,823605,iOS开发工程师,武汉,2018-04-28 09:44:23,12.6,7682,极验,武汉极意网络科技有限公司,50-150人,东湖新技术开发区,本科,B轮,"信息安全,数据服务",114.408836,30.454069,全职,3-5年,"['股票期权', '绩效奖金', '交通补助', '带薪年假']"
247,3632777,IOS开发工程师,武汉,2018-04-27 11:04:30,13.2,205821,武汉烧麦财播科技有限公司,武汉烧麦财播科技有限公司,50-150人,武昌区,本科,不需要融资,"移动互联网,金融",114.341085,30.554869,全职,5-10年,[]
248,4128808,IOS开发工程师,北京,2018-04-23 10:32:36,14.0,50120,百场汇,北京易客信息技术有限公司,50-150人,朝阳区,本科,B轮,"移动互联网,O2O",116.49098,39.974306,全职,3-5年,"['技能培训', '绩效奖金', '年度旅游', '岗位晋升']"
249,4510187,IOS开发工程师,佛山,2018-05-03 09:36:35,11.2,358021,广东众汇,广东众汇商务有限公司,150-500人,禅城区,大专,未融资,金融,113.128062,23.027215,全职,3-5年,"['""""']"
250,3871598,IOS,深圳,2018-05-03 09:29:09,10.6,21101,英迈思,深圳英迈思文化科技有限公司,500-2000人,宝安区,大专,B轮,移动互联网,113.855458,22.607115,全职,1-3年,"['五险一金', '扁平管理', '岗位晋升', '技能培训']"
251,4129911,IOS 开发工程师,珠海,2018-05-03 09:03:21,7.6,323643,心云科技,珠海心云科技有限公司,少于15人,香洲区,本科,不需要融资,"移动互联网,电子商务",113.59734,22.365727,全职,1-3年,"['""""']"
252,4406144,iOS开发工程师,上海,2018-05-02 17:28:00,14.0,229115,洪涛教育,深圳市前海洪涛教育科技有限公司,500-2000人,杨浦区,本科,上市公司,"教育,移动互联网",121.503362,31.27716,全职,3-5年,"['带薪年假', '年度旅游', '节日礼物', '帅哥多']"
253,4380104,IOS工程师,北京,2018-05-02 10:56:27,18.2,6552,生日管家,北京十月逸栈科技有限公司,150-500人,朝阳区,本科,B轮,"移动互联网,电子商务",116.499982,39.975432,全职,1-3年,"['年底双薪', '带薪年假', '美食无限供应', '扁平管理']"
254,2916463,iOS高级研发工程师,深圳,2018-05-02 09:57:46,18.2,115166,即构科技,深圳市即构科技有限公司,50-150人,南山区,本科,A轮,"移动互联网,企业服务",0.0,0.0,全职,3-5年,"['股票期权', '绩效奖金', '扁平管理', '技能培训']"
255,4417229,IOS开发,广州,2018-04-26 16:09:37,9.0,22069,骆驼服饰,广东骆驼服饰有限公司,500-2000人,白云区,大专,未融资,电子商务,0.0,0.0,全职,3-5年,"['绩效奖金', '带薪年假', '节日礼物', '年度旅游']"
256,3371695,iOS工程师,上海,2018-04-25 15:49:54,19.0,231794,安兑_信砥信息科技,上海信砥信息科技有限公司,50-150人,长宁区,本科,B轮,"信息安全,数据服务",121.4144,31.2174,全职,5-10年,"['股票期权', '弹性工作', '领导好', '扁平管理']"
257,4274179,IOS开发,广州,2018-04-11 09:39:59,10.8,101882,瑞图万方,广东瑞图万方科技股份有限公司广州分公司,150-500人,天河区,本科,不需要融资,"移动互联网,O2O",113.37208,23.12342,全职,1-3年,"['年底双薪', '岗位晋升', '扁平管理', '五险一金']"
258,3880991,IOS开发工程师,北京,2018-05-03 09:44:51,17.8,11209,果壳网,北京果壳互动科技传媒有限公司,150-500人,朝阳区,本科,C轮,"移动互联网,社交网络",116.4712,39.90523,全职,1-3年,"['技能培训', '年度旅游', '岗位晋升', '家庭式三餐']"
259,4061139,Android/iOS开发工程师,北京,2018-05-03 09:24:32,21.0,16869,朗播网,北京博智天下信息技术有限公司,150-500人,海淀区,本科,B轮,教育,116.31287,40.03445,全职,5-10年,"['扁平管理', '定期体检', '股票期权', '团建活动']"
260,3929692,IOS开发工程师,上海,2018-05-03 09:09:20,12.4,78369,欧电云,上海欧电云信息科技有限公司,150-500人,浦东新区,本科,B轮,"电子商务,企业服务",121.581977,31.197071,全职,不限,"['试用期全薪', '定期体检', '五险一金', '弹性工作']"
261,2139217,iOS开发工程师,武汉,2018-05-03 07:12:46,7.0,140572,佰益源,武汉佰益源信息科技有限公司,50-150人,硚口区,本科,天使轮,"移动互联网,企业服务",114.194181,30.604995,全职,1-3年,"['带薪年假', '扁平管理', '小程序生态', '新零售']"
262,3707788,IOS工程师,深圳,2018-05-02 22:53:13,14.0,128998,江苏亿科达,上海海万信息科技股份有限公司,500-2000人,福田区,大专,不需要融资,"移动互联网,金融",0.0,0.0,全职,3-5年,[]
263,4350611,iOS开发工程师,北京,2018-05-02 16:21:07,19.0,148758,航天数据,北京航天数据股份有限公司,150-500人,海淀区,本科,不需要融资,"信息安全,数据服务",116.307495,39.983916,全职,3-5年,"['午餐补助', '绩效奖金', '节日礼物', '管理规范']"
264,4151423,iOS开发工程师,成都,2018-05-02 15:34:48,12.0,41710,四川商通实业有限公司,四川商通实业有限公司,150-500人,武侯区,本科,A轮,电子商务,0.0,0.0,全职,3-5年,"['技能培训', '节日礼物', '年底双薪', '带薪年假']"
265,3289950,IOS开发工程师,深圳,2018-05-02 14:43:25,14.0,107664,AKULAKU,岩心科技（深圳）有限公司,150-500人,南山区,本科,B轮,"移动互联网,金融",113.943863,22.529095,全职,3-5年,"['美女如云', '股票期权', '高速发展', '扁平管理']"
266,4167233,IOS开发工程师,深圳,2018-05-02 12:01:18,14.8,50241,Symbio-Freeborders,信必优(深圳)信息技术有限公司,2000人以上,罗湖区,大专,未融资,"移动互联网,电子商务",0.0,0.0,全职,3-5年,"['节日礼物', '年底双薪', '带薪年假', '年度旅游']"
267,3205539,iOS开发工程师,北京,2018-05-02 11:17:04,21.0,28393,爱云校,北京修齐治平科技有限公司,500-2000人,朝阳区,本科,C轮,"教育,数据服务",116.481459,39.99646,全职,3-5年,"['技能培训', '节日礼物', '股票期权', '带薪年假']"
268,4107258,IOS开发工程师,上海,2018-05-02 10:51:57,19.0,46792,捞月狗,上海竟跃网络科技有限公司,50-150人,徐汇区,本科,C轮,移动互联网,121.411654,31.169569,全职,3-5年,"['年底双薪', '每天必打游戏', '年度旅游', '发放期权']"
269,1665410,iOS,杭州,2018-05-02 09:44:31,8.8,101909,通卡联城,通卡联城网络科技有限公司,50-150人,上城区,本科,B轮,"移动互联网,电子商务",120.19710714,30.23098756,全职,1-3年,"['年底双薪', '管理规范', '定期体检', '五险一金']"
270,4423734,高级iOS工程师,北京,2018-05-03 09:46:48,26.0,50889,和创科技（红圈营销）,和创（北京）科技股份有限公司,500-2000人,西城区,本科,上市公司,"移动互联网,企业服务",116.371899,39.958828,全职,3-5年,"['弹性工作', '敏捷研发', '股票期权', '年底双薪']"
271,3638691,高级iOS,杭州,2018-05-03 09:21:27,28.0,24287,腾展叮咚（Dingtone）,杭州腾展科技股份有限公司,50-150人,西湖区,本科,上市公司,"移动互联网,社交网络",119.993591,29.993662,全职,5-10年,"['出国旅游', '股票期权', '精英团队', '强悍的创始人']"
272,4259946,iOS开发工程师,北京,2018-05-03 08:34:36,22.0,43775,极客邦科技,北京极客邦科技有限公司,50-150人,朝阳区,本科,A轮,企业服务,116.468774,40.012499,全职,不限,"['技能培训', '带薪年假', '年度旅游', '扁平管理']"
273,3649805,资深iOS开发工程师,杭州,2018-05-02 13:22:54,19.0,205716,潘帕斯,杭州潘帕斯信息服务有限公司,50-150人,滨江区,本科,天使轮,"金融,数据服务",120.220961,30.207822,全职,3-5年,"['股票期权', '定期体检', '年度旅游', '扁平管理']"
274,3768884,IOS开发工程师,深圳,2018-05-02 10:35:34,28.0,207780,Obsbot寻影,睿魔智能科技（东莞）有限公司,15-50人,南山区,本科,天使轮,"硬件,其他",113.90075,22.528875,全职,不限,"['股票期权', '岗位晋升', '景区办公环境']"
275,3497847,iOS&nbsp;资深开发工程师,杭州,2018-05-02 10:13:25,24.0,42868,Club Factory,杭州嘉云数据科技有限公司,150-500人,西湖区,本科,C轮,"电子商务,移动互联网",120.124444,30.277356,全职,3-5年,"['海量大数据', '世界级产品', 'AI', '智能供应链']"
276,3324163,高级iOS开发工程师,南京,2018-05-02 09:45:22,14.0,225665,惠龙易通,惠龙易通国际物流股份有限公司,150-500人,雨花台区,大专,A轮,"移动互联网,电子商务",118.779073,31.991347,全职,3-5年,"['管理规范', '技能培训', '五险一金', '岗位晋升']"
277,3134530,IOS开发工程师,广州,2018-04-27 18:18:48,6.8,134065,美人信息,广州美人信息技术有限公司,150-500人,越秀区,本科,A轮,移动互联网,113.30879804,23.11938065,全职,1年以下,"['年底双薪', '带薪年假', '午餐补助', '节日礼物']"
278,4327435,IOS开发工程师,杭州,2018-05-03 09:22:49,13.2,16831,武汉佰钧成技术有限公司,武汉佰钧成技术有限责任公司,2000人以上,余杭区,大专,不需要融资,移动互联网,120.017969,30.280435,全职,1-3年,"['带薪年假', '计算机软件', '管理规范', '定期体检']"
279,4036147,高级IOS开发工程师,北京,2018-05-02 10:48:12,31.0,61692,Max+&小黑盒,清枫（北京）科技有限公司,50-150人,朝阳区,本科,A轮,游戏,116.481255,39.99671,全职,3-5年,"['带薪年假', '扁平管理', '五险一金', '弹性工作']"
280,3774887,Ios开发工程师,杭州,2018-05-02 10:41:55,16.2,178320,知坤科技,杭州知坤网络科技有限公司,15-50人,西湖区,本科,天使轮,"移动互联网,企业服务",120.068391,30.328832,全职,3-5年,[]
281,2616094,ios开发工程师,北京,2018-05-02 10:21:48,13.2,43655,AbleCloud,北京智云奇点科技有限公司,50-150人,海淀区,本科,B轮,硬件,116.303645,39.985866,全职,1-3年,"['节日礼物', '技能培训', '股票期权', '年度旅游']"
282,3547934,高级iOS开发工程师,上海,2018-05-02 09:41:21,28.0,7030,触宝,上海触乐信息科技有限公司,150-500人,徐汇区,本科,D轮及以上,"移动互联网,数据服务",121.393969,31.172406,全职,3-5年,"['管理扁平', '发展空间大', '行业独角兽', '带薪年假病假']"
283,4475592,iOS开发工程师,广州,2018-05-02 09:03:03,11.2,88092,酷麦,广州酷麦信息科技有限公司,15-50人,天河区,本科,A轮,移动互联网,113.372435,23.122758,全职,1-3年,"['节日礼物', '年底双薪', '股票期权', '带薪年假']"
284,4180259,ios高级开发工程师,杭州,2018-05-03 09:40:55,19.0,103424,乐刻运动,杭州乐刻网络技术有限公司,500-2000人,西湖区,本科,C轮,O2O,120.124134,30.291882,全职,3-5年,"['节日礼物', '股票期权', '带薪年假', '绩效奖金']"
285,4349031,ios,北京,2018-05-02 18:52:41,21.0,5706,洋葱数学,光合新知（北京）科技有限公司,150-500人,朝阳区,不限,C轮,"移动互联网,教育",116.500139,39.991999,全职,1-3年,"['产品领先行业', '关注学习本源', '明星跨界团队', '股票期权']"
286,4508828,高级/资深iOS开发,上海,2018-05-02 17:59:10,24.0,202697,掌门集团,连尚（北京）网络科技有限公司,500-2000人,浦东新区,本科,B轮,"移动互联网,生活服务",121.59601,31.187295,全职,5-10年,"['年度旅游', '绩效奖金', '带薪年假', '弹性工作']"
287,4008439,iOS高级开发工程师,北京,2018-05-02 17:59:02,19.0,309489,信达悦和,信达悦和资产管理（北京）有限公司,50-150人,海淀区,本科,不需要融资,金融、移动互联网,116.326406,39.984718,全职,3-5年,"['年底双薪', '定期体检', '弹性工作', '领导好']"
288,4507876,iOS开发,成都,2018-05-02 16:38:34,4.2,148624,农商通,成都农商通网络科技有限公司,50-150人,武侯区,大专,A轮,"移动互联网,O2O",104.063101,30.608227,全职,应届毕业生,[]
289,310579,iOS 开发工程师,广州,2018-05-02 14:01:53,14.0,17863,骑鹅旅行,广州市骑鹅游信息技术咨询服务有限公司,50-150人,海珠区,本科,A轮,"旅游,数据服务",113.36736403,23.09662908,全职,3-5年,"['绩效奖金', '年度旅游', '扁平管理', '管理规范']"
290,2802829,iOS开发工程师,武汉,2018-05-02 10:21:28,14.0,34205,微派,武汉微派网络科技有限公司,50-150人,东湖新技术开发区,本科,B轮,社交网络,114.402795,30.492912,全职,1-3年,"['年底双薪', '股票期权', '扁平管理', '弹性工作']"
291,4437666,ios开发工程师,郑州,2018-05-02 10:01:30,12.0,137205,乐至科技,乐至（上海）科技有限公司,15-50人,中原区,不限,不需要融资,移动互联网,113.601979,34.794764,全职,3-5年,"['年底双薪', '带薪年假', '午餐补助', '交通补助']"
292,4230697,IOS,深圳,2018-05-02 09:34:32,14.0,50241,Symbio-Freeborders,信必优(深圳)信息技术有限公司,2000人以上,福田区,本科,未融资,"移动互联网,电子商务",0.0,0.0,全职,3-5年,"['节日礼物', '年底双薪', '带薪年假', '年度旅游']"
293,3579875,资深IOS开发工程师,杭州,2018-05-02 09:10:37,21.0,4938,杭州溜达,杭州溜达网络科技有限公司,15-50人,西湖区,本科,天使轮,移动互联网,120.09539,30.30972,全职,5-10年,"['年终分红', '股票期权', '专项奖金', '绩效奖金']"
294,1693671,iOS,福州,2018-04-28 10:09:18,21.0,8288,网龙网络有限公司,福建网龙计算机网络信息技术有限公司,2000人以上,鼓楼区,本科,上市公司,"移动互联网,教育",119.31312227,26.09086428,全职,3-5年,"['技能培训', '节日礼物', '绩效奖金', '岗位晋升']"
295,4338775,iOS开发工程师,北京,2018-04-23 09:45:35,22.8,111468,网易立马理财,光大易创网络科技股份有限公司,150-500人,海淀区,本科,不需要融资,"金融,移动互联网",116.276446,40.042539,全职,1-3年,"['带薪年假', '交通补助', '绩效奖金', '免费班车']"
296,4438174,高级iOS 开发工程师(000330),北京,2018-05-02 19:49:47,28.0,70,宝宝树,宝宝树（北京）信息技术有限公司,500-2000人,朝阳区,本科,D轮及以上,社交网络,39.897445,116.331398,全职,3-5年,"['商业医疗保险', '股票期权', '带薪年假', '扁平管理']"
297,3414472,iOS开发工程师,北京,2018-05-02 19:08:25,13.2,236680,豆果美食,北京豆果信息技术有限公司,50-150人,东城区,本科,C轮,"移动互联网,社交网络",116.432736,39.920948,全职,1-3年,[]
298,4032063,ios 开发工程师,深圳,2018-05-02 16:46:17,14.0,226225,奇点创艺,深圳市奇点创艺科技有限公司,15-50人,南山区,本科,未融资,"移动互联网,数据服务",113.939,22.523275,全职,3-5年,[]
299,2535924,iOS,温州,2018-05-02 16:10:39,7.0,155441,温州泊啤汇网络科技有限公司,温州泊啤汇网络科技有限公司,50-150人,鹿城区,不限,不需要融资,"移动互联网,电子商务",120.659112,27.985005,全职,1-3年,[]
300,4508824,高级/资深iOS开发,上海,2018-05-02 17:58:53,24.0,202697,掌门集团,连尚（北京）网络科技有限公司,500-2000人,浦东新区,本科,B轮,"移动互联网,生活服务",121.59601,31.187295,全职,5-10年,"['年度旅游', '绩效奖金', '带薪年假', '弹性工作']"
301,4329203,iOS开发,北京,2018-05-02 14:13:05,21.0,110393,诸葛找房,北京诸葛找房信息技术有限公司,150-500人,朝阳区,本科,B轮,"移动互联网,生活服务",116.472643,39.875191,全职,1-3年,"['弹性工作', '领导好', '扁平管理', '年终分红']"
302,4234225,iOS开发工程师,成都,2018-05-02 11:44:20,12.0,3524,Camera360,成都品果科技有限公司,150-500人,高新区,本科,B轮,移动互联网,103.99341,30.994233,全职,1-3年,"['绩效奖金', '股票期权', '专项奖金', '年终奖']"
303,4500626,iOS开发工程师,北京,2018-05-02 10:12:36,35.0,62,字节跳动,北京字节跳动科技有限公司,2000人以上,海淀区,本科,C轮,"移动互联网,数据服务",39.971268,39.971268,全职,3-5年,"['扁平管理', '弹性工作', '大厨定制三餐', '就近租房补贴']"
304,3016421,初级或应届iOS,北京,2018-05-02 10:09:14,7.0,41030,小肚皮App,北京九识佳科技有限公司,15-50人,朝阳区,本科,A轮,移动互联网,115.99339,39.99426,全职,1年以下,"['年度旅游', '美女CEO', '五险一金', '午餐补助']"
305,432418,iOS,深圳,2018-05-02 08:35:11,10.8,51478,小鹅（小鹅通）,深圳小鹅网络技术有限公司,50-150人,南山区,本科,A轮,"移动互联网,社交网络",113.945711,22.545916,全职,不限,"['技能培训', '年底双薪', '股票期权', '带薪年假']"
306,2887668,iOS开发工程师,深圳,2018-05-01 23:22:09,14.0,31745,找靓机网,深圳市万事富科技有限公司,50-150人,福田区,大专,B轮,"移动互联网,电子商务",114.083397,22.539045,全职,3-5年,"['技能培训', '绩效奖金', '岗位晋升', '扁平管理']"
307,2605731,iOS工程师,上海,2018-04-28 10:25:27,35.0,26250,musical.ly,蜜柚网络科技（上海）有限公司,150-500人,黄浦区,本科,不需要融资,"社交网络,文化娱乐",121.99341,30.994275,全职,3-5年,"['技能培训', '节日礼物', '股票期权', '带薪年假']"
308,4054380,iOS开发工程师,西安,2018-04-25 15:09:30,14.0,144191,BOO!,西安逆袭网络科技有限公司,50-150人,雁塔区,大专,A轮,"移动互联网,社交网络",108.880936,34.22484,全职,3-5年,"['扁平化管理', '弹性工作制', '健身福利', '设备补助']"
309,2167726,iOS,深圳,2018-04-25 11:41:13,19.0,16831,武汉佰钧成技术有限公司,武汉佰钧成技术有限责任公司,2000人以上,龙岗区,大专,不需要融资,移动互联网,114.06515018,22.67330017,全职,5-10年,"['带薪年假', '计算机软件', '管理规范', '定期体检']"
310,4478554,iOS,北京,2018-04-25 11:17:04,15.2,7182,尚德机构,北京尚德在线教育科技有限公司,2000人以上,朝阳区,本科,上市公司,教育,116.469762,40.019206,全职,3-5年,"['绩效奖金', '专项奖金', '五险一金', '带薪年假']"
311,4467325,IOS开发工程师,北京,2018-04-23 17:08:34,28.0,168991,老虎证券,北京优虎商务服务有限公司,150-500人,朝阳区,不限,B轮,"移动互联网,金融",116.460172,39.952787,全职,3-5年,"['绩效奖金', '年底双薪', '带薪年假', '定期体检']"
312,1775603,iOS开发,深圳,2018-04-20 11:49:23,19.0,50741,谜语者,深圳谜语者科技有限公司,15-50人,南山区,本科,天使轮,"移动互联网,分类信息",113.936658,22.523953,全职,5-10年,"['忍者', '极客']"
313,3912373,IOS开发工程师,广州,2018-05-03 09:47:35,19.0,658,三七互娱,三七互娱（上海）科技有限公司,2000人以上,天河区,本科,上市公司,游戏,112.993461,22.994261,全职,应届毕业生,"['绩效奖金', '五险一金', '通讯津贴', '交通补助']"
314,3332754,iOS开发工程师,广州,2018-05-03 09:14:57,11.2,169002,修炼,广东修炼科技股份有限公司,50-150人,天河区,大专,不需要融资,移动互联网,113.33759,23.127164,全职,1-3年,"['股票期权', '弹性工作', '美女多', '扁平管理']"
315,4509287,ios开发工程师,北京,2018-05-02 19:03:05,7.2,109631,北京雀科科技有限公司,北京雀科科技有限公司,15-50人,丰台区,不限,未融资,"移动互联网,电子商务",116.387511,39.841154,全职,1-3年,"['专项奖金', '绩效奖金', '带薪年假', '年终分红']"
316,3341208,iOS开发工程师,广州,2018-05-02 10:59:15,12.6,228143,广东瑞亚传媒,广东瑞亚传媒发展有限公司,150-500人,荔湾区,大专,天使轮,"移动互联网,文化娱乐",113.228065,23.056905,全职,1-3年,[]
317,3635209,iOS开发工程师,武汉,2018-05-02 10:21:27,17.0,34205,微派,武汉微派网络科技有限公司,50-150人,东湖新技术开发区,本科,B轮,社交网络,114.402795,30.492912,全职,应届毕业生,"['年底双薪', '股票期权', '扁平管理', '弹性工作']"
318,4151516,IOS开发工程师,南京,2018-05-02 10:17:37,15.2,31541,紫金普惠,紫金普惠金融信息咨询江苏有限公司,500-2000人,江宁区,本科,未融资,金融,118.99344,31.994276,全职,5-10年,"['技能培训', '节日礼物', '带薪年假', '绩效奖金']"
319,4475127,iOS开发工程师,厦门,2018-05-02 10:00:04,11.2,147319,表情科技,厦门表情科技有限公司,15-50人,思明区,大专,A轮,"移动互联网,社交网络",118.177268,24.492622,全职,1-3年,"['弹性工作', '帅哥多', '美女多', '扁平管理']"
320,4285653,iOS开发工程师,广州,2018-05-02 09:36:13,6.2,292539,掌昆游戏,广州掌昆网络科技有限公司,50-150人,天河区,本科,不需要融资,"移动互联网,游戏",113.372471,23.126201,全职,应届毕业生,"['绩效奖金', '年底双薪', '年终分红', '带薪年假']"
321,3377490,IOS开发专家-P6-口碑-上海,上海,2018-05-02 09:29:43,35.0,153849,蚂蚁金服集团,支付宝(杭州)信息技术有限公司,2000人以上,浦东新区,本科,B轮,"金融,移动互联网",121.550053,31.226217,全职,3-5年,"['年底双薪', '带薪年假', '股票期权', '绩效奖金']"
322,3870015,IOS开发工程师,杭州,2018-05-02 09:22:56,19.0,128744,ULSee,杭州保新科技有限公司,15-50人,江干区,本科,A轮,"移动互联网,文化娱乐",120.216023,30.246219,全职,1-3年,"['国际化团队', '脚踏实地', '硅谷环境', '年度旅游']"
323,4164919,IOS开发工程师,成都,2018-05-01 13:49:55,12.0,158369,中电进出口,中国电子进出口有限公司,500-2000人,高新区,本科,不需要融资,信息安全,0.0,0.0,全职,3-5年,[]
324,946379,iOS,厦门,2018-04-26 17:45:44,7.6,86867,步云科技,厦门步云信息科技有限公司,15-50人,思明区,大专,不需要融资,"移动互联网,O2O",118.183384,24.490084,全职,1-3年,"['节日礼物', '年底双薪', '扁平管理', '五险一金']"
325,4243236,iOS开发工程师,北京,2018-05-03 09:35:46,18.2,162252,六律科技,北京六律科技有限责任公司,150-500人,西城区,本科,不需要融资,"数据服务,移动互联网",116.38,39.87875,全职,3-5年,"['年底双薪', '年终分红', '绩效奖金', '定期体检']"
326,4508559,iOS开发工程师,廊坊,2018-05-02 17:34:24,21.0,376962,霸州市德派尔,霸州市德派尔五金机具有限公司,50-150人,霸州市,本科,未融资,其他,116.391386,39.125898,全职,3-5年,"['""""']"
327,4508065,IOS开发工程师,深圳,2018-05-02 16:53:18,11.6,134913,青云蓝海,深圳青云蓝海科技股份有限公司,15-50人,宝安区,大专,不需要融资,"移动互联网,电子商务",113.861353,22.743171,全职,1-3年,[]
328,3320442,IOS高级开发工程师,上海,2018-05-02 15:57:16,19.0,52315,Video++,上海极链网络科技有限公司,150-500人,黄浦区,本科,C轮,"数据服务,文化娱乐",121.506201,31.211158,全职,3-5年,"['节日礼物', '绩效奖金', '岗位晋升', '五险一金']"
329,4507199,IOS开发工程师,东莞,2018-05-02 15:41:54,10.8,179606,极微网络,东莞市极微网络科技有限公司,50-150人,东莞市市辖区,本科,未融资,"移动互联网,电子商务",113.768213,23.031234,全职,3-5年,"['年底双薪', '午餐补助', '年终分红', '带薪年假']"
330,4506714,ios工程师,厦门,2018-05-02 15:07:42,9.6,350254,森鹏科技,厦门森鹏科技有限公司,少于15人,集美区,大专,未融资,移动互联网、电子商务,118.051039,24.60666,全职,1-3年,"['""""']"
331,4147388,ios开发工程师,上海,2018-05-02 14:18:26,14.0,131324,多赋信息,上海多赋信息科技有限公司,50-150人,虹口区,大专,不需要融资,"移动互联网,硬件",,,全职,3-5年,"['带薪年假', '定期体检', '年终分红', '股票期权']"
332,4445309,IOS工程师,重庆,2018-05-02 10:30:34,8.2,78102,网达软件,上海网达软件股份有限公司,500-2000人,渝北区,本科,上市公司,"移动互联网,电子商务",106.498729,29.614292,全职,3-5年,"['股票期权', '带薪年假', '绩效奖金', '岗位晋升']"
333,457240,iOS开发工程师,深圳,2018-05-02 09:58:20,9.8,16039,花果山,深圳花果山科技有限公司,150-500人,南山区,本科,B轮,电子商务,113.95225,22.527815,全职,不限,"['年底双薪', '团队建设', '节日礼物', '员工每月分红']"
334,3803446,iOS开发,上海,2018-04-27 18:03:26,14.0,82712,缔安,上海缔安科技股份有限公司,50-150人,长宁区,本科,B轮,移动互联网,121.356187,31.220756,全职,3-5年,"['技能培训', '节日礼物', '股票期权', '绩效奖金']"
335,3801688,iOS开发工程师,广州,2018-04-25 08:48:47,8.2,1175,灵机文化,广东灵机文化传播有限公司,150-500人,天河区,大专,不需要融资,"移动互联网,电子商务",113.382986,23.119591,全职,不限,"['带薪年假', '绩效奖金', '岗位晋升', '项目提成']"
336,3992150,IOS工程师,上海,2018-05-03 09:54:39,28.0,202104,趣头条,上海基分文化传播有限公司,500-2000人,浦东新区,本科,不需要融资,移动互联网,121.624653,31.226515,全职,5-10年,"['专项奖金', '带薪年假', '弹性工作', '管理规范']"
337,1967092,iOS开发,深圳,2018-05-03 09:34:24,12.0,125961,小摩豆,深圳市小摩豆网络科技有限公司,50-150人,福田区,本科,A轮,移动互联网,114.035656,22.52597499,全职,不限,"['年底双薪', '节日礼物', '弹性工作', '岗位晋升']"
338,4288452,iOS资深工程师J10920,北京,2018-05-02 19:09:44,31.0,82069,思源科技,北京思源置地投资有限公司,2000人以上,朝阳区,本科,不需要融资,"移动互联网,社交网络",116.458141,39.996441,全职,5-10年,"['股票期权', '带薪年假', '绩效奖金', '岗位晋升']"
339,3933928,iOS开发工程师/苹果开发工程师/软件开发工程,深圳,2018-05-02 16:09:22,12.0,152413,深圳前海第一网络科技有限公司,深圳前海第一网络科技有限公司,50-150人,龙华新区,大专,未融资,"金融,移动互联网",114.023139,22.617417,全职,3-5年,[]
340,4309109,IOS开发工程师,南宁,2018-05-02 14:03:44,7.0,138380,环球生活,广西环球生活科技有限公司,15-50人,西乡塘区,不限,未融资,"分类信息,移动互联网",108.284353,22.879793,全职,1-3年,[]
341,4359911,IOS工程师,重庆,2018-05-02 10:17:28,10.8,355631,全民party,重庆星坛科技有限公司,150-500人,江北区,不限,不需要融资,移动互联网,0.0,0.0,全职,1-3年,"['""""']"
342,2851416,ios开发工程师,北京,2018-05-02 09:53:12,19.0,150239,考拉阅读,北京享阅教育科技有限公司,50-150人,海淀区,本科,B轮,"教育,移动互联网",116.323498,39.961025,全职,3-5年,"['股票期权', '午餐补助', '节日礼物', '帅哥多']"
343,4249640,ios开发工程师,北京,2018-05-02 09:51:46,14.0,13241,互爱(北京)科技有限公司,互爱(北京)科技有限公司,500-2000人,海淀区,本科,C轮,"移动互联网,游戏",116.337417,39.981921,全职,1-3年,"['五险一金', '岗位晋升', '帅哥多', '弹性工作']"
344,4388942,ios研发工程师,贵阳,2018-05-02 09:49:32,6.8,361293,蓝众投资,贵州蓝众投资管理有限公司,15-50人,观山湖区（金阳新区）,大专,不需要融资,企业服务,106.647216,26.622039,全职,3-5年,"['""""']"
345,4280376,iOS高级工程师,北京,2018-05-02 09:36:56,35.0,1880,快手,北京达佳互联信息技术有限公司,500-2000人,海淀区,本科,D轮及以上,移动互联网,116.316508,39.984066,全职,5-10年,"['股票期权', '弹性工作', '定期体检', '岗位晋升']"
346,4447844,IOS开发工程师,北京,2018-04-30 17:29:49,15.2,25592,新浪网,新浪网技术（中国）有限公司,2000人以上,海淀区,本科,上市公司,文化娱乐,115.99339,39.99426,全职,1-3年,"['免费班车', '岗位晋升', '五险一金', '定期体检']"
347,4499505,IOS开发工程师,北京,2018-04-28 14:57:01,10.8,246358,秀健身,北京秀健身网络科技有限公司,15-50人,昌平区,本科,未融资,移动互联网,116.301768,40.087032,全职,1-3年,[]
348,4507808,IOS开发工程师,杭州,2018-05-02 16:33:21,8.4,245502,撒豆人,杭州撒豆人网络科技有限公司,15-50人,滨江区,不限,未融资,"生活服务,广告营销",120.207624,30.188325,全职,3-5年,[]
349,3624595,iOS开发工程师,广州,2018-05-02 15:15:21,7.6,143692,稻禾科技,广州稻禾信息科技有限公司,15-50人,番禺区,大专,不需要融资,"企业服务,移动互联网",113.321076,23.016253,全职,1-3年,"['弹性工作', '领导好', '技能培训', '五险一金']"
350,4023296,高级 iOS 开发工程师,上海,2018-05-02 12:08:39,19.0,126457,Soul App,上海任意门科技有限公司,50-150人,青浦区,本科,B轮,"社交网络,文化娱乐",121.30513,31.184192,全职,3-5年,"['外企氛围', '年轻活力娱乐', '有才华的团队', '技术导向']"
351,4467395,iOS开发工程师—杭州,杭州,2018-05-02 11:45:14,19.0,23291,美图公司,厦门美图之家科技有限公司,500-2000人,西湖区,本科,上市公司,"移动互联网,硬件",39.897445,116.331398,全职,3-5年,"['节日礼物', '与大牛共事', '福利健全', '五险一金']"
352,4403889,中级iOS开发工程师,武汉,2018-05-02 09:44:08,13.2,52162,武汉政通,北京数字政通科技股份有限公司,500-2000人,洪山区,本科,上市公司,移动互联网,114.425351,30.457034,全职,1-3年,"['技能培训', '年底双薪', '节日礼物', '休假灵活']"
353,4304233,iOS开发工程师,广州,2018-05-01 22:58:16,5.6,18909,新工厂,广州虎将网络科技有限公司,少于15人,天河区,大专,不需要融资,移动互联网,113.344228,23.141951,全职,1-3年,"['技能培训', '年度旅游', '岗位晋升', '带薪年假']"
354,4308785,iOS开发,杭州,2018-04-27 14:42:13,12.0,134830,杭州明霖,杭州明霖信息技术有限公司,500-2000人,滨江区,本科,不需要融资,社交网络,120.213168,30.211897,全职,1-3年,"['带薪年假', '弹性工作', '美女多', '节日礼物']"
355,3823449,IOS工程师,重庆,2018-04-26 16:12:41,5.6,78102,网达软件,上海网达软件股份有限公司,500-2000人,渝北区,本科,上市公司,"移动互联网,电子商务",0.0,0.0,全职,1-3年,"['股票期权', '带薪年假', '绩效奖金', '岗位晋升']"
356,3801592,iOS开发工程师,广州,2018-04-25 08:48:47,8.2,1175,灵机文化,广东灵机文化传播有限公司,150-500人,天河区,大专,不需要融资,"移动互联网,电子商务",113.382986,23.119591,全职,1年以下,"['带薪年假', '绩效奖金', '岗位晋升', '项目提成']"
357,696228,资深iOS开发工程师,杭州,2018-05-03 09:49:42,27.0,2380,浙江执御信息技术有限公司,浙江执御信息技术有限公司,2000人以上,拱墅区,本科,B轮,"移动互联网,数据服务",,,全职,3-5年,"['五险一金', '带薪年假', '节日礼物', '年度旅游']"
358,3958848,高级ios开发工程师,武汉,2018-05-03 09:38:24,13.2,221217,小码联城,武汉小码联城科技有限公司,50-150人,江岸区,本科,A轮,"移动互联网,数据服务",114.309091,30.600064,全职,5-10年,"['年终分红', '带薪年假', '周末双休', '美女如云']"
359,3682670,IOS开发工程师,苏州,2018-05-03 09:29:44,10.0,8288,网龙网络有限公司,福建网龙计算机网络信息技术有限公司,2000人以上,工业园区,本科,上市公司,"移动互联网,教育",120.732665,31.264799,全职,1-3年,"['技能培训', '节日礼物', '绩效奖金', '岗位晋升']"
360,4419425,ios开发,北京,2018-05-02 12:33:19,20.2,149244,多赚,北京诚行天下投资咨询有限公司,50-150人,朝阳区,本科,天使轮,"移动互联网,金融",116.506666,39.9024,全职,3-5年,"['带薪年假', '午餐补助', '免费班车', '节日礼物']"
361,3419268,IOS高级研发工程师,广州,2018-05-02 11:39:42,12.0,66619,智悅网络,广州智悦网络科技有限公司,50-150人,天河区,大专,A轮,"移动互联网,电子商务",113.371417,23.123497,全职,1-3年,"['五险一金', '年底双薪', '专项奖金', '带薪年假']"
362,4333765,高级IOS开发工程师,北京,2018-05-02 10:39:42,24.0,22596,MICO,北京米可世界科技有限公司,50-150人,朝阳区,本科,A轮,移动互联网,116.460422,39.961372,全职,3-5年,"['股票期权', '年度旅游', '移动社交', '五险一金']"
363,2155117,iOS研发工程师,南京,2018-05-02 10:34:15,17.6,133425,迈疆智能,南京迈疆智能科技有限公司,50-150人,栖霞区,本科,不需要融资,"硬件,移动互联网",118.867291,32.155399,全职,3-5年,"['年底双薪', '股票期权', '绩效奖金', '交通补助']"
364,1537952,iOS,深圳,2018-05-02 10:31:44,21.0,1015,糗事百科,心灵失重（北京）科技有限公司,50-150人,南山区,本科,A轮,移动互联网,113.94416376,22.55322309,全职,3-5年,"['媲美名企高薪', '无限量零食', '五险一金', '年度旅游']"
365,4404015,资深iOS开发工程师,武汉,2018-05-02 09:44:10,20.8,52162,武汉政通,北京数字政通科技股份有限公司,500-2000人,洪山区,本科,上市公司,移动互联网,114.425351,30.457034,全职,5-10年,"['技能培训', '年底双薪', '节日礼物', '休假灵活']"
366,4429427,高级iOS开发工程师,上海,2018-05-02 09:41:19,28.0,7030,触宝,上海触乐信息科技有限公司,150-500人,徐汇区,本科,D轮及以上,"移动互联网,数据服务",121.393969,31.172406,全职,3-5年,"['管理扁平', '发展空间大', '行业独角兽', '带薪年假病假']"
367,4246683,iOS开发工程师,厦门,2018-04-28 11:12:53,9.0,193049,飞贷金融,厦门飞贷金融技术服务有限公司,15-50人,思明区,本科,未融资,"移动互联网,金融",118.184323,24.487137,全职,1-3年,[]
368,4485481,ios开发工程师,南宁,2018-04-28 09:26:37,10.8,303623,蛋卷科技,广西蛋卷科技有限公司,15-50人,西乡塘区,本科,不需要融资,"移动互联网,电子商务",108.26658,22.86286,全职,3-5年,"['带薪年假', '交通补助', '绩效奖金', '年度旅游']"
369,3527077,IOS研发工程师,上海,2018-04-28 09:21:39,14.0,29211,圆通,圆通速递有限公司,2000人以上,青浦区,本科,上市公司,"企业服务,数据服务",121.252822,31.213373,全职,1-3年,"['技能培训', '免费班车', '专项奖金', '岗位晋升']"
370,2042920,iOS 工程师,北京,2018-04-27 10:03:05,19.0,9895,动动,北京慢点生活科技有限公司,15-50人,朝阳区,本科,B轮,"移动互联网,医疗健康",116.463576,39.928509,全职,1-3年,"['股票期权', '世界顶级团队', '扁平管理', '六险一金']"
371,4050436,IOS开发工程师,合肥,2018-05-03 08:59:29,14.0,21980,科大讯飞,科大讯飞股份有限公司,2000人以上,高新区,本科,上市公司,"移动互联网,数据服务",117.14365,31.830719,全职,5-10年,"['绩效奖金', '股票期权', '专项奖金', '年底双薪']"
372,3143912,iOS开发工程师,广州,2018-05-02 21:57:11,10.8,148075,易物网,前海易物（深圳）电子商务有限公司,50-150人,海珠区,大专,A轮,电子商务,0.0,0.0,全职,3-5年,[]
373,2861803,iOS开发工程师,佛山,2018-05-02 15:12:13,17.0,149167,美云智数,深圳美云智数科技有限公司,500-2000人,顺德区,本科,不需要融资,"企业服务,数据服务",113.219574,22.934207,全职,5-10年,"['大平台新机遇', '资本热捧', '薪资奖金优厚', '扁平管理']"
374,4415524,IOS开发工程师,长沙,2018-05-02 14:39:58,6.2,45040,湖南创发,创发科技有限责任公司,150-500人,芙蓉区,本科,上市公司,"移动互联网,电子商务",112.993417,27.994254,全职,1-3年,"['技能培训', '年底双薪', '节日礼物', '绩效奖金']"
375,3954699,iOS高级开发工程师,北京,2018-05-02 14:28:56,35.0,3234,孔夫子旧书网,北京古城堡图书有限公司,50-150人,朝阳区,本科,未融资,电子商务,116.493216,40.038117,全职,5-10年,"['节日礼物', '水果敞开吃', '领导好', '美女多']"
376,4252147,ios开发工程师,杭州,2018-05-02 14:06:18,12.0,43906,浙江聚有财,浙江聚有财金融服务外包有限公司,150-500人,上城区,本科,未融资,金融,120.196464,30.230214,全职,3-5年,"['带薪年假', '岗位晋升', '年度旅游', '扁平管理']"
377,4140541,ios开发工程师,杭州,2018-05-02 10:03:02,14.0,93172,聚励云机械,浙江聚励云机械科技有限公司,150-500人,余杭区,本科,B轮,"移动互联网,其他",120.018165,30.280064,全职,1-3年,"['五险一金', '弹性工作', '绩效奖金', '年底双薪']"
378,4106425,高级iOS开发工程师,北京,2018-05-02 09:32:03,28.0,29795,罗辑思维,北京思维造物信息科技有限公司,150-500人,朝阳区,本科,B轮,"移动互联网,文化娱乐",115.99339,39.99426,全职,3-5年,"['专项奖金', '扁平管理', '帅哥多', '领导好']"
379,4441290,IOS开发工程师,上海,2018-05-02 09:19:39,14.0,99341,盛付通,上海盛付通电子支付服务有限公司,150-500人,浦东新区,本科,不需要融资,"移动互联网,金融",39.897445,116.331398,全职,3-5年,"['带薪年假', '绩效奖金', '年度旅游', '定期体检']"
380,1690775,iOS,厦门,2018-05-01 16:46:40,8.8,123141,三维码科技,三维码（厦门）网络科技有限公司,50-150人,湖里区,不限,未融资,"移动互联网,社交网络",,,全职,1-3年,[]
381,3469605,IOS,上海,2018-04-28 09:21:39,16.8,29211,圆通,圆通速递有限公司,2000人以上,青浦区,大专,上市公司,"企业服务,数据服务",121.252822,31.213373,全职,3-5年,"['技能培训', '免费班车', '专项奖金', '岗位晋升']"
382,3742634,iOS开发工程师,长春,2018-04-26 14:04:16,10.6,38932,钛马车联网,钛马信息网络技术有限公司,150-500人,绿园区,本科,B轮,"移动互联网,数据服务",125.206474,43.853631,全职,3-5年,"['技能培训', '节日礼物', '互联网汽车', '绩效奖金']"
383,3723129,ios开发,重庆,2018-05-03 09:48:27,7.0,224246,满惠科技,重庆满惠网络科技有限公司,150-500人,江北区,大专,不需要融资,"移动互联网,数据服务",106.532439,29.572169,全职,3-5年,[]
384,2933856,ios软件工程师,北京,2018-05-02 18:04:22,11.2,149034,骏嘉财通,北京骏嘉财通科技有限公司,500-2000人,东城区,本科,未融资,金融,116.448998,39.893648,全职,1-3年,"['专项奖金', '绩效奖金', '年终分红', '带薪年假']"
385,4507758,IOS开发工程师,成都,2018-05-02 16:29:22,4.8,326380,成都智一云科,成都智一云科科技有限公司,少于15人,金牛区,本科,不需要融资,"移动互联网,医疗健康",104.000243,30.711864,全职,1年以下,"['""""']"
386,4380796,iOS开发工程师,北京,2018-05-02 11:00:48,9.6,5746,开科唯识,北京开科唯识技术有限公司,500-2000人,石景山区,本科,未融资,金融,116.225326,39.905054,全职,1-3年,"['节日礼物', '技能培训', '年底双薪', '股票期权']"
387,4208784,ios开发工程师,北京,2018-05-02 10:52:01,21.0,3786,宜信,普信恒业科技发展（北京）有限公司,2000人以上,朝阳区,本科,上市公司,金融,0.0,0.0,全职,3-5年,"['管理规范', '技能培训', '扁平管理', '弹性工作']"
388,4474586,IOS高级开发工程师,深圳,2018-05-02 10:38:46,28.0,124262,Minieye,深圳佑驾创新科技有限公司,50-150人,南山区,本科,A轮,"硬件,其他",113.952408,22.536121,全职,3-5年,"['无人驾驶', '国际标准', '车厂合作', '海归团队']"
389,4073519,iOS开发工程师,上海,2018-05-02 10:38:18,21.0,313862,上汽云计算中心,上海帆一尚行科技有限公司,50-150人,嘉定区,本科,不需要融资,"企业服务,数据服务",121.189207,31.277545,全职,不限,"['绩效奖金', '定期体检', '带薪年假', '免费午餐']"
390,4186924,IOS开发工程师,北京,2018-05-02 08:56:34,19.0,246358,秀健身,北京秀健身网络科技有限公司,15-50人,昌平区,本科,未融资,移动互联网,116.290178,40.143752,全职,3-5年,[]
391,4403222,ios,杭州,2018-05-02 06:46:02,8.8,151581,近强,杭州近强信息技术有限公司,50-150人,江干区,大专,不需要融资,移动互联网,120.211538,30.241726,全职,1-3年,"['上下班不打卡', '岗位晋升', '公司氛围佳']"
392,4500750,IOS开发工程师,深圳,2018-04-28 16:49:35,34.0,153033,英思奇,深圳市英思奇信息咨询有限公司,50-150人,宝安区,大专,未融资,"移动互联网,电子商务",113.859696,22.57025,全职,5-10年,"['年底双薪', '股票期权', '包吃\\包住']"
393,4486628,iOS开发工程师,深圳,2018-04-26 13:33:17,24.0,1880,快手,北京达佳互联信息技术有限公司,500-2000人,福田区,本科,D轮及以上,移动互联网,114.055036,22.52153,全职,1-3年,"['股票期权', '弹性工作', '定期体检', '岗位晋升']"
394,2391707,iOS开发,郑州,2018-04-22 10:43:24,5.0,64166,大河网,大河网络传媒有限公司,150-500人,,本科,不需要融资,文化娱乐,113.5759097,34.80743972,全职,1-3年,"['节日礼物', '年底双薪', '专项奖金', '带薪年假']"
395,4268281,iOS工程师,东莞,2018-04-19 11:53:54,14.0,163147,115科技,广东一一五科技股份有限公司,150-500人,东莞市市辖区,大专,B轮,移动互联网,113.885276,22.927773,全职,3-5年,[]
396,825513,iOS工程师,杭州,2018-05-02 16:33:27,7.6,79246,杭州会友科技,杭州会友科技有限公司,15-50人,拱墅区,大专,不需要融资,移动互联网,120.117718,30.29685,全职,1-3年,"['节日礼物', '年度旅游', '领导好', '午餐补助']"
397,1403253,iOS软件工程师,珠海,2018-05-02 15:06:24,10.8,53451,雷特科技,珠海雷特科技股份有限公司,150-500人,,大专,上市公司,硬件,113.49003983,22.22061989,全职,1-3年,"['年底双薪', '年轻朝气', '环境宁美', '绩效奖金']"
398,4457119,IOS开发工程师,上海,2018-05-02 11:39:11,22.8,202104,趣头条,上海基分文化传播有限公司,500-2000人,浦东新区,本科,不需要融资,移动互联网,121.624653,31.226515,全职,1-3年,"['专项奖金', '带薪年假', '弹性工作', '管理规范']"
399,3741239,高级IOS研发工程师,上海,2018-05-02 11:21:10,21.0,67235,小站教育,上海业霆网络科技有限公司,500-2000人,静安区,本科,C轮,"移动互联网,教育",121.440983,31.228478,全职,5-10年,"['专项奖金', '股票期权', '弹性工作', '年度旅游']"
400,4268047,iOS开发工程师,北京,2018-05-02 10:01:09,21.0,75182,缤果盒子,北京缤歌网络科技有限公司,500-2000人,朝阳区,本科,B轮,"移动互联网,O2O",116.480206,39.997039,全职,1年以下,"['股票期权', '带薪年假', '扁平管理', '领导好']"
401,2602487,ios,上海,2018-05-02 09:50:16,18.8,1738,有鱼金融科技,上海彩亿信息技术有限公司,500-2000人,徐汇区,本科,B轮,"移动互联网,金融",121.404254,31.164469,全职,3-5年,"['股票期权', '年底双薪', '五险一金', '带薪年假']"
402,3907778,ios开发工程师,广州,2018-05-02 09:43:14,7.8,47615,趣丸,广州趣丸网络科技有限公司,150-500人,天河区,本科,不需要融资,游戏,113.375847,23.132876,全职,应届毕业生,"['技能培训', '带薪年假', '年度旅游', '扁平管理']"
403,4369791,【深圳】iOS开发工程师,深圳,2018-05-02 09:09:46,10.8,293568,Navatics,深圳纳瓦科技有限公司,15-50人,南山区,大专,A轮,"移动互联网,硬件",0.0,0.0,全职,不限,"['定期体检', '股票期权', '弹性工作', '年度旅游']"
404,4189916,IOS开发工程师,上海,2018-04-26 16:41:10,12.0,98722,银生宝,上海银生宝电子支付服务有限公司,150-500人,浦东新区,大专,未融资,"移动互联网,金融",121.50597,31.15074,全职,1-3年,"['技能培训', '带薪年假', '岗位晋升', '扁平管理']"
405,4347196,IOS开发工程师,上海,2018-04-11 23:04:24,3.8,6796,招商银行信用卡中心,招商银行股份有限公司信用卡中心,2000人以上,浦东新区,本科,上市公司,"移动互联网,金融",121.673868,31.247248,全职,3-5年,"['金融科技银行', '技术创新驱动', '奋斗独立改变', '一年两次调薪']"
406,3272741,ios开发工程师,深圳,2018-05-03 09:51:58,19.0,160058,滴滴优点,滴滴优点科技（深圳）有限公司,50-150人,福田区,本科,A轮,移动互联网,114.031537,22.534054,全职,3-5年,"['定期体检', '绩效奖金', '领导好', '五险一金']"
407,4165890,IOS开发工程师-QQ阅读,北京,2018-05-03 09:44:28,19.0,28243,阅文集团,上海阅文信息技术有限公司,500-2000人,海淀区,本科,上市公司,移动互联网,115.99339,39.99426,全职,3-5年,"['年终分红', '年底双薪', '五险一金', '交通补助']"
408,4236876,iOS开发工程师,北京,2018-05-03 09:32:57,14.0,12817,穷游网,寰宇慧旅(北京)科技有限公司,150-500人,东城区,本科,D轮及以上,移动互联网,116.44018,39.93778,全职,1-3年,"['技能培训', '节日礼物', '带薪年假', '绩效奖金']"
409,4282095,iOS软件开发工程师,广州,2018-05-03 09:21:37,3.8,320365,胖虾网络,广州胖虾网络科技有限公司,50-150人,海珠区,大专,不需要融资,"移动互联网,电子商务",113.320293,23.096004,全职,应届毕业生,"['""""']"
410,3781137,iOS开发,广州,2018-05-03 09:10:26,8.4,281289,泰商服,广州市泰商服信息科技有限公司,15-50人,番禺区,本科,不需要融资,"移动互联网,企业服务",113.364917,23.017308,全职,1-3年,"['绩效奖金', '年度旅游', '领导好', '五险一金']"
411,614141,iOS开发工程师,广州,2018-05-03 09:08:01,7.0,6558,明动软件,广州明动软件股份有限公司,150-500人,天河区,本科,上市公司,"企业服务,数据服务",,,全职,1-3年,"['技能培训', '节日礼物', '年底双薪', '绩效奖金']"
412,3545468,高级IOS开发工程师,北京,2018-05-02 20:12:36,31.0,929,最右,北京小川在线网络技术有限公司,150-500人,海淀区,本科,B轮,移动互联网,116.368056,39.980092,全职,3-5年,"['技能培训', '连续创业团队', '年度旅游', '扁平管理']"
413,4508539,ios开发工程师,深圳,2018-05-02 17:32:34,19.0,376251,新萌游戏,深圳市新世相科技有限公司,15-50人,宝安区,本科,不需要融资,"移动互联网,游戏",113.88402,22.555259,全职,3-5年,"['""""']"
414,4252902,iOS中高级工程师,广州,2018-05-02 15:49:48,9.6,212954,米美科技,广州米美科技有限公司,15-50人,天河区,本科,未融资,"数据服务,企业服务",113.316337,23.123687,全职,1-3年,"['岗位晋升', '扁平管理', '专项奖金', '带薪年假']"
415,3470068,iOS开发工程师（实习）,广州,2018-05-02 11:39:43,3.8,66619,智悅网络,广州智悦网络科技有限公司,50-150人,天河区,本科,A轮,"移动互联网,电子商务",113.371417,23.123497,实习,不限,"['五险一金', '年底双薪', '专项奖金', '带薪年假']"
416,3100120,ios工程师,北京,2018-05-02 10:56:42,19.0,115290,乐信圣文,北京乐信圣文科技有限责任公司,50-150人,海淀区,本科,B轮,移动互联网,116.357008,40.04298,全职,1-3年,"['交通补助', '午餐补助', '项目奖金', '季度奖金']"
417,4369938,IOS开发工程师（武汉）,武汉,2018-05-02 10:56:28,16.0,6552,生日管家,北京十月逸栈科技有限公司,150-500人,洪山区,大专,B轮,"移动互联网,电子商务",114.419939,30.471973,全职,1-3年,"['年底双薪', '带薪年假', '美食无限供应', '扁平管理']"
418,4118316,ios开发工程师,上海,2018-05-02 10:38:33,13.6,23008,佳锐科技,上海佳锐信息科技有限公司,150-500人,杨浦区,大专,上市公司,"企业服务,金融",121.510619,31.305927,全职,1-3年,"['绩效奖金', '五险一金', '岗位晋升', '领导好']"
419,2880690,IOS工程师,深圳,2018-05-02 10:13:59,13.2,3956,盖威,深圳市盖威科技有限公司,150-500人,南山区,本科,不需要融资,金融,113.9422,22.54878,全职,3-5年,"['绩效奖金', '五险一金', '交通补助', '带薪年假']"
420,2051306,iOS开发工程师,北京,2018-05-02 09:57:57,10.8,103372,北京谷鸟,北京谷鸟科技有限公司,15-50人,朝阳区,本科,天使轮,移动互联网,116.46130505,39.92623093,全职,3-5年,"['绩效奖金', '岗位晋升', '交通补助', '五险一金']"
421,4080838,Ios开发工程师,深圳,2018-05-02 09:51:59,14.0,41178,货拉拉手机打车软件,深圳依时货拉拉科技有限公司,500-2000人,福田区,本科,C轮,"移动互联网,O2O",114.055901,22.563101,全职,3-5年,"['技能培训', '专项奖金', '绩效奖金', '扁平管理']"
422,4095469,iOS工程师,北京,2018-04-28 10:49:31,12.0,115859,中再融,中再融（北京）科技有限公司,50-150人,海淀区,大专,天使轮,"移动互联网,金融",116.313113,39.979474,全职,3-5年,"['绩效奖金', '带薪年假', '午（晚）餐', '晋升机制']"
423,4119154,IOS,合肥,2018-04-26 17:28:24,9.8,36272,飞常准,飞友科技有限公司,150-500人,蜀山区,大专,A轮,移动互联网,0.0,0.0,全职,3-5年,"['节日礼物', '年度旅游', '管理规范', '五险一金']"
424,3956159,IOS开发工程师,上海,2018-04-11 23:04:14,3.8,6796,招商银行信用卡中心,招商银行股份有限公司信用卡中心,2000人以上,浦东新区,本科,上市公司,"移动互联网,金融",121.673868,31.247248,全职,3-5年,"['金融科技银行', '技术创新驱动', '奋斗独立改变', '一年两次调薪']"
425,4304479,ios开发工程师（北京）,北京,2018-05-03 09:27:29,12.0,16175,狮桥资本,狮桥融资租赁（中国）有限公司,500-2000人,顺义区,本科,B轮,金融,0.0,0.0,全职,1-3年,"['绩效奖金', '午餐补助', '带薪年假', '定期体检']"
426,1806293,iOS工程师,青岛,2018-05-02 18:48:40,7.0,123744,房产，移动互联网，金融。,青岛永嘎科技有限公司,少于15人,市北区,本科,未融资,"移动互联网,O2O",120.36175,36.07797,全职,1-3年,[]
427,3921903,高级IOS开发工程师,杭州,2018-05-02 16:20:37,28.0,70,宝宝树,宝宝树（北京）信息技术有限公司,500-2000人,余杭区,本科,D轮及以上,社交网络,120.00925,30.283566,全职,3-5年,"['商业医疗保险', '股票期权', '带薪年假', '扁平管理']"
428,4135145,ios开发工程师,北京,2018-05-02 15:15:37,19.0,47865,飞驰镁物,飞驰镁物（北京）信息服务有限公司,150-500人,朝阳区,本科,B轮,"移动互联网,数据服务",116.51052,39.89339007,全职,3-5年,"['智能汽车', '车联网', '股票期权', '黄金团队组合']"
429,3638366,IOS开发工程师,北京,2018-05-02 15:11:35,13.2,260434,大庆高新国际工贸有限公司,大庆高新国际工贸有限公司,50-150人,朝阳区,本科,未融资,"电子商务,其他",116.418759,39.987354,全职,3-5年,[]
430,4466638,IOS开发工程师,长沙,2018-05-02 14:19:16,7.6,275082,十安科技,湖南十安科技有限公司,15-50人,岳麓区,不限,天使轮,移动互联网,112.891595,28.192569,全职,1-3年,[]
431,4326820,iOS高级开发工程师,北京,2018-05-02 12:03:49,28.0,286568,音娱时光,北京音娱时光科技有限公司,50-150人,海淀区,本科,A轮,移动互联网,0.0,0.0,全职,3-5年,"['年底双薪', '绩效奖金', '带薪年假', '扁平管理']"
432,3865655,高级iOS开发工程师,北京,2018-05-02 11:32:26,33.0,284128,NewsJet,北京智分科技有限公司,50-150人,海淀区,本科,不需要融资,移动互联网,116.351631,39.977163,全职,3-5年,"['年底双薪', '免费两餐', 'Geek范', '免费健身']"
433,4269182,IOS高级开发工程师(326),上海,2018-05-02 11:26:27,21.0,27878,百事通,上海百事通信息技术股份有限公司,500-2000人,徐汇区,本科,上市公司,移动互联网,0.0,0.0,全职,5-10年,"['带薪年假', '节日礼物', '定期体检', '岗位晋升']"
434,4212070,IOS开发工程师,上海,2018-05-02 11:20:26,16.4,263738,朝夕网络,上海朝夕网络技术有限公司,15-50人,浦东新区,本科,天使轮,"移动互联网,金融",121.60297,31.200983,全职,3-5年,"['年底双薪', '带薪年假', '定期体检', '区块链培训']"
435,3664281,IOS研发工程师,北京,2018-05-02 10:11:40,7.0,51512,东信北邮,杭州东信北邮信息技术有限公司,500-2000人,海淀区,不限,未融资,"移动互联网,其他",116.349979,39.976913,全职,不限,"['带薪年假', '绩效奖金', '美女多', '定期体检']"
436,4361951,IOS高级工程师,北京,2018-05-02 09:59:53,24.0,14745,以太创服,艾普拉斯投资顾问（北京）有限公司,150-500人,朝阳区,本科,B轮,金融,116.471469,39.910169,全职,3-5年,"['绩效奖金', '股票期权', '投资机会', '其他公司股票']"
437,3890311,资深IOS工程师,上海,2018-05-02 09:55:39,20.8,14983,游族网络,上海游族信息技术有限公司,500-2000人,徐汇区,不限,上市公司,"移动互联网,游戏",39.897445,116.331398,全职,3-5年,"['五险一金', '岗位晋升', '弹性工作', '扁平管理']"
438,3980416,iOS 开发工程师,上海,2018-05-02 09:50:23,16.0,46605,VIP陪练,上海妙克信息科技有限公司,150-500人,杨浦区,本科,B轮,"移动互联网,教育",121.5251,31.2739,全职,3-5年,"['年底双薪', '节日礼物', '绩效奖金', '岗位晋升']"
439,2732339,高级iOS研发工程师,杭州,2018-05-02 09:33:20,19.0,1121,智课网,北京创新伙伴教育科技有限公司,500-2000人,西湖区,本科,B轮,"移动互联网,教育",119.993591,29.993662,全职,1-3年,"['工程师文化', '节日礼物', '技能培训', '在线教育']"
440,4304172,IOS高级开发工程师,上海,2018-05-02 08:44:26,18.2,44340,申通快递,申通快递有限公司,2000人以上,青浦区,本科,上市公司,生活服务,121.195939,31.193879,全职,3-5年,"['技能培训', '免费班车', '年度旅游', '年终分红']"
441,2805975,高级IOS研发工程师,北京,2018-05-01 23:00:19,36.0,50702,美团点评,北京三快在线科技有限公司,2000人以上,海淀区,本科,D轮及以上,"移动互联网,O2O",116.314526,39.982338,全职,3-5年,"['技能培训', '绩效奖金', '岗位晋升', '领导好']"
442,4270197,IOS开发工程师（2018应届生）,广州,2018-05-01 17:41:49,6.8,4126,POCO.CN,广州数联软件技术有限公司,150-500人,越秀区,本科,B轮,"移动互联网,文化娱乐",113.30819,23.12011,全职,1年以下,"['专项奖金', '带薪年假', '绩效奖金', '岗位晋升']"
443,4154027,IOS开发,北京,2018-05-03 09:49:36,17.0,101347,和信康,北京和信康科技有限公司,50-150人,,本科,B轮,其他,,,全职,3-5年,"['年底双薪', '岗位晋升', '扁平管理', '五险一金']"
444,538600,iOS高级开发工程师,深圳,2018-05-03 09:49:07,22.0,26399,云图TV,珠海云迈网络科技有限公司,50-150人,南山区,本科,A轮,移动互联网,113.90878594,22.54904639,全职,3-5年,"['带薪年假', '绩效奖金', '年度旅游', '扁平管理']"
445,3644727,iOS 开发工程师-QQ阅读,北京,2018-05-03 09:44:28,24.0,28243,阅文集团,上海阅文信息技术有限公司,500-2000人,海淀区,本科,上市公司,移动互联网,115.99339,39.99426,全职,3-5年,"['年终分红', '年底双薪', '五险一金', '交通补助']"
446,2169315,IOS开发工程师,青岛,2018-05-03 09:03:48,5.2,130047,神豪资产,山东神豪资产管理有限公司,50-150人,,本科,不需要融资,"金融,移动互联网",120.195199,35.96639,全职,1-3年,[]
447,3172912,iOS开发工程师,北京,2018-05-02 14:52:17,22.0,1970,去哪儿网,北京趣拿软件科技有限公司,2000人以上,海淀区,本科,不需要融资,移动互联网,116.30572973,39.97727051,全职,3-5年,"['技能培训', '节日礼物', '带薪年假', '无息住房贷款']"
448,4354575,高级IOS开发工程师,北京,2018-05-02 12:30:52,21.0,149244,多赚,北京诚行天下投资咨询有限公司,50-150人,朝阳区,本科,天使轮,"移动互联网,金融",116.506666,39.9024,全职,5-10年,"['带薪年假', '午餐补助', '免费班车', '节日礼物']"
449,4394157,iOS开发工程师,北京,2018-05-02 11:02:19,17.0,62151,驯鹿旅行,北京鼎泽泰程科技有限公司,15-50人,朝阳区,本科,天使轮,"移动互联网,旅游",0.0,0.0,全职,3-5年,"['技能培训', '股票期权', '带薪年假', '绩效奖金']"
450,4509224,高级iOS研发工程师,北京,2018-05-02 18:50:23,28.0,50702,美团点评,北京三快在线科技有限公司,2000人以上,朝阳区,本科,D轮及以上,"移动互联网,O2O",116.48776,40.008007,全职,3-5年,"['技能培训', '绩效奖金', '岗位晋升', '领导好']"
451,4375826,资深IOS开发工程师,上海,2018-05-02 09:52:57,29.0,47993,鱼泡泡,上海鱼泡泡信息科技有限公司,150-500人,徐汇区,本科,B轮,生活服务,121.39779,31.16459,全职,3-5年,"['年底双薪', '带薪年假', '年度旅游', '岗位晋升']"
452,3900361,IOS开发工程师,常州,2018-05-02 09:30:50,5.8,295265,金姆健康,常州金姆健康科技有限公司,15-50人,天宁区,大专,天使轮,医疗健康,0.0,0.0,全职,3-5年,"['""""']"
453,3924843,IOS工程师,深圳,2018-05-01 16:08:44,9.6,42702,打打族,深圳市打打族网络科技有限公司,少于15人,福田区,大专,不需要融资,移动互联网,114.033069,22.557784,全职,1-3年,"['带薪年假', '五险', '年轻团队', '自由互助']"
454,4502272,ios开发工程师,合肥,2018-04-29 16:38:09,9.8,164634,百得思维,安徽百得思维信息科技有限公司,500-2000人,高新区,本科,未融资,其他,117.144594,31.831305,全职,3-5年,[]
455,1026105,IOS开发工程师,杭州,2018-04-26 08:46:47,14.0,91685,浙江同硕科技,浙江同硕科技有限公司,50-150人,西湖区,本科,未融资,"移动互联网,电子商务",120.06054958,30.32424971,全职,1-3年,"['节日礼物', '年底双薪', '带薪年假', '绩效奖金']"
456,2376643,iOS,杭州,2018-05-03 09:44:07,15.2,137388,顺联动力,浙江顺联网络科技有限公司,150-500人,滨江区,大专,不需要融资,"移动互联网,电子商务",119.993921,29.993843,全职,3-5年,"['年终分红', '绩效奖金', '定期体检', '年底双薪']"
457,1370602,iOS开发工程师,上海,2018-05-03 09:09:20,19.0,78369,欧电云,上海欧电云信息科技有限公司,150-500人,浦东新区,本科,B轮,"电子商务,企业服务",121.581977,31.197071,全职,3-5年,"['试用期全薪', '定期体检', '五险一金', '弹性工作']"
458,4356603,ios工程师,北京,2018-05-02 14:35:15,11.4,126385,罗威亚科技,北京罗威亚科技有限公司,15-50人,大兴区,本科,天使轮,"移动互联网,硬件",116.513732,39.791937,全职,1-3年,"['扁平管理', '技能培训', '弹性工作', '领导好']"
459,4372076,iOS开发工程师,上海,2018-05-02 14:13:48,25.2,59470,nonda 能塔智能,上海能塔智能科技有限公司,50-150人,徐汇区,本科,A轮,"移动互联网,硬件",121.46488,31.198303,全职,3-5年,"['精英小团队', '赚老外的钱', '租房补贴', '常去硅谷']"
460,3332380,IOS开发工程师,北京,2018-05-02 11:37:46,21.0,534,京东金融,京东金融,2000人以上,大兴区,本科,上市公司,金融,116.56438326,39.78603815,全职,3-5年,"['供应链金融', '消费金融', '众筹业务', '支付业务']"
461,3943528,IOS开发工程师,上海,2018-05-02 10:48:00,21.0,66311,方付通,上海方付通商务服务有限公司,150-500人,浦东新区,本科,不需要融资,"移动互联网,金融",121.54909021,31.22457647,全职,3-5年,"['技能培训', '节日礼物', '岗位晋升', '五险一金']"
462,2700674,高级iOS工程师,北京,2018-05-02 10:06:28,28.0,929,最右,北京小川在线网络技术有限公司,150-500人,海淀区,本科,B轮,移动互联网,116.368056,39.980092,全职,3-5年,"['技能培训', '连续创业团队', '年度旅游', '扁平管理']"
463,1540654,iOS工程师,深圳,2018-05-02 09:57:29,12.0,43807,智美达,深圳市智美达科技股份有限公司,500-2000人,南山区,本科,C轮,移动互联网,,,全职,1-3年,"['节日礼物', '技能培训', '专项奖金', '股票期权']"
464,4200998,高级IOS开发工程师,上海,2018-05-02 09:55:37,18.2,14983,游族网络,上海游族信息技术有限公司,500-2000人,徐汇区,不限,上市公司,"移动互联网,游戏",39.897445,116.331398,全职,1-3年,"['五险一金', '岗位晋升', '弹性工作', '扁平管理']"
465,4463101,iOS开发工程师,深圳,2018-05-02 09:52:04,5.6,172291,鲁班长,鲁班长科技（深圳）有限公司,15-50人,福田区,大专,未融资,移动互联网,114.045006,22.517998,全职,1-3年,[]
466,4203238,IOS开发工程师,深圳,2018-05-02 08:59:38,11.2,65802,嘟嘟巴士,深圳市乐途宝网络科技有限公司,50-150人,南山区,本科,B轮,移动互联网,113.932749,22.541047,全职,1-3年,"['技能培训', '节日礼物', '股票期权', '带薪年假']"
467,4357701,iOS高级开发工程师,北京,2018-05-01 20:00:08,31.0,311084,REDEFINE,北京瑞地科技有限公司,150-500人,朝阳区,本科,不需要融资,移动互联网,0.0,0.0,全职,5-10年,"['五险一金', '股票期权', '扁平管理', '绩效奖金']"
468,4316941,ios苹果移动开发,北京,2018-04-28 17:27:05,21.0,153849,蚂蚁金服集团,支付宝(杭州)信息技术有限公司,2000人以上,朝阳区,本科,B轮,"金融,移动互联网",0.0,0.0,全职,应届毕业生,"['年底双薪', '带薪年假', '股票期权', '绩效奖金']"
469,4260838,IOS开发高级工程师（5年以上IOS开发经验）,北京,2018-04-28 16:30:03,26.0,27298,蓝信移动（北京）科技有限公司,蓝信移动（北京）科技有限公司,150-500人,朝阳区,本科,B轮,移动互联网,116.4901,39.982669,全职,5-10年,"['技能培训', '食堂三餐美食', '细分领域第一', '实干型团队！']"
470,2973289,IOS开发工程师,武汉,2018-04-10 14:44:47,6.2,32727,皆能时空,武汉皆能时空关联科技有限公司,15-50人,东西湖区,本科,未融资,移动互联网,114.287483,30.669201,全职,1-3年,"['股票期权', '绩效奖金', '午餐补助', '带薪年假']"
471,3656728,ios开发工程师,北京,2018-05-02 20:46:15,19.0,43016,美菜网,北京云杉世界信息技术有限公司,2000人以上,朝阳区,本科,D轮及以上,"电子商务,O2O",116.40105744,39.97221945,全职,3-5年,"['技能培训', '节日礼物', '绩效奖金', '岗位晋升']"
472,1022671,iOS,成都,2018-05-02 15:46:13,8.2,32792,悠云,成都悠云高科技有限公司,少于15人,高新区,本科,未融资,"移动互联网,数据服务",104.0562003,30.53872019,全职,3-5年,"['技能培训', '岗位晋升', '管理规范', '五险一金']"
473,4453186,iOS高级研发工程师,北京,2018-05-02 15:20:24,28.0,112375,伴鱼口语,北京读我科技有限公司,50-150人,海淀区,本科,B轮,移动互联网,116.381643,39.980434,全职,5-10年,"['带薪年假', '交通补助', '五险一金', '住宿补贴']"
474,4044481,新零售业务-iOS开发工程师/技术专家,北京,2018-05-02 11:30:59,32.0,50702,美团点评,北京三快在线科技有限公司,2000人以上,朝阳区,本科,D轮及以上,"移动互联网,O2O",121.417969,31.217836,全职,5-10年,"['技能培训', '绩效奖金', '岗位晋升', '领导好']"
475,3793758,资深IOS工程师,杭州,2018-05-02 10:35:33,17.8,2540,铜板街,杭州铜板街网络科技有限公司,150-500人,西湖区,本科,B轮,移动互联网,120.124783,30.277036,全职,3-5年,"['创新开放', '团队牛X', '全员期权', '高速成长']"
476,4338905,iOS开发工程师,北京,2018-05-02 09:51:52,21.0,126499,机器学习,北京机器学习信息技术有限公司,15-50人,海淀区,本科,不需要融资,移动互联网,116.354111,40.001723,全职,5-10年,[]
477,2609970,ios资深开发,上海,2018-05-02 09:50:22,28.0,1738,有鱼金融科技,上海彩亿信息技术有限公司,500-2000人,徐汇区,本科,B轮,"移动互联网,金融",121.40437233,31.16440487,全职,5-10年,"['股票期权', '年底双薪', '五险一金', '带薪年假']"
478,3888735,IOS开发工程师,柳州,2018-05-02 09:46:20,7.0,157784,数链科技,广西数链信息科技有限责任公司,少于15人,城中区,不限,未融资,"企业服务,文化娱乐",109.432218,24.32609,全职,1-3年,[]
479,4343473,ios开发工程师,广州,2018-05-02 09:43:14,12.0,47615,趣丸,广州趣丸网络科技有限公司,150-500人,天河区,本科,不需要融资,游戏,113.375847,23.132876,全职,1-3年,"['技能培训', '带薪年假', '年度旅游', '扁平管理']"
480,3358916,iOS开发工程师,济南,2018-05-02 09:23:33,8.4,230393,河流道,济南河流道网络科技有限公司,50-150人,高新区,大专,不需要融资,"移动互联网,数据服务",117.128829,36.673122,全职,1-3年,"['扁平管理', '节日礼物', '弹性工作', '领导好']"
481,1388581,iOS开发工程师,厦门,2018-04-28 17:47:14,12.6,9251,美柚,厦门美柚信息科技有限公司,500-2000人,思明区,本科,D轮及以上,移动互联网,118.17932953,24.49017955,全职,3-5年,"['绩效奖金', '股票期权', '年底双薪', '专项奖金']"
482,4362855,iOS开发工程师,广州,2018-04-27 14:36:49,10.4,125157,晓教育,广东世纪晓教育科技有限公司,2000人以上,天河区,本科,不需要融资,教育,113.33231,23.13689,全职,1-3年,"['五险一金', '丰厚薪酬', '配股分红', '免息贷款']"
483,2746999,iOS开发工程师,北京,2018-04-27 10:57:49,22.8,129,陌陌,北京陌陌科技有限公司,500-2000人,朝阳区,本科,上市公司,社交网络,115.99339,39.99426,全职,1-3年,"['岗位晋升', '帅哥多', '管理规范', '技能培训']"
484,4444647,ios开发工程师,广州,2018-04-26 11:37:38,13.2,251122,瑞玩,上海瑞玩网络科技有限公司广州分公司,50-150人,天河区,大专,不需要融资,游戏,113.380976,23.124854,全职,3-5年,[]
485,3839089,IOS程序员,肇庆,2018-04-16 16:54:53,8.4,30923,华盈,肇庆市华盈体育文化发展有限公司,150-500人,端州区,本科,A轮,文化娱乐,112.49652,23.08283,全职,3-5年,"['高提成奖金', '高成长公司', '股份期权', '团队创新高效']"
486,4257129,ios开发,杭州,2018-05-03 09:08:49,9.0,226706,奋雄科技,浙江奋雄科技有限公司,15-50人,拱墅区,本科,不需要融资,"移动互联网,企业服务",120.114361,30.333239,全职,3-5年,[]
487,4243046,ios开发工程师（广州）,广州,2018-05-02 15:58:18,12.0,242768,阿米巴,汕头市阿米巴网络科技有限公司,150-500人,越秀区,大专,不需要融资,"移动互联网,电子商务",113.295453,23.136383,全职,不限,"['年底双薪', '定期体检', '五险一金', '带薪年假']"
488,4506363,IOS开发工程师,成都,2018-05-02 14:40:39,6.8,221972,鹭升科技,成都鹭升科技有限公司,150-500人,高新区,大专,未融资,移动互联网,104.066546,30.54454,全职,1-3年,[]
489,4465858,IOS开发工程师,杭州,2018-05-02 14:22:58,19.0,53080,有贝,有贝网络科技（杭州）有限公司,50-150人,滨江区,本科,不需要融资,"移动互联网,金融",120.20019,30.191665,全职,3-5年,"['技能培训', '节日礼物', '年底多薪', '绩效奖金']"
490,4483739,iOS工程师(J10139),杭州,2018-05-02 13:49:24,14.0,33618,微贷网,微贷（杭州）金融信息服务有限公司,2000人以上,江干区,本科,C轮,金融,120.210795,30.241803,全职,1-3年,"['年底双薪', '专项奖金', '绩效奖金', '岗位晋升']"
491,297841,IOS开发工程师,珠海,2018-05-02 10:59:52,12.4,40994,信达九州,珠海信达九州科技有限公司,15-50人,香洲区,大专,A轮,移动互联网,113.58775982,22.25213048,全职,1-3年,"['技能培训', '年底双薪', '带薪年假', '绩效奖金']"
492,4289761,IOS开发工程师,北京,2018-05-02 10:55:29,21.2,1650,联想集团,联想（北京）有限公司,2000人以上,海淀区,本科,上市公司,"移动互联网,数据服务",116.273572,40.046061,全职,5-10年,"['技能培训', '待遇优厚', '晋升空间', '五险一金']"
493,2696012,IOS高级开发工程师,北京,2018-05-02 10:23:38,31.8,436,360,奇虎360科技有限公司,2000人以上,朝阳区,本科,上市公司,"移动互联网,游戏",116.49131503,39.96517336,全职,5-10年,[]
494,4361933,IOS中级工程师,北京,2018-05-02 09:59:53,19.0,14745,以太创服,艾普拉斯投资顾问（北京）有限公司,150-500人,朝阳区,本科,B轮,金融,116.471469,39.910169,全职,1-3年,"['绩效奖金', '股票期权', '投资机会', '其他公司股票']"
495,4230130,高级IOS开发工程师,北京,2018-05-02 09:52:51,19.0,18165,新东方教育行业研究院,北京点石经纬科技有限公司,150-500人,海淀区,本科,B轮,"移动互联网,教育",116.312091,39.980906,全职,5-10年,"['五险一金', '带薪年假', '节日礼物', '年度旅游']"
496,3839346,iOS开发工程师,北京,2018-05-02 09:35:54,17.2,57436,华樾教育,北京华樾教育科技有限公司,150-500人,海淀区,本科,不需要融资,"移动互联网,教育",116.310136,39.983619,全职,3-5年,"['节日礼物', '带薪年假', '岗位晋升', '扁平管理']"
497,4069408,iOS开发工程师,北京,2018-05-02 08:59:22,26.0,1730,一下科技,炫一下（北京）科技有限公司,500-2000人,朝阳区,本科,D轮及以上,"移动互联网,文化娱乐",116.48919426,39.999364,全职,3-5年,"['带薪年假', '绩效奖金', '岗位晋升', '管理规范']"
498,3423392,高级IOS开发工程师,北京,2018-05-01 23:00:19,43.0,50702,美团点评,北京三快在线科技有限公司,2000人以上,朝阳区,本科,D轮及以上,"移动互联网,O2O",116.466554,39.995147,全职,3-5年,"['技能培训', '绩效奖金', '岗位晋升', '领导好']"
499,4273357,高级iOS开发,北京,2018-04-28 16:30:04,26.0,27298,蓝信移动（北京）科技有限公司,蓝信移动（北京）科技有限公司,150-500人,朝阳区,本科,B轮,移动互联网,116.499683,39.974721,全职,5-10年,"['技能培训', '食堂三餐美食', '细分领域第一', '实干型团队！']"
500,2209961,IOS开发工程师,上海,2018-04-26 16:15:14,14.0,1403,爱回收,上海悦易网络信息技术有限公司,500-2000人,杨浦区,本科,D轮及以上,"电子商务,O2O",,,全职,3-5年,"['节日礼物', '股票期权', '专项奖金', '带薪年假']"
501,3948579,iOS开发工程师,广州,2018-04-26 11:04:48,12.4,22790,网易游戏,广州博冠信息科技有限公司,2000人以上,天河区,本科,上市公司,游戏,112.993461,22.994261,全职,1-3年,"['绩效奖金', '年终分红', '专项奖金', '年底双薪']"
502,2619842,ios开发工程师,北京,2018-05-03 09:43:35,21.0,534,京东金融,京东金融,2000人以上,通州区,本科,上市公司,金融,116.52117756,39.82198934,全职,3-5年,"['供应链金融', '消费金融', '众筹业务', '支付业务']"
503,4367148,iOS工程师 (深圳）,深圳,2018-05-03 09:38:39,14.0,34872,奇志信息科技,广州奇志信息科技有限公司,15-50人,南山区,本科,A轮,移动互联网,113.95356,22.541623,全职,1-3年,"['年底双薪', '带薪年假', '岗位晋升', '扁平管理']"
504,4422985,iOS开发工程师,青岛,2018-05-03 09:28:53,11.4,276737,海尔新媒体实验室,青岛创客之星文化传媒有限公司,15-50人,市南区,本科,不需要融资,"文化娱乐,移动互联网",117.020359,36.66853,全职,1-3年,"['专项奖金', '弹性工作', '领导好', '美女多']"
505,1229943,iOS应用软件工程师,深圳,2018-05-03 09:19:39,10.8,102547,智芯,深圳智芯数据服务有限公司,50-150人,宝安区,本科,A轮,其他,113.863224,22.567233,全职,1-3年,"['股票期权', '绩效奖金', '岗位晋升', '扁平管理']"
506,3618585,IOS高级工程师 / 技术经理,北京,2018-05-03 09:16:54,24.0,25439,Udesk－企业级智能客服平台,北京沃丰时代数据科技有限公司,150-500人,西城区,本科,B轮,其他,116.357353,39.939211,全职,5-10年,"['股票期权', '高成长', '云服务', '高并发']"
507,4279353,iOS开发工程师,杭州,2018-05-02 22:04:33,19.0,343939,门链科技,杭州门链科技有限公司,少于15人,余杭区,本科,不需要融资,"金融,其他",120.0218,30.275376,全职,1-3年,"['""""']"
508,3645470,IOS开发工程师,武汉,2018-05-02 21:21:32,9.0,150391,左冠,左冠高科技术有限公司,50-150人,江夏区,本科,未融资,"硬件,O2O",,,全职,3-5年,[]
509,3712242,IOS开发工程师,上海,2018-05-02 16:05:06,17.0,136378,美好分期,苏州盈衍友诚信息科技有限公司,150-500人,黄浦区,本科,A轮,金融,121.4819,31.197253,全职,1-3年,"['年终多薪', '股票期权', '带薪年假', '绩效奖金']"
510,982402,高级iOS开发工程师,北京,2018-05-02 14:54:00,21.0,179,她理财,北京新工场投资顾问有限公司,50-150人,朝阳区,本科,A轮,"移动互联网,金融",116.47424,39.90694007,全职,1-3年,"['年底双薪', '节日礼物', '技能培训', '绩效奖金']"
511,1705518,iOS,广州,2018-05-02 14:01:52,14.0,17863,骑鹅旅行,广州市骑鹅游信息技术咨询服务有限公司,50-150人,海珠区,本科,A轮,"旅游,数据服务",113.36736403,23.09662908,全职,3-5年,"['绩效奖金', '年度旅游', '扁平管理', '管理规范']"
512,4274644,IOS高级工程师 07-01-58,杭州,2018-05-02 11:17:42,17.0,18655,大搜车,杭州大搜车汽车服务有限公司,500-2000人,余杭区,本科,D轮及以上,"移动互联网,O2O",120.032401,30.243532,全职,3-5年,"['技能培训', 'Geek', '开放', '扁平管理']"
513,2729929,高级iOS开发工程师,北京,2018-05-02 11:04:59,28.0,115290,乐信圣文,北京乐信圣文科技有限责任公司,50-150人,海淀区,本科,B轮,移动互联网,116.357008,40.04298,全职,3-5年,"['交通补助', '午餐补助', '项目奖金', '季度奖金']"
514,4485404,IOS开发工程师,广州,2018-05-02 11:03:24,8.2,29750,星辉游戏,广东星辉天拓互动娱乐有限公司,500-2000人,天河区,本科,上市公司,游戏,113.416951,23.176261,全职,1-3年,"['技能培训', '年底双薪', '节日礼物', '绩效奖金']"
515,2130102,iOS,重庆,2018-05-02 10:44:54,10.0,49908,重庆展览中心,重庆展览中心有限公司,50-150人,九龙坡区,大专,不需要融资,广告营销,106.4922803,29.52528027,全职,3-5年,"['重庆', '汽车', '自有项目']"
516,4373041,iOS开发,广州,2018-05-02 10:39:54,3.8,358806,广州登风网络开发有限公司,广州登风网络开发有限公司,150-500人,天河区,大专,未融资,"移动互联网,游戏",113.407274,23.131814,全职,应届毕业生,"['""""']"
517,2959874,iOS工程师,厦门,2018-05-02 10:33:31,10.8,8420,拓客金融,厦门拓客金融技术服务有限公司,15-50人,湖里区,大专,未融资,移动互联网,118.14062,24.48325,全职,3-5年,"['五险一金', '节日礼物', '岗位晋升', '技能培训']"
518,3858262,IOS开发工程师,深圳,2018-05-02 10:30:41,9.0,78102,网达软件,上海网达软件股份有限公司,500-2000人,南山区,本科,上市公司,"移动互联网,电子商务",113.937692,22.522658,全职,3-5年,"['股票期权', '带薪年假', '绩效奖金', '岗位晋升']"
519,4385295,高级iOS开发工程师,广州,2018-05-02 10:08:00,14.0,211382,手趣,广州手趣网络科技有限公司,50-150人,天河区,大专,不需要融资,"移动互联网,游戏",113.347341,23.143817,全职,1-3年,"['扁平管理', '领导好', '工作餐', '周末双休']"
520,2497811,iOS,广州,2018-05-02 10:03:58,17.8,136263,玉贝网络科技,广州玉贝网络科技有限公司,50-150人,天河区,不限,未融资,"移动互联网,电子商务",113.4173743,23.14626076,全职,3-5年,"['年底双薪', '年度旅游', '五险一金']"
521,3367022,iOS研发工程师,杭州,2018-04-27 14:46:34,12.0,34315,涂鸦智能,杭州涂鸦信息技术有限公司,150-500人,西湖区,本科,B轮,"移动互联网,硬件",119.993591,29.993662,全职,应届毕业生,"['5星办公环境', '年底奖金', '团队牛B', '五险一金']"
522,4401412,IOS开发工程师,上海,2018-04-27 14:23:46,14.0,55021,坚果云,上海亦存网络科技有限公司,50-150人,浦东新区,本科,不需要融资,"企业服务,数据服务",121.590566,31.186571,全职,1-3年,"['技能培训', '专项奖金', '绩效奖金', '扁平管理']"
523,2335824,iOS工程师,深圳,2018-04-27 09:30:20,19.0,2066,小恩爱,深圳市梦之舵信息技术有限公司,50-150人,南山区,本科,A轮,社交网络,113.92558399,22.52393802,全职,1-3年,"['绩效奖金', '五险一金', '带薪年假', '节日礼物']"
524,3940474,ios开发,上海,2018-04-26 10:07:04,10.8,130659,舟恩信息,上海舟恩信息技术有限公司,150-500人,徐汇区,本科,不需要融资,移动互联网,121.462683,31.1871,全职,3-5年,[]
525,4204271,iOS研发工程师 -- 借出,上海,2018-04-26 09:53:37,21.0,6044,拍拍贷,上海拍拍贷金融信息服务有限公司,2000人以上,浦东新区,本科,上市公司,金融,0.0,0.0,全职,3-5年,"['绩效奖金', '五险一金', '带薪年假', '午餐补助']"
526,4437260,IOS工程师,广州,2018-04-23 17:35:34,12.8,271,有米科技,有米科技股份有限公司,500-2000人,番禺区,本科,上市公司,"移动互联网,广告营销",113.386328,23.05702,全职,1-3年,"['绩效奖金', '股票期权', '专项奖金', '五险一金']"
527,11072,iOS开发工程师-中级,广州,2018-05-03 09:54:20,11.2,2688,播种网,广州启康信息科技有限公司,50-150人,海珠区,本科,天使轮,"移动互联网,医疗健康",,,全职,3-5年,"['带薪年假', '弹性工作', '健康医疗', '扁平管理']"
528,4337206,ios开发工程师,北京,2018-05-03 09:21:27,17.0,40215,兔玩网,北京兔玩在线科技有限公司,50-150人,石景山区,本科,A轮,"游戏,文化娱乐",116.245171,39.903124,全职,3-5年,"['节日礼物', '技能培训', '带薪年假', '年度旅游']"
529,3263122,高级iOS研发工程师,深圳,2018-05-02 22:06:32,21.0,214546,港优创新,港优创新（深圳）科技有限公司,15-50人,南山区,本科,A轮,"移动互联网,金融",113.946176,22.547781,全职,3-5年,"['带薪年假', '股票期权', '扁平管理', '五险一金']"
530,3432506,IOS高级研发,厦门,2018-05-02 17:15:07,21.0,213786,咪咕,咪咕文化科技有限公司,2000人以上,思明区,本科,不需要融资,"移动互联网,文化娱乐",118.180597,24.489868,全职,不限,"['定期体检', '带薪年假', '绩效奖金', '专项奖金']"
531,3046028,ios开发工程师,石家庄,2018-05-02 15:58:20,6.8,196463,仓禀实尚,河北仓禀实尚科技有限公司,15-50人,桥西区,本科,上市公司,"移动互联网,信息安全",114.461154,38.004043,全职,1-3年,[]
532,4487569,手机app开发工程师安卓/ios,无锡,2018-05-02 14:30:46,4.8,233304,燃网络,南京网燃网络科技有限公司,少于15人,崇安区,大专,未融资,"移动互联网,游戏",120.307543,31.571228,全职,1年以下,[]
533,4418113,IOS开发工程师,广州,2018-05-02 10:46:51,10.8,20859,东百,广州东百信息科技有限公司,50-150人,海珠区,大专,不需要融资,"游戏,移动互联网",113.320161,23.095741,全职,1-3年,"['领导好', '带薪年假', '年底双薪', '成长空间大']"
534,4349562,ios开发工程师,北京,2018-05-02 10:12:13,26.0,23039,好大夫在线,互动峰科技(北京)有限公司,500-2000人,朝阳区,本科,D轮及以上,医疗健康,116.509019,39.912076,全职,3-5年,"['五险一金', '带薪年假', '绩效奖金', '专项奖金']"
535,751514,iOS工程师,北京,2018-05-02 09:54:34,21.0,72555,多点Dmall,多点生活（中国）网络科技有限公司,500-2000人,海淀区,本科,A轮,"电子商务,O2O",116.319823,39.976559,全职,3-5年,"['技能培训', '年底双薪', '节日礼物', '绩效奖金']"
536,4460993,ios开发工程师,广州,2018-05-02 09:45:19,10.0,8889,婚礼猫,广州喜淘信息科技有限公司,150-500人,海珠区,本科,A轮,"移动互联网,O2O",113.31608,23.099717,全职,1-3年,"['年底双薪', '五险一金', '平均年龄24', '女神比男神多']"
537,3329256,iOS开发工程师,广州,2018-05-02 09:43:14,17.6,47615,趣丸,广州趣丸网络科技有限公司,150-500人,天河区,本科,不需要融资,游戏,113.375847,23.132876,全职,3-5年,"['技能培训', '带薪年假', '年度旅游', '扁平管理']"
538,934592,iOS开发工程师,杭州,2018-05-02 08:50:42,7.0,70274,和乐科技,杭州和乐科技有限公司,15-50人,西湖区,本科,A轮,医疗健康,120.115056,30.27695,全职,1-3年,"['绩效奖金', '岗位晋升', '领导好', '五险一金']"
539,3705263,IOS开发工程师,北京,2018-04-28 11:20:16,12.0,173605,美房云客,苏州美房云客软件科技股份有限公司,150-500人,朝阳区,本科,上市公司,移动互联网,116.479492,40.012973,全职,1-3年,"['年底双薪', '带薪年假', '午餐补助', '定期体检']"
540,2971289,iOS/Android 多媒体研发工程师,上海,2018-04-28 10:25:26,33.0,26250,musical.ly,蜜柚网络科技（上海）有限公司,150-500人,黄浦区,本科,不需要融资,"社交网络,文化娱乐",121.99341,30.994275,全职,3-5年,"['技能培训', '节日礼物', '股票期权', '带薪年假']"
541,4112924,IOS开发工程师,上海,2018-04-26 16:15:13,19.0,1403,爱回收,上海悦易网络信息技术有限公司,500-2000人,杨浦区,本科,D轮及以上,"电子商务,O2O",121.99341,30.994275,全职,5-10年,"['节日礼物', '股票期权', '专项奖金', '带薪年假']"
542,4464024,iOS开发工程师 (MJ000789),广州,2018-04-25 09:34:56,24.0,49579,欢聚时代（YY Inc）,广州华多网络科技有限公司,2000人以上,番禺区,本科,上市公司,移动互联网,113.348011,23.007841,全职,3-5年,"['技能培训', '节日礼物', '无息贷款', '绩效奖金']"
543,4471636,IOS,杭州,2018-05-02 16:58:13,13.6,127100,大鱼金服,杭州有余网络技术有限公司,少于15人,滨江区,大专,未融资,"移动互联网,金融",120.203341,30.208057,全职,3-5年,"['弹性工作', '扁平管理']"
544,4457063,ios开发工程师,长沙,2018-05-02 15:58:55,6.8,56332,芒果金融,湖南芒果财富网络科技有限公司,50-150人,岳麓区,大专,不需要融资,金融,112.993417,27.994254,全职,3-5年,"['节日礼物', '技能培训', '带薪年假', '绩效奖金']"
545,4046834,IOS高级开发工程师,广州,2018-05-02 15:39:45,10.0,290905,广州楠天,广州楠天网络科技有限公司,15-50人,天河区,大专,不需要融资,移动互联网,113.398974,23.121974,全职,3-5年,[]
546,4262036,IOS开发,厦门,2018-05-02 14:52:28,10.8,82763,联图,厦门联图网络科技有限公司,15-50人,思明区,大专,A轮,"移动互联网,旅游",118.178805,24.491003,全职,1-3年,"['节日礼物', '年底双薪', '免费班车', '专项奖金']"
547,4309709,iOS开发工程师,广州,2018-05-02 14:50:38,7.8,116956,千翼,广州千翼信息技术有限公司,15-50人,萝岗区,大专,未融资,"电子商务,移动互联网",113.436793,23.162727,全职,1-3年,[]
548,3427868,iOS开发工程师,北京,2018-05-02 11:10:27,28.0,50702,美团点评,北京三快在线科技有限公司,2000人以上,朝阳区,本科,D轮及以上,"移动互联网,O2O",116.48776,40.008007,全职,3-5年,"['技能培训', '绩效奖金', '岗位晋升', '领导好']"
549,4022801,IOS开发工程师,上海,2018-05-02 10:14:45,19.0,15281,上海晨之科,上海晨之科信息技术有限公司,150-500人,徐汇区,本科,C轮,"移动互联网,游戏",121.417459,31.175027,全职,3-5年,"['绩效奖金', '弹性工作', '扁平管理', '带薪年假']"
550,2565443,IOS高级工程师,上海,2018-05-02 10:01:30,26.0,137205,乐至科技,乐至（上海）科技有限公司,15-50人,徐汇区,本科,不需要融资,移动互联网,121.432566,31.199382,全职,5-10年,"['年底双薪', '带薪年假', '午餐补助', '交通补助']"
551,4361911,IOS初级工程师,北京,2018-05-02 09:59:53,14.0,14745,以太创服,艾普拉斯投资顾问（北京）有限公司,150-500人,朝阳区,本科,B轮,金融,116.471469,39.910169,全职,不限,"['绩效奖金', '股票期权', '投资机会', '其他公司股票']"
552,2537114,iOS,广州,2018-05-02 09:59:49,14.0,121107,茄子科技,广州市迅茄软件科技有限公司,50-150人,天河区,本科,D轮及以上,"电子商务,移动互联网",113.3351734,23.14904038,全职,1-3年,[]
553,4215100,iOS开发工程师,深圳,2018-05-02 09:58:26,19.0,331909,深圳市光谱软件开发有限公司,深圳市光谱软件开发有限公司,15-50人,福田区,本科,B轮,移动互联网,114.060322,22.569719,全职,不限,"['定期体检', '带薪年假', '弹性工作', '年度旅游']"
554,2973448,ios研发工程师,广州,2018-05-02 09:48:10,10.2,188668,链动科技,广东链动网络科技有限公司,50-150人,海珠区,大专,不需要融资,"移动互联网,电子商务",113.372026,23.100388,全职,1-3年,"['定期体检', '年度旅游', '节日礼物', '五险一金']"
555,3796441,高级 iOS 开发工程师,成都,2018-05-02 09:11:07,10.8,4178,凯奇谷,北京凯奇谷信息技术股份有限公司,150-500人,高新区,本科,上市公司,"移动互联网,游戏",104.048199,30.585378,全职,1-3年,"['技能培训', '股票期权', '年度旅游', '岗位晋升']"
556,4486780,IOS开发,北京,2018-05-02 08:52:24,12.0,25597,卓众传媒,北京卓众出版有限公司,150-500人,朝阳区,本科,不需要融资,"数据服务,文化娱乐",115.99339,39.99426,全职,1-3年,"['美女如云', '岗位晋升', '花园操场', '独栋办公楼']"
557,4392820,IOS开发工程师,长沙,2018-05-02 08:33:13,7.6,66206,长沙乐恩教育咨询有限公司,长沙乐恩教育咨询有限公司,50-150人,开福区,不限,A轮,电子商务,0.0,0.0,全职,3-5年,"['年底双薪', '节日礼物', '技能培训', '绩效奖金']"
558,3666288,iOS开发工程师,上海,2018-04-28 10:49:55,24.0,35422,京东,京东商城,2000人以上,长宁区,本科,上市公司,电子商务,121.360459,31.221087,全职,3-5年,"['年底双薪', '节日礼物', '技能培训', '岗位晋升']"
559,4272112,iOS,广州,2018-04-27 09:36:22,2.8,150018,巨头IT,广州巨头信息科技有限公司,少于15人,天河区,大专,不需要融资,"企业服务,移动互联网",113.340196,23.136095,全职,不限,[]
560,4472181,iOS开发工程师,北京,2018-04-24 13:45:38,19.0,216662,SENSORO,北京升哲科技有限公司,50-150人,朝阳区,本科,B轮,"移动互联网,硬件",116.481049,39.996796,全职,3-5年,[]
561,4456220,iOS开发工程师,杭州,2018-04-23 20:06:21,17.0,217323,滕捷,杭州滕捷网络科技有限公司,少于15人,萧山区,本科,天使轮,"移动互联网,金融",120.270363,30.220285,全职,3-5年,[]
562,4238826,iOS开发工程师,广州,2018-04-18 19:06:38,12.0,213466,乐顽科技,广州乐顽科技有限公司,少于15人,番禺区,本科,不需要融资,"移动互联网,游戏",113.407063,23.057297,全职,1-3年,[]
563,3968786,ios开发工程师,南宁,2018-04-11 15:37:07,12.0,303623,蛋卷科技,广西蛋卷科技有限公司,15-50人,西乡塘区,本科,不需要融资,"移动互联网,电子商务",108.26658,22.86286,全职,3-5年,"['带薪年假', '交通补助', '绩效奖金', '年度旅游']"
564,4368050,ios工程师,南京,2018-04-08 09:46:31,8.4,115025,乐酷科技,南京乐酷网络科技有限公司,50-150人,雨花台区,本科,天使轮,移动互联网,118.777549,31.972815,全职,不限,"['年底双薪', '午餐补助', '股票期权', '专项奖金']"
565,4088551,ios开发工程师,杭州,2018-05-02 18:17:15,12.4,96921,远传技术,浙江远传信息技术股份有限公司,150-500人,滨江区,本科,上市公司,移动互联网,120.184368,30.183401,全职,3-5年,"['技能培训', '节日礼物', '股票期权', '带薪年假']"
566,3247265,IOS开发工程师,珠海,2018-05-02 17:00:08,8.8,206070,珠海市鼎芯科技有限公司,珠海市鼎芯科技有限公司,50-150人,香洲区,本科,不需要融资,"移动互联网,其他",113.564803,22.370609,全职,1-3年,[]
567,3961523,ios软件工程师,常州,2018-05-02 16:49:14,7.6,172073,永安行,江苏永安行低碳科技有限公司,2000人以上,新北区,本科,上市公司,"移动互联网,O2O",119.952052,31.83678,全职,1-3年,[]
568,4265628,iOS开发工程师,广州,2018-05-02 15:27:46,13.2,170256,深圳触云科技,深圳触云科技有限公司,50-150人,海珠区,大专,B轮,"移动互联网,数据服务",0.0,0.0,全职,1-3年,"['年底双薪', '专项奖金', '股票期权', '带薪年假']"
569,2703178,ios开发程序员,佛山,2018-05-02 14:37:03,6.8,117271,用心科技,广东用心网络科技有限公司,50-150人,顺德区,大专,天使轮,移动互联网,113.2859896,22.77903942,全职,不限,"['交通补助', '定期体检', '午餐补助', '通讯津贴']"
570,3925992,ios开发工程师,宁波,2018-05-02 14:26:50,14.0,299649,元旨科技,浙江元旨科技有限公司,15-50人,,本科,不需要融资,"移动互联网,社交网络",121.549483,29.803583,全职,1-3年,"['带薪年假', '绩效奖金', '领导好', '扁平管理']"
571,4339587,ios开发工程师,广州,2018-05-02 14:12:41,8.8,127344,广州正盟,广州市正盟计算机科技有限公司,50-150人,天河区,大专,不需要融资,"移动互联网,数据服务",113.368994,23.125277,全职,1-3年,"['专项奖金', '午餐补助', '通讯津贴', '带薪年假']"
572,3481044,IOS开发工程师,深圳,2018-05-02 11:55:39,17.0,166335,华阅文化,深圳市华阅文化传媒有限公司,50-150人,南山区,本科,A轮,移动互联网,113.944732,22.547608,全职,3-5年,"['专项奖金', '带薪年假', '午餐补助', '定期体检']"
573,3502549,iOS开发工程师（初级）,广州,2018-05-02 11:39:42,5.2,66619,智悅网络,广州智悦网络科技有限公司,50-150人,天河区,本科,A轮,"移动互联网,电子商务",113.372277,23.12281,全职,应届毕业生,"['五险一金', '年底双薪', '专项奖金', '带薪年假']"
574,4126004,iOS高级软件工程师,上海,2018-05-02 10:50:43,19.0,54555,格尔软件,上海格尔软件股份有限公司,150-500人,闸北区,本科,上市公司,信息安全,121.441664,31.297678,全职,3-5年,"['节日礼物', '带薪年假', '管理规范', '领导好']"
575,4448801,IOS开发工程师,北京,2018-05-02 10:32:59,19.0,310289,快陪练,北京未来橙网络科技有限公司,50-150人,朝阳区,本科,天使轮,"移动互联网,教育",116.466795,40.002535,全职,3-5年,"['定期体检', '股票期权', '绩效奖金', '专项奖金']"
576,4217689,IOS开发工程师,北京,2018-05-02 10:03:41,19.0,7835,金山办公软件,北京金山软件有限公司,2000人以上,海淀区,本科,上市公司,移动互联网,116.32274,40.036741,全职,1-3年,"['年底双薪', '节日礼物', '技能培训', '绩效奖金']"
577,4424869,iOS高级开发工程师,北京,2018-05-02 09:34:46,22.0,122748,顶上英语,北京顶上科技有限公司,50-150人,海淀区,本科,A轮,教育,116.316384,39.977685,全职,5-10年,"['午餐', '定期体检', '弹性工作', '扁平管理']"
578,4218677,ios开发工程师,北京,2018-05-02 09:19:38,21.0,287849,弘道,北京弘道智慧中医技术有限公司,50-150人,海淀区,本科,不需要融资,"医疗健康,数据服务",116.3075,39.983783,全职,3-5年,"['""""']"
579,2550665,iOS工程师,南京,2018-05-02 08:42:05,11.2,107277,南京弟齐信息技术有限公司,南京弟齐信息技术有限公司,15-50人,雨花台区,本科,天使轮,"移动互联网,社交网络",118.764564,32.008055,全职,1-3年,"['股票期权', '绩效奖金', '带薪年假', '年度旅游']"
580,4226809,IOS开发工程师,广州,2018-04-27 11:26:12,24.0,217320,豆播,广州豆播信息科技有限公司,50-150人,天河区,本科,天使轮,"移动互联网,电子商务",113.321731,23.120154,全职,3-5年,[]
581,4474153,iOS开发工程师,杭州,2018-04-24 16:06:34,17.0,249963,中漾电商,杭州中漾电子商务有限公司,50-150人,滨江区,大专,不需要融资,"移动互联网,金融",120.211816,30.20856,全职,3-5年,"['绩效奖金', '带薪年假', '定期体检', '股票期权']"
582,3700623,iOS开发工程师,杭州,2018-04-18 23:48:11,14.0,27495,鑫合汇,杭州鑫合汇互联网金融服务有限公司,500-2000人,拱墅区,本科,不需要融资,金融,120.11788,30.336493,全职,不限,"['年底双薪', '节日礼物', '期权激励', '绩效奖金']"
583,3929827,ios开发工程师,上海,2018-05-03 09:09:21,12.8,78369,欧电云,上海欧电云信息科技有限公司,150-500人,浦东新区,本科,B轮,"电子商务,企业服务",121.581977,31.197071,全职,不限,"['试用期全薪', '定期体检', '五险一金', '弹性工作']"
584,4417309,iOS开发工程师,深圳,2018-05-03 09:08:06,17.0,10941,和而泰,深圳和而泰智能控制股份有限公司,2000人以上,南山区,本科,上市公司,移动互联网,113.954321,22.537693,全职,1-3年,"['绩效奖金', '年终分红', '股票期权', '专项奖金']"
585,3221114,高级IOS开发工程师,北京,2018-05-02 16:20:37,21.0,70,宝宝树,宝宝树（北京）信息技术有限公司,500-2000人,朝阳区,本科,D轮及以上,社交网络,115.99339,39.99426,全职,3-5年,"['商业医疗保险', '股票期权', '带薪年假', '扁平管理']"
586,4220250,高级iOS工程师,北京,2018-05-02 15:41:46,21.0,84656,皇包车,北京纯粹旅行有限公司,150-500人,朝阳区,本科,C轮,"移动互联网,旅游",116.474936,39.901442,全职,3-5年,"['带薪年假', '绩效奖金', '岗位晋升', '年度旅游']"
587,4494918,高级ios开发工程师,上海,2018-05-02 11:17:21,21.0,12253,飞智,上海飞智电子科技有限公司,50-150人,杨浦区,本科,A轮,"游戏,硬件",121.506266,31.314152,全职,5-10年,"['年终分红', '年底双薪', '绩效奖金', '五险一金']"
588,1776774,iOS,北京,2018-05-02 10:46:47,19.0,127378,航美在线,航美在线网络科技有限公司,500-2000人,东城区,本科,上市公司,"移动互联网,广告营销",,,全职,3-5年,"['绩效奖金', '通讯津贴', '带薪年假', '定期体检']"
589,4270889,ios工程师,北京,2018-05-02 09:58:25,18.2,36353,寻宝天行,北京寻宝天行网络技术有限公司,50-150人,朝阳区,本科,不需要融资,电子商务,116.424816,40.004194,全职,3-5年,"['技能培训', '节日礼物', '绩效奖金', '定期体检']"
590,4112406,高级iOS开发工程师,北京,2018-05-02 09:55:51,28.0,312651,摩尔妈妈,北京摩尔妈咪网络科技有限公司,15-50人,朝阳区,本科,A轮,移动互联网,116.477224,39.95602,全职,1-3年,"['年底双薪', '股票期权', '定期体检', '带薪年假']"
591,4403994,高级iOS开发工程师,武汉,2018-05-02 09:44:09,16.2,52162,武汉政通,北京数字政通科技股份有限公司,500-2000人,洪山区,本科,上市公司,移动互联网,114.425351,30.457034,全职,3-5年,"['技能培训', '年底双薪', '节日礼物', '休假灵活']"
592,3905609,iOS开发工程师,北京,2018-05-02 09:18:56,21.0,248005,红赢科技,北京红赢科技有限公司,50-150人,海淀区,本科,不需要融资,"移动互联网,金融",116.298056,39.959912,全职,3-5年,"['专项奖金', '年终分红', '带薪年假', '定期体检']"
593,4443782,ios开发工程师,北京,2018-05-02 09:02:34,19.0,24489,橙光游戏,北京六趣网络科技有限公司,150-500人,海淀区,本科,B轮,游戏,0.0,0.0,全职,3-5年,"['股票期权', '年终分红', '专项奖金', '弹性工作']"
594,2000430,IOS高级开发工程师,广州,2018-05-01 22:52:28,24.8,129877,航仕科技,上海航仕企业管理有限公司,150-500人,天河区,本科,C轮,"移动互联网,O2O",113.36663,23.122032,全职,3-5年,"['年底双薪', '午餐补助', '专项奖金', '绩效奖金']"
595,4487051,ios开发工程师,上海,2018-04-28 09:02:40,12.0,82556,瑛麒动漫,上海瑛麒动漫科技有限公司,15-50人,徐汇区,大专,A轮,"移动互联网,文化娱乐",121.43174,31.18669,全职,1-3年,"['年底双薪', '股票期权', '专项奖金', '带薪年假']"
596,4338852,IOS开发工程师,北京,2018-04-20 15:48:38,22.8,111468,网易立马理财,光大易创网络科技股份有限公司,150-500人,海淀区,本科,不需要融资,"金融,移动互联网",116.276446,40.042539,全职,1-3年,"['带薪年假', '交通补助', '绩效奖金', '免费班车']"
597,4247042,iOS,上海,2018-05-03 09:23:12,11.2,125263,上海芭比信息技术服务有限公司,上海芭比信息技术服务有限公司,50-150人,闵行区,本科,天使轮,"移动互联网,硬件",121.450843,31.023412,全职,不限,"['五险一金', '岗位晋升']"
598,4351860,Ios开发,杭州,2018-05-02 18:45:11,12.0,354830,黄灯科技,杭州黄灯科技有限公司,少于15人,余杭区,本科,天使轮,移动互联网、社交网络,,,全职,1-3年,"['""""']"
599,4383985,IOS开发工程师,深圳,2018-05-02 17:41:03,17.0,50241,Symbio-Freeborders,信必优(深圳)信息技术有限公司,2000人以上,罗湖区,不限,未融资,"移动互联网,电子商务",0.0,0.0,全职,3-5年,"['节日礼物', '年底双薪', '带薪年假', '年度旅游']"
600,4489486,安卓/ios系统开发工程师,南京,2018-05-02 16:41:47,3.8,233304,燃网络,南京网燃网络科技有限公司,少于15人,秦淮区,大专,未融资,"移动互联网,游戏",118.788719,32.049374,全职,不限,[]
601,4165292,IOS工程师（华润-罗湖地王大厦）,深圳,2018-05-02 11:53:58,15.4,50241,Symbio-Freeborders,信必优(深圳)信息技术有限公司,2000人以上,罗湖区,大专,未融资,"移动互联网,电子商务",114.11065,22.542724,全职,3-5年,"['节日礼物', '年底双薪', '带薪年假', '年度旅游']"
602,4312189,ios 工程师,上海,2018-05-02 11:20:29,7.6,200596,上海烜赫,上海烜赫电子商务有限公司,15-50人,闸北区,本科,不需要融资,"移动互联网,电子商务",121.441604,31.297429,全职,1-3年,[]
603,4410451,iOS开发工程师,北京,2018-05-02 10:51:12,21.0,362129,51VV,优贝在线（北京）信息技术有限公司,150-500人,朝阳区,本科,不需要融资,"移动互联网,社交网络",116.41752,40.02321,全职,3-5年,"['""""']"
604,4504162,IOS工程师,深圳,2018-05-02 10:21:23,28.0,3058,无秘,深圳无觅科技有限公司,150-500人,南山区,本科,B轮,"移动互联网,金融",113.950732,22.553181,全职,1-3年,"['高速增长', '股票期权', '小而精', '扁平管理']"
605,4044205,iOS开发工程师,上海,2018-05-02 09:51:04,10.8,47740,视+AR,视辰信息科技（上海）有限公司,50-150人,浦东新区,本科,B轮,"移动互联网,数据服务",121.598997,31.208792,全职,1-3年,"['股票期权', '岗位晋升', '五险一金', '弹性工作']"
606,4400450,IOS开发工程师,广州,2018-05-02 09:31:17,6.8,63978,房王网,广州合富信息科技有限公司,150-500人,天河区,大专,不需要融资,移动互联网,113.316378,23.121106,全职,1年以下,"['节日礼物', '带薪年假', '绩效奖金', '岗位晋升']"
607,3710007,iOS开发工程师,杭州,2018-05-02 09:18:35,12.0,198191,51闪电购,杭州许旺电子商务有限公司,50-150人,滨江区,本科,A轮,"金融,移动互联网",120.211816,30.20856,全职,1-3年,"['带薪年假', '午餐补助', '定期体检', '弹性工作']"
608,4469901,iOS工程师,贵阳,2018-05-02 09:01:56,7.6,92801,搜床网络,广州搜床网络科技有限公司,150-500人,花溪区,大专,A轮,"移动互联网,O2O",106.494959,26.43701,全职,1-3年,"['带薪年假', '扁平管理', '五险一金', '弹性工作']"
609,2725241,IOS开发工程师,杭州,2018-04-26 15:57:30,7.0,160961,柚今科技,杭州柚今科技有限公司,15-50人,江干区,本科,天使轮,"移动互联网,社交网络",,,全职,不限,[]
610,4450719,资深iOS开发工程师 (MJ000783),广州,2018-04-25 09:34:56,28.0,49579,欢聚时代（YY Inc）,广州华多网络科技有限公司,2000人以上,番禺区,本科,上市公司,移动互联网,113.348011,23.007841,全职,5-10年,"['技能培训', '节日礼物', '无息贷款', '绩效奖金']"
611,4066933,iOS开发工程师,成都,2018-04-24 17:16:07,7.0,313700,贵鑫堂,成都贵鑫堂网络科技有限公司,50-150人,金牛区,大专,未融资,"移动互联网,游戏",104.009469,30.714274,全职,1-3年,"['绩效奖金', '通讯津贴', '五险一金', '带薪年假']"
612,3531192,iOS开发工程师,北京,2018-04-23 17:58:20,7.6,194706,智德天成,北京智德天成信息技术有限公司,50-150人,海淀区,大专,未融资,"移动互联网,金融",116.298056,39.959912,全职,应届毕业生,"['年底双薪', '绩效奖金', '交通补助', '通讯津贴']"
613,1412425,iOS,贵阳,2018-05-02 16:06:33,11.2,80785,宏思锐达,贵州宏思锐达科技有限公司,15-50人,南明区,大专,未融资,"移动互联网,电子商务",106.69223954,26.56924985,全职,1-3年,"['节日礼物', '年底双薪', '股票期权', '专项奖金']"
614,4256798,ios工程师,厦门,2018-05-02 14:59:23,9.6,325230,厦门曾爷爷网络科技有限公司,厦门曾爷爷网络科技有限公司,15-50人,集美区,大专,未融资,"移动互联网,电子商务",118.051039,24.60666,全职,1-3年,"['""""']"
615,4505829,ios高级开发工程师,成都,2018-05-02 13:46:00,15.2,29209,优客逸家,优客逸家(成都)信息科技有限公司,500-2000人,高新区,本科,C轮,O2O,104.060731,30.584751,全职,3-5年,"['节日礼物', '年底双薪', '绩效奖金', '年度旅游']"
616,3922206,高级IOS开发工程师,廊坊,2018-05-02 11:15:34,10.8,111175,ZingFront智线,智线云科技（北京）有限公司,50-150人,广阳区,本科,A轮,"移动互联网,数据服务",0.0,0.0,全职,3-5年,"['绩效奖金', '股票期权', '带薪年假', '弹性工作']"
